{
  "_embedded": [
    {
      "facilityId": 40786,
      "epaFacId": "100000000198",
      "facName": "Clearbrook Ag Service",
      "city": "Clearbrook",
      "facStreet1Tx": "Jensen Street",
      "facStreet2Tx": "Tower Street",
      "state": "MN",
      "zipCode": "56634",
      "zip4Code": null,
      "county": "CLEARWATER",
      "facLatDecMs": "47.699722",
      "facLongDecMs": "-095.431111"
    },
    {
      "facilityId": 1000103823,
      "epaFacId": "100000000205",
      "facName": "Farmward Cooperative - Wabasso",
      "city": "Wabasso",
      "facStreet1Tx": "Hwy 68 west",
      "facStreet2Tx": "",
      "state": "MN",
      "zipCode": "56293",
      "zip4Code": "",
      "county": "REDWOOD",
      "facLatDecMs": "44.400312",
      "facLongDecMs": "-095.260230"
    },
    {
      "facilityId": 1000077916,
      "epaFacId": "100000000223",
      "facName": "Glacial Plains Cooperative Clontarf",
      "city": "Clontarf",
      "facStreet1Tx": "100 Becker Ave. NE",
      "facStreet2Tx": null,
      "state": "MN",
      "zipCode": "56226",
      "zip4Code": "0338",
      "county": "SWIFT",
      "facLatDecMs": "45.377124",
      "facLongDecMs": "-095.673867"
    },
    {
      "facilityId": 1000057924,
      "epaFacId": "100000000287",
      "facName": "Northern Country Cooperative Company(Emmons)",
      "city": "Emmons",
      "facStreet1Tx": "248 State Street",
      "facStreet2Tx": null,
      "state": "MN",
      "zipCode": "56029",
      "zip4Code": "0212",
      "county": "FREEBORN",
      "facLatDecMs": "43.500008",
      "facLongDecMs": "-93.495276"
    },
    {
      "facilityId": 1000113764,
      "epaFacId": "100000000330",
      "facName": "Helena Agri-Enterprises, LLC - Canby, MN Facility",
      "city": "Canby",
      "facStreet1Tx": "Intersection of 220th Ave. & Hwy.68",
      "facStreet2Tx": "",
      "state": "MN",
      "zipCode": "56220",
      "zip4Code": "",
      "county": "YELLOW MEDICINE",
      "facLatDecMs": "44.717222",
      "facLongDecMs": "-096.291981"
    },
    {
      "facilityId": 1000052140,
      "epaFacId": "100000000367",
      "facName": "KRAGNES FARMERS ELEVATOR CO",
      "city": "MOORHEAD",
      "facStreet1Tx": "9749 21st ST. NORTH",
      "facStreet2Tx": null,
      "state": "MN",
      "zipCode": "56560",
      "zip4Code": null,
      "county": "CLAY",
      "facLatDecMs": "46.983389",
      "facLongDecMs": "-096.750028"
    },
    {
      "facilityId": 18681,
      "epaFacId": "100000000438",
      "facName": "KROWN INC DBA HI-YIELD PRODUCTS",
      "city": "ALBERT LEA",
      "facStreet1Tx": "Rail Road Street",
      "facStreet2Tx": null,
      "state": "MN",
      "zipCode": "56007",
      "zip4Code": null,
      "county": "FREEBORN",
      "facLatDecMs": "43.664861",
      "facLongDecMs": "-93.4695"
    },
    {
      "facilityId": 1000093196,
      "epaFacId": "100000000535",
      "facName": "Northern Country Cooperative/Alden",
      "city": "Alden",
      "facStreet1Tx": "155 1st. Ave. West",
      "facStreet2Tx": null,
      "state": "MN",
      "zipCode": "56009",
      "zip4Code": null,
      "county": "FREEBORN",
      "facLatDecMs": "43.670500",
      "facLongDecMs": "-093.579250"
    },
    {
      "facilityId": 1000089823,
      "epaFacId": "100000000580",
      "facName": "KROWN INC DBA HI-YIELD PRODUCTS",
      "city": "HARTLAND",
      "facStreet1Tx": "100 RAILROAD ST.",
      "facStreet2Tx": null,
      "state": "MN",
      "zipCode": "56042",
      "zip4Code": null,
      "county": "FREEBORN",
      "facLatDecMs": "43.804333",
      "facLongDecMs": "-093.484611"
    },
    {
      "facilityId": 1000080397,
      "epaFacId": "100000000615",
      "facName": "Farmward Cooperative",
      "city": "Wood Lake",
      "facStreet1Tx": "3rd and Railroad Ave",
      "facStreet2Tx": "PO Box 69",
      "state": "MN",
      "zipCode": "56297",
      "zip4Code": "0069",
      "county": "YELLOW MEDICINE",
      "facLatDecMs": "44.654056",
      "facLongDecMs": "-095.540028"
    },
    {
      "facilityId": 9835,
      "epaFacId": "100000000642",
      "facName": "CHANDLER COOP, CHANDLER",
      "city": "CHANDLER",
      "facStreet1Tx": "517 STATE HWY 91",
      "facStreet2Tx": null,
      "state": "MN",
      "zipCode": "56122",
      "zip4Code": "0205",
      "county": "MURRAY",
      "facLatDecMs": "43.923694",
      "facLongDecMs": "-95.94425"
    },
    {
      "facilityId": 1000112714,
      "epaFacId": "100000000704",
      "facName": "Chandler Coop",
      "city": "Lake Wilson",
      "facStreet1Tx": "907 State Highway 91",
      "facStreet2Tx": "",
      "state": "MN",
      "zipCode": "56151",
      "zip4Code": "",
      "county": "MURRAY",
      "facLatDecMs": "43.980225",
      "facLongDecMs": "-95.944762"
    },
    {
      "facilityId": 9836,
      "epaFacId": "100000000713",
      "facName": "CHANDLER COOP , SLAYTON",
      "city": "SLAYTON",
      "facStreet1Tx": "1935 20TH STREET",
      "facStreet2Tx": null,
      "state": "MN",
      "zipCode": "56172",
      "zip4Code": null,
      "county": "MURRAY",
      "facLatDecMs": "43.993333",
      "facLongDecMs": "-95.765417"
    },
    {
      "facilityId": 1000090584,
      "epaFacId": "100000000928",
      "facName": "HI YIELD PRODUCTS, INC.",
      "city": "ALDEN",
      "facStreet1Tx": "23282 620TH AVENUE",
      "facStreet2Tx": null,
      "state": "MN",
      "zipCode": "56009",
      "zip4Code": null,
      "county": "FREEBORN",
      "facLatDecMs": "43.691583",
      "facLongDecMs": "-093.627306"
    },
    {
      "facilityId": 1000111723,
      "epaFacId": "100000000937",
      "facName": "Alden, MN 3911",
      "city": "Alden",
      "facStreet1Tx": "63025 150th Street",
      "facStreet2Tx": "",
      "state": "MN",
      "zipCode": "56009",
      "zip4Code": "",
      "county": "FREEBORN",
      "facLatDecMs": "43.571890",
      "facLongDecMs": "-093.607209"
    },
    {
      "facilityId": 1000077431,
      "epaFacId": "100000000955",
      "facName": "Central Farm Service - Ellendale",
      "city": "ELLENDALE",
      "facStreet1Tx": "502 SW 42ND AVE",
      "facStreet2Tx": null,
      "state": "MN",
      "zipCode": "56026",
      "zip4Code": null,
      "county": "STEELE",
      "facLatDecMs": "43.870633",
      "facLongDecMs": "-093.288312"
    },
    {
      "facilityId": 1000096166,
      "epaFacId": "100000001188",
      "facName": "WAVERLY - CENTRA SOTA",
      "city": "WAVERLY",
      "facStreet1Tx": "3998 - 80TH STREET SW",
      "facStreet2Tx": null,
      "state": "MN",
      "zipCode": "55390",
      "zip4Code": null,
      "county": "WRIGHT",
      "facLatDecMs": "45.036810",
      "facLongDecMs": "-093.971649"
    },
    {
      "facilityId": 9869,
      "epaFacId": "100000001286",
      "facName": "RED LAKE COUNTY COOP",
      "city": "PLUMMER",
      "facStreet1Tx": "HWY 59 SOUTH",
      "facStreet2Tx": null,
      "state": "MN",
      "zipCode": "56748",
      "zip4Code": null,
      "county": "RED LAKE",
      "facLatDecMs": "47.905778",
      "facLongDecMs": "-96.037306"
    },
    {
      "facilityId": 35594,
      "epaFacId": "100000001339",
      "facName": "RED LAKE COUNTY CO-OP-RED LAKE FALLS",
      "city": "RED LAKE FALLS",
      "facStreet1Tx": "HWY 32 SOUTH",
      "facStreet2Tx": null,
      "state": "MN",
      "zipCode": "56750",
      "zip4Code": null,
      "county": "RED LAKE",
      "facLatDecMs": "47.877444",
      "facLongDecMs": "-096.265861"
    },
    {
      "facilityId": 1000081494,
      "epaFacId": "100000001348",
      "facName": "RED LAKE COUNTY CO-OP-BROOKS",
      "city": "BROOKS",
      "facStreet1Tx": "106 HWY 59 SOUTH",
      "facStreet2Tx": null,
      "state": "MN",
      "zipCode": "56715",
      "zip4Code": null,
      "county": "RED LAKE",
      "facLatDecMs": "47.813111",
      "facLongDecMs": "-096.000111"
    },
    {
      "facilityId": 158,
      "epaFacId": "100000001357",
      "facName": "RED LAKE COUNTY COOP",
      "city": "ERSKINE",
      "facStreet1Tx": "JUNCTION US HWY 2 & US HWY 59",
      "facStreet2Tx": null,
      "state": "MN",
      "zipCode": "56535",
      "zip4Code": null,
      "county": "POLK",
      "facLatDecMs": "47.659139",
      "facLongDecMs": "-95.984056"
    },
    {
      "facilityId": 39947,
      "epaFacId": "100000001534",
      "facName": "WESTERN CONSOLIDATED COOP     -     WATSON",
      "city": "WATSON",
      "facStreet1Tx": "HWY 7 & 59",
      "facStreet2Tx": null,
      "state": "MN",
      "zipCode": "56295",
      "zip4Code": null,
      "county": "CHIPPEWA",
      "facLatDecMs": "45.016950",
      "facLongDecMs": "-095.810410"
    },
    {
      "facilityId": 175,
      "epaFacId": "100000001543",
      "facName": "CARGILL INC.",
      "city": "BINGHAM LAKE",
      "facStreet1Tx": "HYW 60 EAST SIDE BINGHAM LAKE,MN",
      "facStreet2Tx": null,
      "state": "MN",
      "zipCode": "56118",
      "zip4Code": null,
      "county": "COTTONWOOD",
      "facLatDecMs": "43.909056",
      "facLongDecMs": "-95.035472"
    },
    {
      "facilityId": 177,
      "epaFacId": "100000001561",
      "facName": "WESTERN CONSOLIDATED COOP     -     SUNBURG",
      "city": "SUNBURG",
      "facStreet1Tx": "95TH ST.NORTH WEST",
      "facStreet2Tx": null,
      "state": "MN",
      "zipCode": "56289",
      "zip4Code": null,
      "county": "KANDIYOHI",
      "facLatDecMs": "45.210333",
      "facLongDecMs": "95.103556"
    },
    {
      "facilityId": 1000080435,
      "epaFacId": "100000001570",
      "facName": "WESTERN CONSOLIDATED COOP     -     APPLETON",
      "city": "APPLETON",
      "facStreet1Tx": "NORTH WYMAN STREET",
      "facStreet2Tx": "N Hwy 59",
      "state": "MN",
      "zipCode": "56208",
      "zip4Code": null,
      "county": "SWIFT",
      "facLatDecMs": "45.208889",
      "facLongDecMs": "-096.012222"
    },
    {
      "facilityId": 9877,
      "epaFacId": "100000001589",
      "facName": "WESTERN CONSOLIDATED COOP     -     HOLLOWAY",
      "city": "HOLLOWAY",
      "facStreet1Tx": "101 RAND STREET",
      "facStreet2Tx": "P.O. BOX 78",
      "state": "MN",
      "zipCode": "56249",
      "zip4Code": null,
      "county": "SWIFT",
      "facLatDecMs": "45.148389",
      "facLongDecMs": "95.546"
    },
    {
      "facilityId": 33438,
      "epaFacId": "100000001598",
      "facName": "Cargill Inc.",
      "city": "Gluek",
      "facStreet1Tx": "5092 26th Street SE",
      "facStreet2Tx": null,
      "state": "MN",
      "zipCode": "56260",
      "zip4Code": null,
      "county": "CHIPPEWA",
      "facLatDecMs": "44.984808",
      "facLongDecMs": "-095.475980"
    },
    {
      "facilityId": 1000117627,
      "epaFacId": "100000001605",
      "facName": "Bird Island Agronomy",
      "city": "BIRD ISLAND",
      "facStreet1Tx": "511 OAK AVENUE",
      "facStreet2Tx": "",
      "state": "MN",
      "zipCode": "55310",
      "zip4Code": "",
      "county": "RENVILLE",
      "facLatDecMs": "44.769361",
      "facLongDecMs": "-094.892056"
    },
    {
      "facilityId": 1000110550,
      "epaFacId": "100000001758",
      "facName": "Central Farm Service - Blooming Prairie",
      "city": "Blooming Prairie",
      "facStreet1Tx": "10060 State Highway 30",
      "facStreet2Tx": "",
      "state": "MN",
      "zipCode": "55917",
      "zip4Code": "",
      "county": "DODGE",
      "facLatDecMs": "43.871500",
      "facLongDecMs": "-093.043972"
    },
    {
      "facilityId": 1000090924,
      "epaFacId": "100000001785",
      "facName": "ST. MARTIN - CENTRA SOTA",
      "city": "ST. MARTIN",
      "facStreet1Tx": "111 MAINE STREET",
      "facStreet2Tx": null,
      "state": "MN",
      "zipCode": "56376",
      "zip4Code": null,
      "county": "STEARNS",
      "facLatDecMs": "45.499152",
      "facLongDecMs": "-094.664543"
    },
    {
      "facilityId": 1000103822,
      "epaFacId": "100000001883",
      "facName": "Farmward Cooperative",
      "city": "Comfrey",
      "facStreet1Tx": "101 Pine Street",
      "facStreet2Tx": "400 Hwy. 17 East",
      "state": "MN",
      "zipCode": "56019",
      "zip4Code": "0158",
      "county": "BROWN",
      "facLatDecMs": "44.108056",
      "facLongDecMs": "-094.900000"
    },
    {
      "facilityId": 1000103761,
      "epaFacId": "100000001918",
      "facName": "Farmward Cooperative - Morton",
      "city": "Morton",
      "facStreet1Tx": "320 West 1st St.",
      "facStreet2Tx": "",
      "state": "MN",
      "zipCode": "56270",
      "zip4Code": "",
      "county": "RENVILLE",
      "facLatDecMs": "44.549722",
      "facLongDecMs": "-094.985000"
    },
    {
      "facilityId": 1000115623,
      "epaFacId": "100000001945",
      "facName": "CHS Inc. - Oklee",
      "city": "Oklee",
      "facStreet1Tx": "806 Elevator Road",
      "facStreet2Tx": "",
      "state": "MN",
      "zipCode": "56742",
      "zip4Code": "",
      "county": "RED LAKE",
      "facLatDecMs": "47.843102",
      "facLongDecMs": "-95.854277"
    },
    {
      "facilityId": 1000077778,
      "epaFacId": "100000001954",
      "facName": "Central Farm Service - Austin",
      "city": "Austin",
      "facStreet1Tx": "54685 175 St",
      "facStreet2Tx": null,
      "state": "MN",
      "zipCode": "55912",
      "zip4Code": null,
      "county": "MOWER",
      "facLatDecMs": "43.6075",
      "facLongDecMs": "-092.955528"
    },
    {
      "facilityId": 1000094088,
      "epaFacId": "100000002025",
      "facName": "Lac Qui Parle Co-op Oil Co.",
      "city": "Dawson",
      "facStreet1Tx": "junction of Cty. Rd. 39 & Hwy. 212",
      "facStreet2Tx": null,
      "state": "MN",
      "zipCode": "56232",
      "zip4Code": null,
      "county": "LAC QUI PARLE",
      "facLatDecMs": "44.936889",
      "facLongDecMs": "-096.043278"
    },
    {
      "facilityId": 1000110608,
      "epaFacId": "100000002061",
      "facName": "Central Farm Service - Hayfield",
      "city": "Hayfield",
      "facStreet1Tx": "75530 State Highway 56",
      "facStreet2Tx": "",
      "state": "MN",
      "zipCode": "55940",
      "zip4Code": "",
      "county": "DODGE",
      "facLatDecMs": "43.855583",
      "facLongDecMs": "-092.857639"
    },
    {
      "facilityId": 1000112708,
      "epaFacId": "100000002132",
      "facName": "Cottonwood Coop Oil Co.",
      "city": "Cottonwood",
      "facStreet1Tx": "3786 CO RD 9 999 W 1ST St.",
      "facStreet2Tx": "",
      "state": "MN",
      "zipCode": "56229",
      "zip4Code": "0318",
      "county": "LYON",
      "facLatDecMs": "44.597038",
      "facLongDecMs": "-095.674702"
    },
    {
      "facilityId": 1000061904,
      "epaFacId": "100000002187",
      "facName": "Gilbertson Feed and Grain dba",
      "city": "Nerstrand",
      "facStreet1Tx": "415 Main Street",
      "facStreet2Tx": null,
      "state": "MN",
      "zipCode": "55053",
      "zip4Code": null,
      "county": "RICE",
      "facLatDecMs": "44.341667",
      "facLongDecMs": "-093.065278"
    },
    {
      "facilityId": 1000110637,
      "epaFacId": "100000002221",
      "facName": "Central Farm Service - Owatonna",
      "city": "OWATONNA",
      "facStreet1Tx": "3301 NW 21ST AVE",
      "facStreet2Tx": "",
      "state": "MN",
      "zipCode": "55060",
      "zip4Code": "",
      "county": "STEELE",
      "facLatDecMs": "44.120472",
      "facLongDecMs": "-093.242222"
    },
    {
      "facilityId": 9901,
      "epaFacId": "100000002301",
      "facName": "Dovray Grain and Feed",
      "city": "Dovray",
      "facStreet1Tx": "343 Haynes Street",
      "facStreet2Tx": null,
      "state": "MN",
      "zipCode": "56125",
      "zip4Code": "0227",
      "county": "MURRAY",
      "facLatDecMs": "44.054528",
      "facLongDecMs": "-95.549722"
    },
    {
      "facilityId": 1000082257,
      "epaFacId": "100000002356",
      "facName": "Pestorious Inc.",
      "city": "Albert Lea",
      "facStreet1Tx": "21463 700th Ave",
      "facStreet2Tx": null,
      "state": "MN",
      "zipCode": "56007",
      "zip4Code": "5497",
      "county": "FREEBORN",
      "facLatDecMs": "43.665300",
      "facLongDecMs": "-093.468600"
    },
    {
      "facilityId": 1000116987,
      "epaFacId": "100000002463",
      "facName": "Consumers Co-op Association",
      "city": "Litchfield",
      "facStreet1Tx": "1025 East Frontage Road",
      "facStreet2Tx": "",
      "state": "MN",
      "zipCode": "55355",
      "zip4Code": "",
      "county": "MEEKER",
      "facLatDecMs": "45.120778",
      "facLongDecMs": "-094.508306"
    },
    {
      "facilityId": 1000092387,
      "epaFacId": "100000002702",
      "facName": "Trilogy Ag Group LLC",
      "city": "Argyle",
      "facStreet1Tx": "200 South Atlantic",
      "facStreet2Tx": null,
      "state": "MN",
      "zipCode": "56713",
      "zip4Code": null,
      "county": "MARSHALL",
      "facLatDecMs": "48.327767",
      "facLongDecMs": "-096.816314"
    },
    {
      "facilityId": 1000090206,
      "epaFacId": "100000002711",
      "facName": "CRYSTAL VALLEY COOPERATIVE  (4) MAD AG",
      "city": "Madelia",
      "facStreet1Tx": "317  4th  street  NE",
      "facStreet2Tx": null,
      "state": "MN",
      "zipCode": "56062",
      "zip4Code": null,
      "county": "WATONWAN",
      "facLatDecMs": "44.056083",
      "facLongDecMs": "-094.412611"
    },
    {
      "facilityId": 9923,
      "epaFacId": "100000002828",
      "facName": "WACONIA FARM SUPPLY",
      "city": "WACONIA",
      "facStreet1Tx": "801 SO HWY 284",
      "facStreet2Tx": null,
      "state": "MN",
      "zipCode": "55387",
      "zip4Code": null,
      "county": "CARVER",
      "facLatDecMs": "44.840972",
      "facLongDecMs": "-93.786361"
    },
    {
      "facilityId": 14616,
      "epaFacId": "100000003122",
      "facName": "NUWAY COOPERATIVE-FAIRMONT LOCATION",
      "city": "FAIRMONT",
      "facStreet1Tx": "2090 135 STREET",
      "facStreet2Tx": null,
      "state": "MN",
      "zipCode": "56031",
      "zip4Code": null,
      "county": "MARTIN",
      "facLatDecMs": "43.681694",
      "facLongDecMs": "-94.449333"
    },
    {
      "facilityId": 1000010721,
      "epaFacId": "100000003275",
      "facName": "WACONIA FARM SUPPLY",
      "city": "New Germany",
      "facStreet1Tx": "Broadway St.",
      "facStreet2Tx": null,
      "state": "MN",
      "zipCode": "55367",
      "zip4Code": null,
      "county": "CARVER",
      "facLatDecMs": "44.884111",
      "facLongDecMs": "-093.965278"
    },
    {
      "facilityId": 33995,
      "epaFacId": "100000003382",
      "facName": "Farmers Coop Elevator Co.",
      "city": "Rushford",
      "facStreet1Tx": "Hwy 16 West",
      "facStreet2Tx": null,
      "state": "MN",
      "zipCode": "55971",
      "zip4Code": null,
      "county": "FILLMORE",
      "facLatDecMs": "43.802833",
      "facLongDecMs": "-091.786639"
    },
    {
      "facilityId": 1000107969,
      "epaFacId": "100000003756",
      "facName": "NuWay-K&H Cooperative-Welcome",
      "city": "Welcome",
      "facStreet1Tx": "402 Guide St. N.",
      "facStreet2Tx": "",
      "state": "MN",
      "zipCode": "56181",
      "zip4Code": "",
      "county": "MARTIN",
      "facLatDecMs": "43.669667",
      "facLongDecMs": "-094.613222"
    },
    {
      "facilityId": 1000019002,
      "epaFacId": "100000003774",
      "facName": "TRIANGLE AG, LLC-FOXHOME",
      "city": "FOXHOME",
      "facStreet1Tx": "3410 320th Ave.",
      "facStreet2Tx": null,
      "state": "MN",
      "zipCode": "56543",
      "zip4Code": null,
      "county": "WILKIN",
      "facLatDecMs": "46.280833",
      "facLongDecMs": "-096.306389"
    },
    {
      "facilityId": 18696,
      "epaFacId": "100000003925",
      "facName": "THOMPSON OIL COMPANY",
      "city": "HOLLANDALE",
      "facStreet1Tx": "108 Central Avenue",
      "facStreet2Tx": null,
      "state": "MN",
      "zipCode": "56045",
      "zip4Code": null,
      "county": "FREEBORN",
      "facLatDecMs": "43.760611",
      "facLongDecMs": "-93.194389"
    },
    {
      "facilityId": 9965,
      "epaFacId": "100000003943",
      "facName": "FARMERS CO-OP ELEVATOR CO",
      "city": "BELLINGHAM",
      "facStreet1Tx": "RAILROAD STREET",
      "facStreet2Tx": null,
      "state": "MN",
      "zipCode": "56212",
      "zip4Code": "0337",
      "county": "LAC QUI PARLE",
      "facLatDecMs": "44.937528",
      "facLongDecMs": "-95.937194"
    },
    {
      "facilityId": 9966,
      "epaFacId": "100000004014",
      "facName": "NUWAY COOPERATIVE, CEYLON",
      "city": "CEYLON",
      "facStreet1Tx": "210 EAST MAIN",
      "facStreet2Tx": null,
      "state": "MN",
      "zipCode": "56121",
      "zip4Code": "0321",
      "county": "MARTIN",
      "facLatDecMs": "43.535333",
      "facLongDecMs": "-94.6295"
    },
    {
      "facilityId": 1000086662,
      "epaFacId": "100000004078",
      "facName": "CRYSTAL VALLEY COOPERATIVE (10) HP",
      "city": "HOPE",
      "facStreet1Tx": "3751 SOUTHWEST 93RD STREET",
      "facStreet2Tx": "",
      "state": "MN",
      "zipCode": "56046",
      "zip4Code": "0128",
      "county": "STEELE",
      "facLatDecMs": "43.960556",
      "facLongDecMs": "-093.278972"
    },
    {
      "facilityId": 1000077284,
      "epaFacId": "100000004292",
      "facName": "CHS INC - Stephen",
      "city": "Stephen",
      "facStreet1Tx": "38667 US Highway 75 NW",
      "facStreet2Tx": null,
      "state": "MN",
      "zipCode": "56757",
      "zip4Code": null,
      "county": "MARSHALL",
      "facLatDecMs": "48.437436",
      "facLongDecMs": "-096.868929"
    },
    {
      "facilityId": 464,
      "epaFacId": "100000004372",
      "facName": "MINNKOTA FARMERS COOPERATIVE",
      "city": "JASPER",
      "facStreet1Tx": "401 SOUTH RAILROAD AVE",
      "facStreet2Tx": null,
      "state": "MN",
      "zipCode": "56144",
      "zip4Code": "0266",
      "county": "ROCK",
      "facLatDecMs": "43.847528",
      "facLongDecMs": "-96.401361"
    },
    {
      "facilityId": 39748,
      "epaFacId": "100000004407",
      "facName": "CHS Inc. Pipestone",
      "city": "Pipestone",
      "facStreet1Tx": "315 Third Ave",
      "facStreet2Tx": null,
      "state": "MN",
      "zipCode": "56164",
      "zip4Code": null,
      "county": "PIPESTONE",
      "facLatDecMs": "44.002778",
      "facLongDecMs": "-096.313889"
    },
    {
      "facilityId": 14222,
      "epaFacId": "100000004434",
      "facName": "FARMERS ELEVATOR CO. OF ALVARADO",
      "city": "ALVARADO",
      "facStreet1Tx": "HWY #1",
      "facStreet2Tx": null,
      "state": "MN",
      "zipCode": "56710",
      "zip4Code": null,
      "county": "MARSHALL",
      "facLatDecMs": "48.195111",
      "facLongDecMs": "-96.991167"
    },
    {
      "facilityId": 1000013487,
      "epaFacId": "100000004498",
      "facName": "Hutchinson Co-op/ Hutchinson Site",
      "city": "HUTCHINSON",
      "facStreet1Tx": "1420 ADAMS STREET",
      "facStreet2Tx": null,
      "state": "MN",
      "zipCode": "55350",
      "zip4Code": null,
      "county": "MCLEOD",
      "facLatDecMs": "44.869167",
      "facLongDecMs": "-094.344444"
    },
    {
      "facilityId": 9984,
      "epaFacId": "100000004602",
      "facName": "NUWAY COOPERATIVE SHERBURN MN",
      "city": "SHERBURN",
      "facStreet1Tx": "COUNTY ROAD 13",
      "facStreet2Tx": null,
      "state": "MN",
      "zipCode": "56171",
      "zip4Code": null,
      "county": "MARTIN",
      "facLatDecMs": "43.640083",
      "facLongDecMs": "-94.734861"
    },
    {
      "facilityId": 9985,
      "epaFacId": "100000004611",
      "facName": "NUWAY COOPERATIVE FAIRMONT MN",
      "city": "FAIRMONT",
      "facStreet1Tx": "914 NORTH STATE STREET",
      "facStreet2Tx": null,
      "state": "MN",
      "zipCode": "56031",
      "zip4Code": null,
      "county": "MARTIN",
      "facLatDecMs": "43.660417",
      "facLongDecMs": "-94.660417"
    },
    {
      "facilityId": 9986,
      "epaFacId": "100000004657",
      "facName": "NUWAY COOPERATIVE TRIMONT",
      "city": "TRIMONT",
      "facStreet1Tx": "251 7TH AV SE",
      "facStreet2Tx": null,
      "state": "MN",
      "zipCode": "56176",
      "zip4Code": null,
      "county": "MARTIN",
      "facLatDecMs": "43.762333",
      "facLongDecMs": "-94.712333"
    },
    {
      "facilityId": 854,
      "epaFacId": "100000005068",
      "facName": "FARMERS UNION OIL COMPANY",
      "city": "SALOL",
      "facStreet1Tx": "RR",
      "facStreet2Tx": null,
      "state": "MN",
      "zipCode": "56756",
      "zip4Code": null,
      "county": "ROSEAU",
      "facLatDecMs": "48.810306",
      "facLongDecMs": "95.555333"
    },
    {
      "facilityId": 1000086226,
      "epaFacId": "100000005077",
      "facName": "NORTHERN RESOURCES COOPERATIVE-WEST PLANT",
      "city": "ROSEAU",
      "facStreet1Tx": "1504 CENTER ST W",
      "facStreet2Tx": null,
      "state": "MN",
      "zipCode": "56751",
      "zip4Code": null,
      "county": "ROSEAU",
      "facLatDecMs": "48.845333",
      "facLongDecMs": "-095.786750"
    },
    {
      "facilityId": 1000012788,
      "epaFacId": "100000005273",
      "facName": "NORTHERN RESOURCES COOPERATIVE",
      "city": "ROSS",
      "facStreet1Tx": "RR",
      "facStreet2Tx": null,
      "state": "MN",
      "zipCode": "56751",
      "zip4Code": null,
      "county": "ROSEAU",
      "facLatDecMs": "48.934056",
      "facLongDecMs": "-095.918611"
    },
    {
      "facilityId": 14208,
      "epaFacId": "100000005282",
      "facName": "FARMERS UNION OIL COMPANY",
      "city": "WANNASKA",
      "facStreet1Tx": "RR",
      "facStreet2Tx": null,
      "state": "MN",
      "zipCode": "56761",
      "zip4Code": null,
      "county": "ROSEAU",
      "facLatDecMs": "48.678778",
      "facLongDecMs": "95.733778"
    },
    {
      "facilityId": 1000109530,
      "epaFacId": "100000006263",
      "facName": "Schmitz Grain Inc.",
      "city": "Slayton",
      "facStreet1Tx": "1823 Highway 59",
      "facStreet2Tx": "",
      "state": "MN",
      "zipCode": "56172",
      "zip4Code": "",
      "county": "MURRAY",
      "facLatDecMs": "43.994638",
      "facLongDecMs": "-95.748677"
    },
    {
      "facilityId": 1000000192,
      "epaFacId": "100000006281",
      "facName": "Schmitz Grian Inc. Slayton , MN",
      "city": "Slayton",
      "facStreet1Tx": "1823 HWY 59",
      "facStreet2Tx": null,
      "state": "MN",
      "zipCode": "56172",
      "zip4Code": "1700",
      "county": "MURRAY",
      "facLatDecMs": "43.994111",
      "facLongDecMs": "-95.75"
    },
    {
      "facilityId": 1000086910,
      "epaFacId": "100000006888",
      "facName": "AgPartners-Belle Plaine",
      "city": "Belle Plaine",
      "facStreet1Tx": "820 East Main",
      "facStreet2Tx": null,
      "state": "MN",
      "zipCode": "56011",
      "zip4Code": null,
      "county": "SCOTT",
      "facLatDecMs": "44.628278",
      "facLongDecMs": "-093.755972"
    },
    {
      "facilityId": 1000093623,
      "epaFacId": "100000007253",
      "facName": "JBS USA - Worthington, MN  Pork Facility",
      "city": "Worthington",
      "facStreet1Tx": "1700 NE Highway 60",
      "facStreet2Tx": null,
      "state": "MN",
      "zipCode": "56187",
      "zip4Code": null,
      "county": "NOBLES",
      "facLatDecMs": "43.634389",
      "facLongDecMs": "-095.566333"
    },
    {
      "facilityId": 1000102987,
      "epaFacId": "100000007262",
      "facName": "Farmward Cooperative",
      "city": "Morgan",
      "facStreet1Tx": "711 Front St.",
      "facStreet2Tx": "",
      "state": "MN",
      "zipCode": "56266",
      "zip4Code": "",
      "county": "REDWOOD",
      "facLatDecMs": "44.415278",
      "facLongDecMs": "-094.931389"
    },
    {
      "facilityId": 728,
      "epaFacId": "100000007538",
      "facName": "NUWAY COOPERATIVE,TRIMONT",
      "city": "TRIMONT",
      "facStreet1Tx": "HWY. 4 N.",
      "facStreet2Tx": null,
      "state": "MN",
      "zipCode": "56176",
      "zip4Code": null,
      "county": "MARTIN",
      "facLatDecMs": "43.783",
      "facLongDecMs": "-94.712333"
    },
    {
      "facilityId": 23211,
      "epaFacId": "100000007547",
      "facName": "NUWAY COOPERATIVE  ORMSBY",
      "city": "ORMSBY",
      "facStreet1Tx": "RAILROAD AV",
      "facStreet2Tx": null,
      "state": "MN",
      "zipCode": "56162",
      "zip4Code": null,
      "county": "WATONWAN",
      "facLatDecMs": "43.850639",
      "facLongDecMs": "-94.695889"
    },
    {
      "facilityId": 48510,
      "epaFacId": "100000008626",
      "facName": "Speltz Elevator, Inc.",
      "city": "Glenville",
      "facStreet1Tx": "Highway #65",
      "facStreet2Tx": null,
      "state": "MN",
      "zipCode": "56036",
      "zip4Code": null,
      "county": "FREEBORN",
      "facLatDecMs": "43.573114",
      "facLongDecMs": "-093.285920"
    },
    {
      "facilityId": 814,
      "epaFacId": "100000008644",
      "facName": "NUWAY COOPERATIVE,SHERBURN MN",
      "city": "SHERBURN",
      "facStreet1Tx": "COUNTY ROAD 13 SOUTH",
      "facStreet2Tx": null,
      "state": "MN",
      "zipCode": "56171",
      "zip4Code": null,
      "county": "MARTIN",
      "facLatDecMs": "43.651",
      "facLongDecMs": "-94.733694"
    },
    {
      "facilityId": 10086,
      "epaFacId": "100000008859",
      "facName": "SPELTZ ELEVATOR",
      "city": "MYRTLE",
      "facStreet1Tx": "101 RAILROAD AVENUE",
      "facStreet2Tx": null,
      "state": "MN",
      "zipCode": "56036",
      "zip4Code": null,
      "county": "FREEBORN",
      "facLatDecMs": "0",
      "facLongDecMs": "0"
    },
    {
      "facilityId": 1000055818,
      "epaFacId": "100000009484",
      "facName": "Meadowland Farmers Coop-Echo",
      "city": "Echo",
      "facStreet1Tx": "1466 610th St",
      "facStreet2Tx": "",
      "state": "MN",
      "zipCode": "56237",
      "zip4Code": "",
      "county": "YELLOW MEDICINE",
      "facLatDecMs": "44.609230",
      "facLongDecMs": "-95.420667"
    },
    {
      "facilityId": 1000091091,
      "epaFacId": "100000009545",
      "facName": "Glacial Plains Cooperative",
      "city": "Benson",
      "facStreet1Tx": "195 30th Ave. NE",
      "facStreet2Tx": null,
      "state": "MN",
      "zipCode": "56215",
      "zip4Code": null,
      "county": "SWIFT",
      "facLatDecMs": "45.324697",
      "facLongDecMs": "-095.560431"
    },
    {
      "facilityId": 10092,
      "epaFacId": "100000009563",
      "facName": "Prestige Lincoln-Mercury",
      "city": "Saint Louis Park",
      "facStreet1Tx": "6661 Wayzata Boulevard",
      "facStreet2Tx": null,
      "state": "MN",
      "zipCode": "55426",
      "zip4Code": null,
      "county": "HENNEPIN",
      "facLatDecMs": "44.969444",
      "facLongDecMs": "-93.366667"
    },
    {
      "facilityId": 23431,
      "epaFacId": "100000009572",
      "facName": "TRIANGLE AGRONOMY SERVICES, LLC- TWIN VALLEY",
      "city": "Twin Valley",
      "facStreet1Tx": "Hwy 32 South",
      "facStreet2Tx": null,
      "state": "MN",
      "zipCode": "56584",
      "zip4Code": "0000",
      "county": "NORMAN",
      "facLatDecMs": "47.249",
      "facLongDecMs": "-96.263361"
    },
    {
      "facilityId": 875,
      "epaFacId": "100000009778",
      "facName": "Farmers Union Oil Company",
      "city": "Bejou",
      "facStreet1Tx": "Hwy 59",
      "facStreet2Tx": null,
      "state": "MN",
      "zipCode": "56156",
      "zip4Code": null,
      "county": "MAHNOMEN",
      "facLatDecMs": "47.439194",
      "facLongDecMs": "-95.978611"
    },
    {
      "facilityId": 1000084365,
      "epaFacId": "100000010908",
      "facName": "Country Pride Services-Windom",
      "city": "Windom",
      "facStreet1Tx": "251 1st Avenue South",
      "facStreet2Tx": null,
      "state": "MN",
      "zipCode": "56101",
      "zip4Code": null,
      "county": "COTTONWOOD",
      "facLatDecMs": "43.855306",
      "facLongDecMs": "-095.115194"
    },
    {
      "facilityId": 1000048569,
      "epaFacId": "100000010935",
      "facName": "Ag Partners Pine Island - Ammonia Facility",
      "city": "Pine Island",
      "facStreet1Tx": "417 North Main St.",
      "facStreet2Tx": null,
      "state": "MN",
      "zipCode": "55963",
      "zip4Code": null,
      "county": "GOODHUE",
      "facLatDecMs": "44.206889",
      "facLongDecMs": "-092.643611"
    },
    {
      "facilityId": 1000084252,
      "epaFacId": "100000011122",
      "facName": "Country Pride Services-Northern Fulda Site",
      "city": "Fulda",
      "facStreet1Tx": "U.S. Highway 59 South",
      "facStreet2Tx": "",
      "state": "MN",
      "zipCode": "56131",
      "zip4Code": "",
      "county": "MURRAY",
      "facLatDecMs": "43.867583",
      "facLongDecMs": "-095.591361"
    },
    {
      "facilityId": 10123,
      "epaFacId": "100000011248",
      "facName": "Fulda Soil Service Center",
      "city": "Fulda",
      "facStreet1Tx": "Hwy 59 South",
      "facStreet2Tx": null,
      "state": "MN",
      "zipCode": "56131",
      "zip4Code": null,
      "county": "MURRAY",
      "facLatDecMs": "43.868056",
      "facLongDecMs": "-95.5985"
    },
    {
      "facilityId": 1000077990,
      "epaFacId": "100000011257",
      "facName": "Trico Ag Service, Inc.",
      "city": "Hancock",
      "facStreet1Tx": "24 South Pacific Ave.",
      "facStreet2Tx": null,
      "state": "MN",
      "zipCode": "56244",
      "zip4Code": "9577",
      "county": "STEVENS",
      "facLatDecMs": "45.491944",
      "facLongDecMs": "-095.791222"
    },
    {
      "facilityId": 10124,
      "epaFacId": "100000011426",
      "facName": "Windom Cooerative Assoication - Jeffers Location",
      "city": "Jeffers",
      "facStreet1Tx": "Peavy Avenue East",
      "facStreet2Tx": null,
      "state": "MN",
      "zipCode": "56145",
      "zip4Code": null,
      "county": "COTTONWOOD",
      "facLatDecMs": "44.054556",
      "facLongDecMs": "-95.191833"
    },
    {
      "facilityId": 1000001608,
      "epaFacId": "100000011453",
      "facName": "Raymond",
      "city": "Raymond",
      "facStreet1Tx": "8373 105st SW",
      "facStreet2Tx": "Hwy 23 and Kandiohi CRD 1",
      "state": "MN",
      "zipCode": "56282",
      "zip4Code": null,
      "county": "KANDIYOHI",
      "facLatDecMs": "45.043472",
      "facLongDecMs": "-095.185194"
    },
    {
      "facilityId": 1000043356,
      "epaFacId": "100000012032",
      "facName": "New Vision Coop",
      "city": "Hills",
      "facStreet1Tx": "3rd Street & Summit Avenue",
      "facStreet2Tx": null,
      "state": "MN",
      "zipCode": "56138",
      "zip4Code": null,
      "county": "ROCK",
      "facLatDecMs": "43.527360",
      "facLongDecMs": "-096.363291"
    },
    {
      "facilityId": 51369,
      "epaFacId": "100000012862",
      "facName": "Wheaton-Dumont Coop Elevator - Dumont Location",
      "city": "Dumont",
      "facStreet1Tx": "P.O. Box 97",
      "facStreet2Tx": "Hwy 75 & County Road 6",
      "state": "MN",
      "zipCode": "56236",
      "zip4Code": null,
      "county": "TRAVERSE",
      "facLatDecMs": "45.713083",
      "facLongDecMs": "-096.426028"
    },
    {
      "facilityId": 51368,
      "epaFacId": "100000012906",
      "facName": "Wheaton-Dumont Coop Elevator - Wheaton Location",
      "city": "Wheaton",
      "facStreet1Tx": "6593 US Hwy 75",
      "facStreet2Tx": "Hwy 75 North",
      "state": "MN",
      "zipCode": "56296",
      "zip4Code": null,
      "county": "TRAVERSE",
      "facLatDecMs": "45.815750",
      "facLongDecMs": "-096.492083"
    },
    {
      "facilityId": 1000108863,
      "epaFacId": "100000012915",
      "facName": "First District Association",
      "city": "Litchfield",
      "facStreet1Tx": "101 South Swift Avenue",
      "facStreet2Tx": "",
      "state": "MN",
      "zipCode": "55355",
      "zip4Code": "0000",
      "county": "MEEKER",
      "facLatDecMs": "45.12531",
      "facLongDecMs": "-94.53051"
    },
    {
      "facilityId": 27109,
      "epaFacId": "100000012924",
      "facName": "United Farmers Coop-Klossner",
      "city": "Klossner",
      "facStreet1Tx": "Hwy 15 West Side",
      "facStreet2Tx": "County Rd 2",
      "state": "MN",
      "zipCode": "56053",
      "zip4Code": null,
      "county": "NICOLLET",
      "facLatDecMs": "44.364917",
      "facLongDecMs": "-94.423111"
    },
    {
      "facilityId": 1000090085,
      "epaFacId": "100000012942",
      "facName": "CRYSTAL VALLEY COOPERATIVE (24) LF",
      "city": "Lakefield",
      "facStreet1Tx": "460th Ave",
      "facStreet2Tx": null,
      "state": "MN",
      "zipCode": "56150",
      "zip4Code": null,
      "county": "JACKSON",
      "facLatDecMs": "43.672432",
      "facLongDecMs": "-095.154166"
    },
    {
      "facilityId": 1000117202,
      "epaFacId": "100000013148",
      "facName": "United Farmers Coop - Gaylord",
      "city": "Gaylord",
      "facStreet1Tx": "48105 West Hwy 19",
      "facStreet2Tx": "",
      "state": "MN",
      "zipCode": "55334",
      "zip4Code": "",
      "county": "SIBLEY",
      "facLatDecMs": "44.547444",
      "facLongDecMs": "-094.236116"
    },
    {
      "facilityId": 10148,
      "epaFacId": "100000013246",
      "facName": "Agland Co-op, Winthrop Location",
      "city": "Winthrop",
      "facStreet1Tx": "Heartland Corn Products",
      "facStreet2Tx": "Hwy 19 East",
      "state": "MN",
      "zipCode": "55396",
      "zip4Code": null,
      "county": "SIBLEY",
      "facLatDecMs": "44.541833",
      "facLongDecMs": "-94.353778"
    },
    {
      "facilityId": 10156,
      "epaFacId": "100000013255",
      "facName": "United Farmers Coop-Klossner",
      "city": "Klossner",
      "facStreet1Tx": "Hwy 15 (westside)",
      "facStreet2Tx": "County Road 5",
      "state": "MN",
      "zipCode": "56053",
      "zip4Code": null,
      "county": "NICOLLET",
      "facLatDecMs": "44.365361",
      "facLongDecMs": "-94.423917"
    },
    {
      "facilityId": 1171,
      "epaFacId": "100000013433",
      "facName": "Farmers Co-op Oil Belle Creek Division",
      "city": "Goodhue",
      "facStreet1Tx": "35205 County 8 Blvd.",
      "facStreet2Tx": null,
      "state": "MN",
      "zipCode": "55027",
      "zip4Code": null,
      "county": "GOODHUE",
      "facLatDecMs": "44.449111",
      "facLongDecMs": "-92.769111"
    },
    {
      "facilityId": 1000119800,
      "epaFacId": "100000013683",
      "facName": "Ag Partners Coop - Wanamingo",
      "city": "Wanamingo",
      "facStreet1Tx": "44704 110th Ave.",
      "facStreet2Tx": "",
      "state": "MN",
      "zipCode": "55983",
      "zip4Code": "",
      "county": "GOODHUE",
      "facLatDecMs": "44.302046",
      "facLongDecMs": "-92.810304"
    },
    {
      "facilityId": 1184,
      "epaFacId": "100000013905",
      "facName": "SWMN Farmers Co-op",
      "city": "Luverne",
      "facStreet1Tx": "South Freeman",
      "facStreet2Tx": "Hwy 75",
      "state": "MN",
      "zipCode": "56156",
      "zip4Code": null,
      "county": "ROCK",
      "facLatDecMs": "43.633472",
      "facLongDecMs": "-96.200111"
    },
    {
      "facilityId": 18085,
      "epaFacId": "100000014708",
      "facName": "Skelgas of Park Rapids",
      "city": "Park Rapids",
      "facStreet1Tx": "Hwy. 71 South & Industrial Blvd.",
      "facStreet2Tx": null,
      "state": "MN",
      "zipCode": "56470",
      "zip4Code": null,
      "county": "HUBBARD",
      "facLatDecMs": "46.900056",
      "facLongDecMs": "-95.050083"
    },
    {
      "facilityId": 1000115962,
      "epaFacId": "100000015137",
      "facName": "ROSEAU COUNTY CO-OP-GREENBUSH",
      "city": "GREENBUSH",
      "facStreet1Tx": "HWY 11 & COUNTY ROAD 4",
      "facStreet2Tx": "",
      "state": "MN",
      "zipCode": "56726",
      "zip4Code": "",
      "county": "ROSEAU",
      "facLatDecMs": "48.705500",
      "facLongDecMs": "-096.173917"
    },
    {
      "facilityId": 1000114687,
      "epaFacId": "100000015583",
      "facName": "Chippewa Valley Ethanol Company, LLLP",
      "city": "Benson",
      "facStreet1Tx": "270 20th Street NW",
      "facStreet2Tx": "",
      "state": "MN",
      "zipCode": "56215",
      "zip4Code": "",
      "county": "SWIFT",
      "facLatDecMs": "45.325833",
      "facLongDecMs": "-095.639167"
    },
    {
      "facilityId": 10214,
      "epaFacId": "100000015663",
      "facName": "Glencoe Butter and Produce, Agronomy Site",
      "city": "Glencoe",
      "facStreet1Tx": "County Road 3 (Lake Marion Road)",
      "facStreet2Tx": null,
      "state": "MN",
      "zipCode": "55336",
      "zip4Code": null,
      "county": "MCLEOD",
      "facLatDecMs": "44.768556",
      "facLongDecMs": "-94.167194"
    },
    {
      "facilityId": 10220,
      "epaFacId": "100000015681",
      "facName": "SWMN Farmers Co-op",
      "city": "Magnolia",
      "facStreet1Tx": "Garfield St.",
      "facStreet2Tx": "State St.",
      "state": "MN",
      "zipCode": "56158",
      "zip4Code": null,
      "county": "ROCK",
      "facLatDecMs": "43.633444",
      "facLongDecMs": "-96.066806"
    },
    {
      "facilityId": 10218,
      "epaFacId": "100000015716",
      "facName": "United Farmers Coop-Le Sueur",
      "city": "Le Sueur",
      "facStreet1Tx": "County Road 28",
      "facStreet2Tx": null,
      "state": "MN",
      "zipCode": "56058",
      "zip4Code": null,
      "county": "LE SUEUR",
      "facLatDecMs": "44.490028",
      "facLongDecMs": "-93.868056"
    },
    {
      "facilityId": 1000043248,
      "epaFacId": "100000015743",
      "facName": "New Vision Coop",
      "city": "Beaver Creek",
      "facStreet1Tx": "201 East 1st Avenue",
      "facStreet2Tx": null,
      "state": "MN",
      "zipCode": "56116",
      "zip4Code": null,
      "county": "ROCK",
      "facLatDecMs": "43.614887",
      "facLongDecMs": "-096.362564"
    },
    {
      "facilityId": 1000115963,
      "epaFacId": "100000015841",
      "facName": "ROSEAU COUNTY CO-OP-BADGER",
      "city": "BADGER",
      "facStreet1Tx": "COUNTY ROAD 3",
      "facStreet2Tx": "",
      "state": "MN",
      "zipCode": "56714",
      "zip4Code": "",
      "county": "ROSEAU",
      "facLatDecMs": "48.782222",
      "facLongDecMs": "-096.006667"
    },
    {
      "facilityId": 10222,
      "epaFacId": "100000016172",
      "facName": "Glencoe Butter and Produce, Creamery Site",
      "city": "Glencoe",
      "facStreet1Tx": "818 East 9th Street",
      "facStreet2Tx": null,
      "state": "MN",
      "zipCode": "55336",
      "zip4Code": null,
      "county": "MCLEOD",
      "facLatDecMs": "44.767889",
      "facLongDecMs": "-94.151083"
    },
    {
      "facilityId": 1000046417,
      "epaFacId": "100000016261",
      "facName": "Newfolden Co-op Elevator",
      "city": "Newfolden",
      "facStreet1Tx": "County Road 28 West",
      "facStreet2Tx": null,
      "state": "MN",
      "zipCode": "56738",
      "zip4Code": null,
      "county": "MARSHALL",
      "facLatDecMs": "48.357232",
      "facLongDecMs": "-096.346662"
    },
    {
      "facilityId": 1000115015,
      "epaFacId": "100000016449",
      "facName": "United Farmers Coop-Lafayette",
      "city": "Lafayette",
      "facStreet1Tx": "840 Pioneer Aveune",
      "facStreet2Tx": "",
      "state": "MN",
      "zipCode": "56054",
      "zip4Code": "",
      "county": "NICOLLET",
      "facLatDecMs": "44.449969",
      "facLongDecMs": "-94.393215"
    },
    {
      "facilityId": 1000001074,
      "epaFacId": "100000016751",
      "facName": "CHS INC - Magnolia",
      "city": "Magnolia",
      "facStreet1Tx": "102 N. Broadway Street",
      "facStreet2Tx": "Main Street",
      "state": "MN",
      "zipCode": "56158",
      "zip4Code": null,
      "county": "ROCK",
      "facLatDecMs": "43.633450",
      "facLongDecMs": "-096.066799"
    },
    {
      "facilityId": 1000115186,
      "epaFacId": "100000016788",
      "facName": "United Farmers Coop-Norseland",
      "city": "St. Peter",
      "facStreet1Tx": "37597 Highway 22",
      "facStreet2Tx": "County Road 3",
      "state": "MN",
      "zipCode": "56082",
      "zip4Code": "",
      "county": "NICOLLET",
      "facLatDecMs": "44.411859",
      "facLongDecMs": "-94.113985"
    },
    {
      "facilityId": 1000076880,
      "epaFacId": "100000016984",
      "facName": "Central Bi-Products",
      "city": "Redwood Falls",
      "facStreet1Tx": "33361 County Road 25",
      "facStreet2Tx": null,
      "state": "MN",
      "zipCode": "56283",
      "zip4Code": null,
      "county": "REDWOOD",
      "facLatDecMs": "44.573611",
      "facLongDecMs": "-095.113611"
    },
    {
      "facilityId": 1000079272,
      "epaFacId": "100000017028",
      "facName": "Gully Tri-Coop Association",
      "city": "Gully",
      "facStreet1Tx": "121 West St. Paul",
      "facStreet2Tx": null,
      "state": "MN",
      "zipCode": "56646",
      "zip4Code": null,
      "county": "POLK",
      "facLatDecMs": "47.770556",
      "facLongDecMs": "-095.624722"
    },
    {
      "facilityId": 1000113607,
      "epaFacId": "100000017037",
      "facName": "Central Bi-Products",
      "city": "Long Prairie",
      "facStreet1Tx": "25498 Highway 71 North",
      "facStreet2Tx": "",
      "state": "MN",
      "zipCode": "56347",
      "zip4Code": "",
      "county": "TODD",
      "facLatDecMs": "45.997778",
      "facLongDecMs": "-094.860000"
    },
    {
      "facilityId": 1000078378,
      "epaFacId": "100000018759",
      "facName": "Farmers Union Oil Company, Goodridge",
      "city": "Goodridge",
      "facStreet1Tx": "MN Hwy 219",
      "facStreet2Tx": null,
      "state": "MN",
      "zipCode": "56725",
      "zip4Code": null,
      "county": "PENNINGTON",
      "facLatDecMs": "48.144722",
      "facLongDecMs": "-095.810000"
    },
    {
      "facilityId": 16127,
      "epaFacId": "100000018802",
      "facName": "United Farmers Coop",
      "city": "Rushmore",
      "facStreet1Tx": "East Co Rd 35",
      "facStreet2Tx": null,
      "state": "MN",
      "zipCode": "56168",
      "zip4Code": null,
      "county": "NOBLES",
      "facLatDecMs": "43.63125",
      "facLongDecMs": "-95.780556"
    },
    {
      "facilityId": 1000078062,
      "epaFacId": "100000018811",
      "facName": "Petersons North Branch Mill, Cambridge",
      "city": "Cambridge",
      "facStreet1Tx": "427 Railroad Street South",
      "facStreet2Tx": null,
      "state": "MN",
      "zipCode": "55008",
      "zip4Code": null,
      "county": "ISANTI",
      "facLatDecMs": "45.569303",
      "facLongDecMs": "-093.220782"
    },
    {
      "facilityId": 1000008261,
      "epaFacId": "100000018839",
      "facName": "United Farmers Coop - Rushmore, MN",
      "city": "Rushmore",
      "facStreet1Tx": "101 S. Thompson Avenue",
      "facStreet2Tx": null,
      "state": "MN",
      "zipCode": "56168",
      "zip4Code": null,
      "county": "NOBLES",
      "facLatDecMs": "43.617500",
      "facLongDecMs": "-095.800056"
    },
    {
      "facilityId": 1000043311,
      "epaFacId": "100000018848",
      "facName": "New Vision Coop",
      "city": "Brewster",
      "facStreet1Tx": "931 1st. Ave.",
      "facStreet2Tx": null,
      "state": "MN",
      "zipCode": "56119",
      "zip4Code": null,
      "county": "NOBLES",
      "facLatDecMs": "43.697639",
      "facLongDecMs": "-095.471389"
    },
    {
      "facilityId": 1000043443,
      "epaFacId": "100000019017",
      "facName": "Prairie Grain Partners, LLC-Clarkfield",
      "city": "Clarkfield",
      "facStreet1Tx": "West Highway 67",
      "facStreet2Tx": null,
      "state": "MN",
      "zipCode": "56223",
      "zip4Code": null,
      "county": "YELLOW MEDICINE",
      "facLatDecMs": "44.791389",
      "facLongDecMs": "-095.816111"
    },
    {
      "facilityId": 1000008243,
      "epaFacId": "100000019026",
      "facName": "United Farmers Coop - Bigelow, MN",
      "city": "Bigelow",
      "facStreet1Tx": "2600 Market Street",
      "facStreet2Tx": null,
      "state": "MN",
      "zipCode": "56117",
      "zip4Code": null,
      "county": "NOBLES",
      "facLatDecMs": "43.504111",
      "facLongDecMs": "-095.692750"
    },
    {
      "facilityId": 1000043610,
      "epaFacId": "100000019062",
      "facName": "New Vision Coop",
      "city": "Wilmont",
      "facStreet1Tx": "East Hwy 266",
      "facStreet2Tx": null,
      "state": "MN",
      "zipCode": "56185",
      "zip4Code": null,
      "county": "NOBLES",
      "facLatDecMs": "43.761611",
      "facLongDecMs": "-095.824139"
    },
    {
      "facilityId": 1000043757,
      "epaFacId": "100000019099",
      "facName": "New Vision Coop",
      "city": "Worthington",
      "facStreet1Tx": "1301 County Rd 5",
      "facStreet2Tx": null,
      "state": "MN",
      "zipCode": "56187",
      "zip4Code": null,
      "county": "NOBLES",
      "facLatDecMs": "43.636083",
      "facLongDecMs": "-095.765583"
    },
    {
      "facilityId": 1000043606,
      "epaFacId": "100000019179",
      "facName": "New Vision Coop",
      "city": "Reading",
      "facStreet1Tx": "County Hwy 9",
      "facStreet2Tx": null,
      "state": "MN",
      "zipCode": "56165",
      "zip4Code": null,
      "county": "NOBLES",
      "facLatDecMs": "43.714306",
      "facLongDecMs": "-095.712250"
    },
    {
      "facilityId": 1000043597,
      "epaFacId": "100000019231",
      "facName": "New Vision Coop",
      "city": "Jeffers",
      "facStreet1Tx": "412 E. Peavy Str.",
      "facStreet2Tx": null,
      "state": "MN",
      "zipCode": "56145",
      "zip4Code": null,
      "county": "COTTONWOOD",
      "facLatDecMs": "44.054222",
      "facLongDecMs": "-095.192028"
    },
    {
      "facilityId": 1000119208,
      "epaFacId": "100000019419",
      "facName": "Country Pride Services-Mountain Lake",
      "city": "Mountain Lake",
      "facStreet1Tx": "Third Avenue and Golf Course Road",
      "facStreet2Tx": "",
      "state": "MN",
      "zipCode": "56159",
      "zip4Code": "",
      "county": "COTTONWOOD",
      "facLatDecMs": "43.936389",
      "facLongDecMs": "-094.939444"
    },
    {
      "facilityId": 22182,
      "epaFacId": "100000019507",
      "facName": "Triangle Agronomy Services, LLC (Mahnomen)",
      "city": "Mahnomen",
      "facStreet1Tx": "Hwy 59 North",
      "facStreet2Tx": null,
      "state": "MN",
      "zipCode": "56557",
      "zip4Code": "0000",
      "county": "MAHNOMEN",
      "facLatDecMs": "47.3235",
      "facLongDecMs": "-95.971667"
    },
    {
      "facilityId": 1000090088,
      "epaFacId": "100000019605",
      "facName": "CRYSTAL VALLEY COOPERATIVE (23) RL",
      "city": "Round Lake",
      "facStreet1Tx": "125 Roher Ave.",
      "facStreet2Tx": null,
      "state": "MN",
      "zipCode": "56167",
      "zip4Code": null,
      "county": "NOBLES",
      "facLatDecMs": "43.541250",
      "facLongDecMs": "-095.466250"
    },
    {
      "facilityId": 1000101283,
      "epaFacId": "100000019623",
      "facName": "Aspire Bakeries LLC",
      "city": "Chaska",
      "facStreet1Tx": "4075 Norex Drive",
      "facStreet2Tx": null,
      "state": "MN",
      "zipCode": "55318",
      "zip4Code": null,
      "county": "CARVER",
      "facLatDecMs": "44.851666",
      "facLongDecMs": "-093.589167"
    },
    {
      "facilityId": 1000090097,
      "epaFacId": "100000019721",
      "facName": "CRYSTAL VALLEY COOPERATIVE (24) JX",
      "city": "Jackson",
      "facStreet1Tx": "105 Jackson Street",
      "facStreet2Tx": null,
      "state": "MN",
      "zipCode": "56143",
      "zip4Code": null,
      "county": "JACKSON",
      "facLatDecMs": "43.630050",
      "facLongDecMs": "-094.968394"
    },
    {
      "facilityId": 1000112403,
      "epaFacId": "100000019767",
      "facName": "Prinsburg Farmers Co-op",
      "city": "Prinsburg",
      "facStreet1Tx": "404 Railroad Avenue",
      "facStreet2Tx": "",
      "state": "MN",
      "zipCode": "56281",
      "zip4Code": "",
      "county": "KANDIYOHI",
      "facLatDecMs": "44.941944",
      "facLongDecMs": "-095.187500"
    },
    {
      "facilityId": 10275,
      "epaFacId": "100000019776",
      "facName": "Prinsburg Farmers Coop - Clara City Location",
      "city": "Clara City",
      "facStreet1Tx": "110 1st Avenue",
      "facStreet2Tx": null,
      "state": "MN",
      "zipCode": "56222",
      "zip4Code": null,
      "county": "CHIPPEWA",
      "facLatDecMs": "44.952139",
      "facLongDecMs": "-95.372722"
    },
    {
      "facilityId": 1000115583,
      "epaFacId": "100000019785",
      "facName": "CHS Inc. - Oslo",
      "city": "OLSO",
      "facStreet1Tx": "106 DIKE AVENUE",
      "facStreet2Tx": "",
      "state": "MN",
      "zipCode": "56744",
      "zip4Code": "",
      "county": "MARSHALL",
      "facLatDecMs": "48.191944",
      "facLongDecMs": "-097.102500"
    },
    {
      "facilityId": 1000115622,
      "epaFacId": "100000019794",
      "facName": "CHS Inc - Argyle",
      "city": "ARGYLE",
      "facStreet1Tx": "500 Washington Ave.",
      "facStreet2Tx": "",
      "state": "MN",
      "zipCode": "56713",
      "zip4Code": "",
      "county": "MARSHALL",
      "facLatDecMs": "48.330000",
      "facLongDecMs": "-096.815556"
    },
    {
      "facilityId": 10276,
      "epaFacId": "100000019801",
      "facName": "Prinsburg Farmers Coop - West Finishing Farm",
      "city": "Prinsburg",
      "facStreet1Tx": "7043 195th Avenue SW",
      "facStreet2Tx": null,
      "state": "MN",
      "zipCode": "56281",
      "zip4Code": null,
      "county": "KANDIYOHI",
      "facLatDecMs": "44.916667",
      "facLongDecMs": "-95.144167"
    },
    {
      "facilityId": 1000099486,
      "epaFacId": "100000019838",
      "facName": "CRYSTAL VALLEY COOPERATIVE (22) TM",
      "city": "Trimont",
      "facStreet1Tx": "340 W Main Street",
      "facStreet2Tx": null,
      "state": "MN",
      "zipCode": "56176",
      "zip4Code": null,
      "county": "MARTIN",
      "facLatDecMs": "43.760079",
      "facLongDecMs": "-094.721947"
    },
    {
      "facilityId": 10277,
      "epaFacId": "100000019856",
      "facName": "Prinsburg Farmers Coop - Prinsburg Brooding Farm",
      "city": "Prinsburg",
      "facStreet1Tx": "18652 75th Street SW",
      "facStreet2Tx": null,
      "state": "MN",
      "zipCode": "56281",
      "zip4Code": null,
      "county": "KANDIYOHI",
      "facLatDecMs": "44.939167",
      "facLongDecMs": "-95.150833"
    },
    {
      "facilityId": 1000005397,
      "epaFacId": "100000019865",
      "facName": "FCA Coop",
      "city": "Jackson",
      "facStreet1Tx": "South Hwy 71",
      "facStreet2Tx": null,
      "state": "MN",
      "zipCode": "56143",
      "zip4Code": null,
      "county": "JACKSON",
      "facLatDecMs": "43.509000",
      "facLongDecMs": "-094.993889"
    },
    {
      "facilityId": 10278,
      "epaFacId": "100000019892",
      "facName": "Prinsburg Farmers Coop - East Finishing Farm",
      "city": "Renville",
      "facStreet1Tx": "20235 60th Street SW",
      "facStreet2Tx": null,
      "state": "MN",
      "zipCode": "56284",
      "zip4Code": null,
      "county": "KANDIYOHI",
      "facLatDecMs": "44.938333",
      "facLongDecMs": "-95.129333"
    },
    {
      "facilityId": 1000039524,
      "epaFacId": "100000019954",
      "facName": "Browns Valley Community Elevator Inc.",
      "city": "Browns Valley",
      "facStreet1Tx": "4th St N and 2nd Ave N",
      "facStreet2Tx": null,
      "state": "MN",
      "zipCode": "56219",
      "zip4Code": null,
      "county": "TRAVERSE",
      "facLatDecMs": "45.597471",
      "facLongDecMs": "-096.834299"
    },
    {
      "facilityId": 1557,
      "epaFacId": "100000019972",
      "facName": "Prairie Grain Partners LLC - Boyd",
      "city": "Boyd",
      "facStreet1Tx": "W. Hwy 275",
      "facStreet2Tx": null,
      "state": "MN",
      "zipCode": "56218",
      "zip4Code": null,
      "county": "LAC QUI PARLE",
      "facLatDecMs": "44.851111",
      "facLongDecMs": "-95.904444"
    },
    {
      "facilityId": 18094,
      "epaFacId": "100000020014",
      "facName": "Farmers Coop Assn.",
      "city": "Jackson",
      "facStreet1Tx": "105 Jackson Street",
      "facStreet2Tx": null,
      "state": "MN",
      "zipCode": "56143",
      "zip4Code": null,
      "county": "JACKSON",
      "facLatDecMs": "43.599028",
      "facLongDecMs": "-95.275833"
    },
    {
      "facilityId": 10268,
      "epaFacId": "100000020185",
      "facName": "Farmers Union Oil Company, Mahnomen",
      "city": "Mahnomen",
      "facStreet1Tx": "Hwy 59 North",
      "facStreet2Tx": null,
      "state": "MN",
      "zipCode": "56557",
      "zip4Code": null,
      "county": "MAHNOMEN",
      "facLatDecMs": "47.3235",
      "facLongDecMs": "-95.971667"
    },
    {
      "facilityId": 1661,
      "epaFacId": "100000020256",
      "facName": "PERLEY COMMUNITY CO-OP",
      "city": "PERLEY",
      "facStreet1Tx": "HWY 75 SOUTH",
      "facStreet2Tx": null,
      "state": "MN",
      "zipCode": "56574",
      "zip4Code": null,
      "county": "NORMAN",
      "facLatDecMs": "47.175",
      "facLongDecMs": "-96.803056"
    },
    {
      "facilityId": 10270,
      "epaFacId": "100000020265",
      "facName": "Prinsburg Farmers Coop - Raymond Location",
      "city": "Raymond",
      "facStreet1Tx": "106 Babcock Avenue",
      "facStreet2Tx": null,
      "state": "MN",
      "zipCode": "56282",
      "zip4Code": null,
      "county": "KANDIYOHI",
      "facLatDecMs": "45.016056",
      "facLongDecMs": "-95.2385"
    },
    {
      "facilityId": 1575,
      "epaFacId": "100000020363",
      "facName": "Farmers Union Oil Company, Thief River Falls",
      "city": "Thief River Falls",
      "facStreet1Tx": "1st Street and Brooks Ave.",
      "facStreet2Tx": null,
      "state": "MN",
      "zipCode": "56701",
      "zip4Code": null,
      "county": "PENNINGTON",
      "facLatDecMs": "48.114806",
      "facLongDecMs": "-96.19"
    },
    {
      "facilityId": 44591,
      "epaFacId": "100000020586",
      "facName": "West Central Ag Services-Felton, MN",
      "city": "Felton",
      "facStreet1Tx": "Atlantic Ave. & 5th St.",
      "facStreet2Tx": null,
      "state": "MN",
      "zipCode": "56536",
      "zip4Code": null,
      "county": "CLAY",
      "facLatDecMs": "47.077828",
      "facLongDecMs": "-096.505960"
    },
    {
      "facilityId": 26286,
      "epaFacId": "100000020979",
      "facName": "General Mills - Eden Prairie",
      "city": "Eden Prairie",
      "facStreet1Tx": "7752 Mitchell Road",
      "facStreet2Tx": null,
      "state": "MN",
      "zipCode": "55344",
      "zip4Code": null,
      "county": "HENNEPIN",
      "facLatDecMs": "44.858333",
      "facLongDecMs": "-93.458333"
    },
    {
      "facilityId": 1000101613,
      "epaFacId": "100000021022",
      "facName": "General Mills - Chanhassen",
      "city": "Chanhassen",
      "facStreet1Tx": "8000 Audubon Road",
      "facStreet2Tx": "",
      "state": "MN",
      "zipCode": "55317",
      "zip4Code": "",
      "county": "CARVER",
      "facLatDecMs": "44.859393",
      "facLongDecMs": "-093.562619"
    },
    {
      "facilityId": 1000112742,
      "epaFacId": "100000021157",
      "facName": "CHS Inc.- Euclid",
      "city": "Euclid",
      "facStreet1Tx": "North Atlantic Ave",
      "facStreet2Tx": "",
      "state": "MN",
      "zipCode": "56722",
      "zip4Code": "",
      "county": "POLK",
      "facLatDecMs": "47.975470",
      "facLongDecMs": "-96.639686"
    },
    {
      "facilityId": 1000044136,
      "epaFacId": "100000021433",
      "facName": "CHS Inc. - Graceville",
      "city": "Graceville",
      "facStreet1Tx": "301 Hi-way 28 E",
      "facStreet2Tx": null,
      "state": "MN",
      "zipCode": "56341",
      "zip4Code": null,
      "county": "BIG STONE",
      "facLatDecMs": "45.571430",
      "facLongDecMs": "-96.429180"
    },
    {
      "facilityId": 1000091427,
      "epaFacId": "100000021503",
      "facName": "FARMERS UNION OIL COMPANY",
      "city": "GRYGLA",
      "facStreet1Tx": "38999 295th St NE",
      "facStreet2Tx": null,
      "state": "MN",
      "zipCode": "56727",
      "zip4Code": null,
      "county": "MARSHALL",
      "facLatDecMs": "48.303889",
      "facLongDecMs": "-095.637778"
    },
    {
      "facilityId": 46223,
      "epaFacId": "100000021567",
      "facName": "Elbow Lake Coop Grain, NH3 Plant",
      "city": "Elbow Lake",
      "facStreet1Tx": "27005 US Hwy 59",
      "facStreet2Tx": null,
      "state": "MN",
      "zipCode": "56311",
      "zip4Code": null,
      "county": "GRANT",
      "facLatDecMs": "46.004300",
      "facLongDecMs": "-095.592906"
    },
    {
      "facilityId": 1000080156,
      "epaFacId": "100000021647",
      "facName": "CHS Inc. - Chokio",
      "city": "Chokio",
      "facStreet1Tx": "305 1st Ave. South",
      "facStreet2Tx": null,
      "state": "MN",
      "zipCode": "56221",
      "zip4Code": "0126",
      "county": "STEVENS",
      "facLatDecMs": "45.575757",
      "facLongDecMs": "-96.175834"
    },
    {
      "facilityId": 1000116148,
      "epaFacId": "100000021674",
      "facName": "CROOKSTON VALLEY COOPERATIVE",
      "city": "CROOKSTON",
      "facStreet1Tx": "1010 COUNTY RD 214",
      "facStreet2Tx": "",
      "state": "MN",
      "zipCode": "56716",
      "zip4Code": "",
      "county": "POLK",
      "facLatDecMs": "47.759722",
      "facLongDecMs": "-096.590556"
    },
    {
      "facilityId": 1000101443,
      "epaFacId": "100000021745",
      "facName": "Morris Coop Association",
      "city": "Morris",
      "facStreet1Tx": "1000 Atlantic Ave",
      "facStreet2Tx": null,
      "state": "MN",
      "zipCode": "56267",
      "zip4Code": null,
      "county": "STEVENS",
      "facLatDecMs": "45.600667",
      "facLongDecMs": "-095.927194"
    },
    {
      "facilityId": 1000112965,
      "epaFacId": "100000021905",
      "facName": "CHS Inc. - Starbuck",
      "city": "Starbuck",
      "facStreet1Tx": "30736 State Highway 28 West",
      "facStreet2Tx": "",
      "state": "MN",
      "zipCode": "56381",
      "zip4Code": "",
      "county": "POPE",
      "facLatDecMs": "45.615106",
      "facLongDecMs": "-95.566422"
    },
    {
      "facilityId": 39697,
      "epaFacId": "100000021978",
      "facName": "CHS Inc. dba Prairie Lakes Cooperative",
      "city": "Cyrus",
      "facStreet1Tx": "420 3rd St. West",
      "facStreet2Tx": null,
      "state": "MN",
      "zipCode": "56323",
      "zip4Code": null,
      "county": "POPE",
      "facLatDecMs": "45.612778",
      "facLongDecMs": "-095.745278"
    },
    {
      "facilityId": 1000090557,
      "epaFacId": "100000021996",
      "facName": "Farmers Union Oil of Southern Valley, Breckenridge",
      "city": "Breckenridge",
      "facStreet1Tx": "3588 US Highway 75",
      "facStreet2Tx": null,
      "state": "MN",
      "zipCode": "56520",
      "zip4Code": null,
      "county": "WILKIN",
      "facLatDecMs": "46.152900",
      "facLongDecMs": "-096.340700"
    },
    {
      "facilityId": 1000001224,
      "epaFacId": "100000022227",
      "facName": "CHS INC - Hoffman",
      "city": "Hoffman",
      "facStreet1Tx": "P.O. Box 275",
      "facStreet2Tx": "Hwy 55 South",
      "state": "MN",
      "zipCode": "56339",
      "zip4Code": "0275",
      "county": "GRANT",
      "facLatDecMs": "45.822778",
      "facLongDecMs": "-095.784722"
    },
    {
      "facilityId": 1000001520,
      "epaFacId": "100000022423",
      "facName": "TRIANGLE AG, LLC-ADA",
      "city": "ADA",
      "facStreet1Tx": "800 WEST MAIN STREET",
      "facStreet2Tx": null,
      "state": "MN",
      "zipCode": "56510",
      "zip4Code": null,
      "county": "NORMAN",
      "facLatDecMs": "47.306111",
      "facLongDecMs": "-096.520000"
    },
    {
      "facilityId": 46142,
      "epaFacId": "100000022691",
      "facName": "Marsh River Simplot Grower Solutions",
      "city": "SHELLY",
      "facStreet1Tx": "301 BURLINGTON STREET",
      "facStreet2Tx": null,
      "state": "MN",
      "zipCode": "56581",
      "zip4Code": null,
      "county": "NORMAN",
      "facLatDecMs": "47.460278",
      "facLongDecMs": "-096.820833"
    },
    {
      "facilityId": 1000077731,
      "epaFacId": "100000022959",
      "facName": "Worthington Water Treatment Facility",
      "city": "Worthington",
      "facStreet1Tx": "857 Sherwood Street",
      "facStreet2Tx": null,
      "state": "MN",
      "zipCode": "56187",
      "zip4Code": "0458",
      "county": "NOBLES",
      "facLatDecMs": "43.615279",
      "facLongDecMs": "-095.596300"
    },
    {
      "facilityId": 1000070198,
      "epaFacId": "100000023271",
      "facName": "Boise White Paper, LLC- International Falls, MN",
      "city": "International Falls",
      "facStreet1Tx": "400 2nd Street",
      "facStreet2Tx": null,
      "state": "MN",
      "zipCode": "56649",
      "zip4Code": null,
      "county": "KOOCHICHING",
      "facLatDecMs": "48.606889",
      "facLongDecMs": "-093.409417"
    },
    {
      "facilityId": 1000112816,
      "epaFacId": "100000023315",
      "facName": "Greenfield Global Winnebago LLC",
      "city": "WINNEBAGO",
      "facStreet1Tx": "711 6TH AVE SE",
      "facStreet2Tx": "",
      "state": "MN",
      "zipCode": "56098",
      "zip4Code": "1000",
      "county": "FARIBAULT",
      "facLatDecMs": "43.763340",
      "facLongDecMs": "-94.151256"
    },
    {
      "facilityId": 1000116065,
      "epaFacId": "100000023413",
      "facName": "Bongards' Creameries - Norwood",
      "city": "Norwood Y.A.",
      "facStreet1Tx": "13200 County Road 51",
      "facStreet2Tx": "",
      "state": "MN",
      "zipCode": "55368",
      "zip4Code": "",
      "county": "CARVER",
      "facLatDecMs": "44.763148",
      "facLongDecMs": "-093.850037"
    },
    {
      "facilityId": 1000078299,
      "epaFacId": "100000023574",
      "facName": "Worthington Municipal Wastewater Treatment Plant",
      "city": "Worthington",
      "facStreet1Tx": "1950 27th Street North",
      "facStreet2Tx": null,
      "state": "MN",
      "zipCode": "56187",
      "zip4Code": "0279",
      "county": "NOBLES",
      "facLatDecMs": "43.644829",
      "facLongDecMs": "-095.579940"
    },
    {
      "facilityId": 1000111250,
      "epaFacId": "100000024859",
      "facName": "MicroSource, LLC",
      "city": "Shakopee",
      "facStreet1Tx": "7632 County Rd. 101",
      "facStreet2Tx": "",
      "state": "MN",
      "zipCode": "55379",
      "zip4Code": "",
      "county": "SCOTT",
      "facLatDecMs": "44.789722",
      "facLongDecMs": "-93.420000"
    },
    {
      "facilityId": 32125,
      "epaFacId": "100000025126",
      "facName": "ConAgra International Fertilizer",
      "city": "Franklin",
      "facStreet1Tx": "330 State Hwy 19",
      "facStreet2Tx": "P.O. Box 339",
      "state": "MN",
      "zipCode": "55333",
      "zip4Code": null,
      "county": "RENVILLE",
      "facLatDecMs": "44.531389",
      "facLongDecMs": "-094.883056"
    },
    {
      "facilityId": 1000103810,
      "epaFacId": "100000025439",
      "facName": "Heartland Corn Products",
      "city": "Winthrop",
      "facStreet1Tx": "53331 Highway 19",
      "facStreet2Tx": "",
      "state": "MN",
      "zipCode": "55396",
      "zip4Code": "0429",
      "county": "SIBLEY",
      "facLatDecMs": "44.541944",
      "facLongDecMs": "-094.341667"
    },
    {
      "facilityId": 1000014778,
      "epaFacId": "100000025867",
      "facName": "Meadowland Farmers Coop-Walnut Grove",
      "city": "WALNUT GROVE",
      "facStreet1Tx": "US Highway 14 East",
      "facStreet2Tx": null,
      "state": "MN",
      "zipCode": "56180",
      "zip4Code": null,
      "county": "REDWOOD",
      "facLatDecMs": "44.225000",
      "facLongDecMs": "-095.464722"
    },
    {
      "facilityId": 1000088625,
      "epaFacId": "100000026027",
      "facName": "Meadowland Farmers Coop - Sanborn",
      "city": "SANBORN",
      "facStreet1Tx": "220 NORTH MAIN",
      "facStreet2Tx": null,
      "state": "MN",
      "zipCode": "56083",
      "zip4Code": null,
      "county": "REDWOOD",
      "facLatDecMs": "44.21104",
      "facLongDecMs": "-95.127321"
    },
    {
      "facilityId": 1000088642,
      "epaFacId": "100000026036",
      "facName": "Meadowland Farmers Coop,Wabasso",
      "city": "Wabasso",
      "facStreet1Tx": "140 Highway 68 West",
      "facStreet2Tx": null,
      "state": "MN",
      "zipCode": "56293",
      "zip4Code": null,
      "county": "REDWOOD",
      "facLatDecMs": "44.398056",
      "facLongDecMs": "-095.256028"
    },
    {
      "facilityId": 10345,
      "epaFacId": "100000026063",
      "facName": "Meadowland Farmers Coop",
      "city": "STORDEN",
      "facStreet1Tx": "CTY 5",
      "facStreet2Tx": null,
      "state": "MN",
      "zipCode": "56174",
      "zip4Code": null,
      "county": "COTTONWOOD",
      "facLatDecMs": "44.040028",
      "facLongDecMs": "-95.323667"
    },
    {
      "facilityId": 2180,
      "epaFacId": "100000026072",
      "facName": "Meadowland Farmers Coop",
      "city": "WESTBROOK",
      "facStreet1Tx": "4TH   DAVIS",
      "facStreet2Tx": null,
      "state": "MN",
      "zipCode": "56183",
      "zip4Code": null,
      "county": "COTTONWOOD",
      "facLatDecMs": "44.039861",
      "facLongDecMs": "-95.443167"
    },
    {
      "facilityId": 1000088623,
      "epaFacId": "100000026116",
      "facName": "Meadowland Farmers Coop-Lamberton",
      "city": "LAMBERTON",
      "facStreet1Tx": "Highway 14 North",
      "facStreet2Tx": null,
      "state": "MN",
      "zipCode": "56152",
      "zip4Code": null,
      "county": "REDWOOD",
      "facLatDecMs": "44.233729",
      "facLongDecMs": "-95.263039"
    },
    {
      "facilityId": 2182,
      "epaFacId": "100000026152",
      "facName": "Meadowland Farmers Coop",
      "city": "LUCAN",
      "facStreet1Tx": "410 N.ST",
      "facStreet2Tx": null,
      "state": "MN",
      "zipCode": "56255",
      "zip4Code": null,
      "county": "REDWOOD",
      "facLatDecMs": "44.411306",
      "facLongDecMs": "-95.413139"
    },
    {
      "facilityId": 1000088624,
      "epaFacId": "100000026189",
      "facName": "Meadowland Farmers Coop-Redwood Falls",
      "city": "REDWOOD FALLS",
      "facStreet1Tx": "1152 South Mill Street",
      "facStreet2Tx": "",
      "state": "MN",
      "zipCode": "56283",
      "zip4Code": "",
      "county": "REDWOOD",
      "facLatDecMs": "44.529981",
      "facLongDecMs": "-95.120595"
    },
    {
      "facilityId": 1000088622,
      "epaFacId": "100000026321",
      "facName": "Meadowland Farmers Coop-Franklin",
      "city": "FRANKLIN",
      "facStreet1Tx": "65179 370TH ST",
      "facStreet2Tx": "",
      "state": "MN",
      "zipCode": "55333",
      "zip4Code": "",
      "county": "RENVILLE",
      "facLatDecMs": "44.539021",
      "facLongDecMs": "-094.934808"
    },
    {
      "facilityId": 1000114096,
      "epaFacId": "100000027623",
      "facName": "Lamb-Weston/RDO Frozen",
      "city": "Park Rapids",
      "facStreet1Tx": "3704 Park Avenue South",
      "facStreet2Tx": "",
      "state": "MN",
      "zipCode": "56470",
      "zip4Code": "",
      "county": "HUBBARD",
      "facLatDecMs": "46.884517",
      "facLongDecMs": "-095.059386"
    },
    {
      "facilityId": 1000041748,
      "epaFacId": "100000028427",
      "facName": "Hopkins Cold Storage",
      "city": "Hopkins",
      "facStreet1Tx": "325 Blake Road North",
      "facStreet2Tx": null,
      "state": "MN",
      "zipCode": "55343",
      "zip4Code": "8209",
      "county": "HENNEPIN",
      "facLatDecMs": "44.930278",
      "facLongDecMs": "-093.383889"
    },
    {
      "facilityId": 1000104192,
      "epaFacId": "100000029122",
      "facName": "Central Farm Service - Lewisville",
      "city": "Lewisville",
      "facStreet1Tx": "305 P V Street S",
      "facStreet2Tx": "",
      "state": "MN",
      "zipCode": "56060",
      "zip4Code": "",
      "county": "WATONWAN",
      "facLatDecMs": "43.920808",
      "facLongDecMs": "-94.439558"
    },
    {
      "facilityId": 1000104718,
      "epaFacId": "100000029514",
      "facName": "Central Farm Service - Bricelyn",
      "city": "Bricelyn",
      "facStreet1Tx": "53086 50th Street",
      "facStreet2Tx": "",
      "state": "MN",
      "zipCode": "56014",
      "zip4Code": "",
      "county": "FARIBAULT",
      "facLatDecMs": "43.557236",
      "facLongDecMs": "-93.806849"
    },
    {
      "facilityId": 1000100206,
      "epaFacId": "100000029578",
      "facName": "Melrose Dairy Proteins",
      "city": "Melrose",
      "facStreet1Tx": "1000 Kraft Drive SE",
      "facStreet2Tx": null,
      "state": "MN",
      "zipCode": "56352",
      "zip4Code": null,
      "county": "STEARNS",
      "facLatDecMs": "45.670274",
      "facLongDecMs": "-94.800233"
    },
    {
      "facilityId": 24487,
      "epaFacId": "100000029658",
      "facName": "Agriliance LLC - Glyndon",
      "city": "Glyndon",
      "facStreet1Tx": "108 3rd Street",
      "facStreet2Tx": null,
      "state": "MN",
      "zipCode": "56547",
      "zip4Code": null,
      "county": "CLAY",
      "facLatDecMs": "46.8745",
      "facLongDecMs": "-96.577778"
    },
    {
      "facilityId": 10364,
      "epaFacId": "100000029729",
      "facName": "Prairie Island Indian Community: Treasure Island",
      "city": "Welch",
      "facStreet1Tx": "5734 Sturgeon Lake Road",
      "facStreet2Tx": null,
      "state": "MN",
      "zipCode": "55066",
      "zip4Code": null,
      "county": "GOODHUE",
      "facLatDecMs": "44.632222",
      "facLongDecMs": "-92.648889"
    },
    {
      "facilityId": 1000002968,
      "epaFacId": "100000029854",
      "facName": "CHS INC - Comstock",
      "city": "Comstock",
      "facStreet1Tx": "16214 18th Street South",
      "facStreet2Tx": null,
      "state": "MN",
      "zipCode": "56525",
      "zip4Code": null,
      "county": "CLAY",
      "facLatDecMs": "46.657000",
      "facLongDecMs": "-096.748917"
    },
    {
      "facilityId": 1000106242,
      "epaFacId": "100000029934",
      "facName": "Farmers Cooperative Assn.",
      "city": "Kiester",
      "facStreet1Tx": "2474 State Hwy 22",
      "facStreet2Tx": "",
      "state": "MN",
      "zipCode": "56051",
      "zip4Code": "",
      "county": "FARIBAULT",
      "facLatDecMs": "43.52029",
      "facLongDecMs": "-93.70702"
    },
    {
      "facilityId": 1000067959,
      "epaFacId": "100000029989",
      "facName": "Central Farm Service - St. James",
      "city": "St. James",
      "facStreet1Tx": "34697 County Road 55",
      "facStreet2Tx": null,
      "state": "MN",
      "zipCode": "56081",
      "zip4Code": null,
      "county": "WATONWAN",
      "facLatDecMs": "43.982952",
      "facLongDecMs": "-94.643003"
    },
    {
      "facilityId": 1000062122,
      "epaFacId": "100000030156",
      "facName": "Central Farm Service-Blue Earth",
      "city": "Blue Earth",
      "facStreet1Tx": "714 East 14th Street",
      "facStreet2Tx": null,
      "state": "MN",
      "zipCode": "56013",
      "zip4Code": null,
      "county": "FARIBAULT",
      "facLatDecMs": "43.6299",
      "facLongDecMs": "-94.09253"
    },
    {
      "facilityId": 1000077700,
      "epaFacId": "100000030174",
      "facName": "Central Farm Service - Winnebago",
      "city": "Winnebago",
      "facStreet1Tx": "441 Cleveland Ave. E.",
      "facStreet2Tx": null,
      "state": "MN",
      "zipCode": "56098",
      "zip4Code": null,
      "county": "FARIBAULT",
      "facLatDecMs": "43.769721",
      "facLongDecMs": "-94.158328"
    },
    {
      "facilityId": 2465,
      "epaFacId": "100000030209",
      "facName": "Watonwan Farm Service",
      "city": "Amboy",
      "facStreet1Tx": "MN Hwy 169 &30",
      "facStreet2Tx": null,
      "state": "MN",
      "zipCode": "56010",
      "zip4Code": null,
      "county": "BLUE EARTH",
      "facLatDecMs": "43.891167",
      "facLongDecMs": "-94.158639"
    },
    {
      "facilityId": 24492,
      "epaFacId": "100000030441",
      "facName": "Agriliance LLC - Williams",
      "city": "Williams",
      "facStreet1Tx": "PO Box 664",
      "facStreet2Tx": null,
      "state": "MN",
      "zipCode": "56686",
      "zip4Code": null,
      "county": "LAKE OF THE WOODS",
      "facLatDecMs": "48.767056",
      "facLongDecMs": "-94.949889"
    },
    {
      "facilityId": 1000104629,
      "epaFacId": "100000030879",
      "facName": "Central Farm Service - Clarks Grove North",
      "city": "Clarks Grove",
      "facStreet1Tx": "220 Independence Ave North",
      "facStreet2Tx": "",
      "state": "MN",
      "zipCode": "56016",
      "zip4Code": "",
      "county": "FREEBORN",
      "facLatDecMs": "43.766601",
      "facLongDecMs": "-93.328322"
    },
    {
      "facilityId": 1000116163,
      "epaFacId": "100000030968",
      "facName": "City of Fergus Falls Water Treatment Plant",
      "city": "Fergus Falls",
      "facStreet1Tx": "1024 Water Plant Road",
      "facStreet2Tx": "",
      "state": "MN",
      "zipCode": "56537",
      "zip4Code": "",
      "county": "OTTER TAIL",
      "facLatDecMs": "46.292850",
      "facLongDecMs": "-96.041088"
    },
    {
      "facilityId": 1000069262,
      "epaFacId": "100000031039",
      "facName": "Central Farm Service- New Richland",
      "city": "New Richland",
      "facStreet1Tx": "13601 240th Ave",
      "facStreet2Tx": "",
      "state": "MN",
      "zipCode": "56072",
      "zip4Code": "",
      "county": "WASECA",
      "facLatDecMs": "43.906536",
      "facLongDecMs": "-93.494411"
    },
    {
      "facilityId": 24923,
      "epaFacId": "100000031244",
      "facName": "TRIANGLE AGRONOMY SERVICES, LLC-FERTILE",
      "city": "FERTILE",
      "facStreet1Tx": "HWY 32 SOUTH",
      "facStreet2Tx": null,
      "state": "MN",
      "zipCode": "56540",
      "zip4Code": null,
      "county": "POLK",
      "facLatDecMs": "47.516111",
      "facLongDecMs": "-96.279167"
    },
    {
      "facilityId": 1000001524,
      "epaFacId": "100000031351",
      "facName": "TRIANGLE AG, LLC-BELTRAMI",
      "city": "BELTRAMI",
      "facStreet1Tx": "HWY 9",
      "facStreet2Tx": null,
      "state": "MN",
      "zipCode": "56517",
      "zip4Code": null,
      "county": "POLK",
      "facLatDecMs": "47.539722",
      "facLongDecMs": "-096.531944"
    },
    {
      "facilityId": 1000097307,
      "epaFacId": "100000031538",
      "facName": "Central Farm Service - Mapleton",
      "city": "Mapleton",
      "facStreet1Tx": "404 Highway 22 South",
      "facStreet2Tx": null,
      "state": "MN",
      "zipCode": "56065",
      "zip4Code": null,
      "county": "BLUE EARTH",
      "facLatDecMs": "43.923659",
      "facLongDecMs": "-93.946268"
    },
    {
      "facilityId": 55756,
      "epaFacId": "100000031636",
      "facName": "Cargill",
      "city": "Blue Earth",
      "facStreet1Tx": "8334 430 th ave",
      "facStreet2Tx": null,
      "state": "MN",
      "zipCode": "56013",
      "zip4Code": null,
      "county": "FARIBAULT",
      "facLatDecMs": "43.602722",
      "facLongDecMs": "-093.992889"
    },
    {
      "facilityId": 1000118224,
      "epaFacId": "100000031814",
      "facName": "Ashby Equity Association",
      "city": "Ashby",
      "facStreet1Tx": "County Road 82",
      "facStreet2Tx": "",
      "state": "MN",
      "zipCode": "56309",
      "zip4Code": "",
      "county": "GRANT",
      "facLatDecMs": "46.090529",
      "facLongDecMs": "-095.811580"
    },
    {
      "facilityId": 1000088616,
      "epaFacId": "100000031912",
      "facName": "Meadowland Farmers Coop-Clements",
      "city": "CLEMENTS",
      "facStreet1Tx": "360 Center Street",
      "facStreet2Tx": "",
      "state": "MN",
      "zipCode": "56224",
      "zip4Code": "",
      "county": "REDWOOD",
      "facLatDecMs": "44.382843",
      "facLongDecMs": "-95.057984"
    },
    {
      "facilityId": 1000069501,
      "epaFacId": "100000032145",
      "facName": "River Country Cooperative",
      "city": "MONTGOMERY",
      "facStreet1Tx": "600 4TH STREET SW",
      "facStreet2Tx": null,
      "state": "MN",
      "zipCode": "56069",
      "zip4Code": null,
      "county": "LE SUEUR",
      "facLatDecMs": "44.451018",
      "facLongDecMs": "-093.58460"
    },
    {
      "facilityId": 1000107482,
      "epaFacId": "100000032216",
      "facName": "LAKESIDE FOODS, INC.",
      "city": "BROOTEN",
      "facStreet1Tx": "500 INDUSTRIAL PARK ROAD",
      "facStreet2Tx": "",
      "state": "MN",
      "zipCode": "56316",
      "zip4Code": "0430",
      "county": "STEARNS",
      "facLatDecMs": "45.495403",
      "facLongDecMs": "-095.109682"
    },
    {
      "facilityId": 45716,
      "epaFacId": "100000032403",
      "facName": "Fosston Coop Elevator Association",
      "city": "Fosston",
      "facStreet1Tx": "33466 410th S.E.",
      "facStreet2Tx": null,
      "state": "MN",
      "zipCode": "56542",
      "zip4Code": null,
      "county": "POLK",
      "facLatDecMs": "47.572530",
      "facLongDecMs": "-095.758210"
    },
    {
      "facilityId": 1000116902,
      "epaFacId": "100000032662",
      "facName": "Central Farm Service - Easton Agronomy",
      "city": "Easton",
      "facStreet1Tx": "77 Cedar Street",
      "facStreet2Tx": "",
      "state": "MN",
      "zipCode": "56025",
      "zip4Code": "",
      "county": "FARIBAULT",
      "facLatDecMs": "43.765176",
      "facLongDecMs": "-93.893209"
    },
    {
      "facilityId": 1000013740,
      "epaFacId": "100000032877",
      "facName": "Farmers Union Oil Company, Wegdahl NH3 Plant",
      "city": "Montevideo",
      "facStreet1Tx": "710 Railroad Ave",
      "facStreet2Tx": null,
      "state": "MN",
      "zipCode": "56265",
      "zip4Code": null,
      "county": "CHIPPEWA",
      "facLatDecMs": "44.888343",
      "facLongDecMs": "-95.642445"
    },
    {
      "facilityId": 1000112850,
      "epaFacId": "100000032902",
      "facName": "Belgrade Cooperative Association",
      "city": "Belgrade",
      "facStreet1Tx": "23866 County Road 200",
      "facStreet2Tx": "",
      "state": "MN",
      "zipCode": "56312",
      "zip4Code": "",
      "county": "STEARNS",
      "facLatDecMs": "45.401389",
      "facLongDecMs": "-095.05889"
    },
    {
      "facilityId": 2676,
      "epaFacId": "100000033055",
      "facName": "MN Valley Ag Co-op  (New Prague)",
      "city": "New Prague",
      "facStreet1Tx": "27252 Helena Blvd",
      "facStreet2Tx": null,
      "state": "MN",
      "zipCode": "56071",
      "zip4Code": null,
      "county": "SCOTT",
      "facLatDecMs": "44.558889",
      "facLongDecMs": "-93.586944"
    },
    {
      "facilityId": 1000020706,
      "epaFacId": "100000033091",
      "facName": "River Country Cooperative",
      "city": "Webster",
      "facStreet1Tx": "4455 40th st. w",
      "facStreet2Tx": null,
      "state": "MN",
      "zipCode": "55088",
      "zip4Code": null,
      "county": "RICE",
      "facLatDecMs": "44.529709",
      "facLongDecMs": "-093.339904"
    },
    {
      "facilityId": 18129,
      "epaFacId": "100000033224",
      "facName": "Donnelly Co-op",
      "city": "Donnelly",
      "facStreet1Tx": "Atlantic Ave. & 5th St.",
      "facStreet2Tx": null,
      "state": "MN",
      "zipCode": "56235",
      "zip4Code": null,
      "county": "STEVENS",
      "facLatDecMs": "45.693278",
      "facLongDecMs": "-96.014472"
    },
    {
      "facilityId": 1000001120,
      "epaFacId": "100000033251",
      "facName": "CHS INC - Adrian",
      "city": "ADRIAN",
      "facStreet1Tx": "24123 BIRKETT AVE.",
      "facStreet2Tx": null,
      "state": "MN",
      "zipCode": "56110",
      "zip4Code": null,
      "county": "NOBLES",
      "facLatDecMs": "43.643722",
      "facLongDecMs": "-096.014111"
    },
    {
      "facilityId": 55686,
      "epaFacId": "100000033368",
      "facName": "Leaf River Ag",
      "city": "Wadena",
      "facStreet1Tx": "12418 US Hwy 10 East",
      "facStreet2Tx": null,
      "state": "MN",
      "zipCode": "56482",
      "zip4Code": null,
      "county": "WADENA",
      "facLatDecMs": "46.444167",
      "facLongDecMs": "-095.145278"
    },
    {
      "facilityId": 1000001130,
      "epaFacId": "100000033796",
      "facName": "CHS INC - Ellsworth",
      "city": "ELLSWORTH",
      "facStreet1Tx": "110 MULBERRY STREET",
      "facStreet2Tx": null,
      "state": "MN",
      "zipCode": "56129",
      "zip4Code": null,
      "county": "NOBLES",
      "facLatDecMs": "43.517222",
      "facLongDecMs": "-096.021333"
    },
    {
      "facilityId": 1000043601,
      "epaFacId": "100000033812",
      "facName": "New Vision Coop",
      "city": "LISMORE",
      "facStreet1Tx": "106 NORTH THIRD AVENUE",
      "facStreet2Tx": null,
      "state": "MN",
      "zipCode": "56155",
      "zip4Code": null,
      "county": "NOBLES",
      "facLatDecMs": "43.756389",
      "facLongDecMs": "-095.945361"
    },
    {
      "facilityId": 1000086727,
      "epaFacId": "100000034009",
      "facName": "Hanska Agronomy",
      "city": "Hanska",
      "facStreet1Tx": "16074  HYW 257 East",
      "facStreet2Tx": "",
      "state": "MN",
      "zipCode": "56041",
      "zip4Code": "",
      "county": "BROWN",
      "facLatDecMs": "44.149750",
      "facLongDecMs": "-094.499806"
    },
    {
      "facilityId": 1000013436,
      "epaFacId": "100000035491",
      "facName": "Farmers Union Oil Company, Montevideo NH3 Plant",
      "city": "Montevideo",
      "facStreet1Tx": "4070 73rd Ave SW",
      "facStreet2Tx": null,
      "state": "MN",
      "zipCode": "56265",
      "zip4Code": "3106",
      "county": "CHIPPEWA",
      "facLatDecMs": "44.967800",
      "facLongDecMs": "-095.374300"
    },
    {
      "facilityId": 1000035427,
      "epaFacId": "100000035561",
      "facName": "Central Minnesota Renewables",
      "city": "Little Falls",
      "facStreet1Tx": "17936 Heron Street",
      "facStreet2Tx": "P.O. Box 535",
      "state": "MN",
      "zipCode": "56345",
      "zip4Code": null,
      "county": "MORRISON",
      "facLatDecMs": "46.022222",
      "facLongDecMs": "-094.338333"
    },
    {
      "facilityId": 1000079991,
      "epaFacId": "100000035623",
      "facName": "Thompson Farmers Coop Elevator",
      "city": "Fisher",
      "facStreet1Tx": "102 4th Street",
      "facStreet2Tx": null,
      "state": "MN",
      "zipCode": "56723",
      "zip4Code": null,
      "county": "POLK",
      "facLatDecMs": "47.802778",
      "facLongDecMs": "-096.798611"
    },
    {
      "facilityId": 1000092506,
      "epaFacId": "100000035721",
      "facName": "Donnelly Cooperative",
      "city": "Donnelly",
      "facStreet1Tx": "P.O. Box 126",
      "facStreet2Tx": "Atlantic Ave.",
      "state": "MN",
      "zipCode": "56235",
      "zip4Code": null,
      "county": "STEVENS",
      "facLatDecMs": "45.693056",
      "facLongDecMs": "-096.014444"
    },
    {
      "facilityId": 23432,
      "epaFacId": "100000035785",
      "facName": "Triangle Agronomy Services, LLC (Callaway)",
      "city": "CALLAWAY",
      "facStreet1Tx": "100 CSAH 83",
      "facStreet2Tx": null,
      "state": "MN",
      "zipCode": "56521",
      "zip4Code": null,
      "county": "BECKER",
      "facLatDecMs": "46.876389",
      "facLongDecMs": "-96.099944"
    },
    {
      "facilityId": 19645,
      "epaFacId": "100000035909",
      "facName": "CARGILL INC",
      "city": "WINNEBAGO",
      "facStreet1Tx": "238 3RD ST. S.E.",
      "facStreet2Tx": null,
      "state": "MN",
      "zipCode": "56098",
      "zip4Code": null,
      "county": "FARIBAULT",
      "facLatDecMs": "43.760944",
      "facLongDecMs": "-94.153639"
    },
    {
      "facilityId": 1000099612,
      "epaFacId": "100000036882",
      "facName": "Central Farm Service - Wells",
      "city": "Wells",
      "facStreet1Tx": "19074 560th Ave",
      "facStreet2Tx": null,
      "state": "MN",
      "zipCode": "56097",
      "zip4Code": null,
      "county": "FARIBAULT",
      "facLatDecMs": "43.761849",
      "facLongDecMs": "-93.747050"
    },
    {
      "facilityId": 1000119414,
      "epaFacId": "100000037042",
      "facName": "Kraft Heinz Company",
      "city": "NEW ULM",
      "facStreet1Tx": "2525 SOUTH BRIDGE STREET",
      "facStreet2Tx": "",
      "state": "MN",
      "zipCode": "56073",
      "zip4Code": "3716",
      "county": "BROWN",
      "facLatDecMs": "44.290000",
      "facLongDecMs": "-094.433611"
    },
    {
      "facilityId": 1000115207,
      "epaFacId": "100000037159",
      "facName": "City of Fergus Falls Wastewater Treatment Plant",
      "city": "Fergus Falls",
      "facStreet1Tx": "311 South Kennedy Park Road",
      "facStreet2Tx": "",
      "state": "MN",
      "zipCode": "56537",
      "zip4Code": "",
      "county": "OTTER TAIL",
      "facLatDecMs": "46.280515",
      "facLongDecMs": "-96.111063"
    },
    {
      "facilityId": 1000112939,
      "epaFacId": "100000037248",
      "facName": "MacroSource, LLC - Moorhead",
      "city": "Moorhead",
      "facStreet1Tx": "2012 28th Ave So.",
      "facStreet2Tx": "",
      "state": "MN",
      "zipCode": "56560",
      "zip4Code": "",
      "county": "CLAY",
      "facLatDecMs": "46.849167",
      "facLongDecMs": "-096.746667"
    },
    {
      "facilityId": 1000115170,
      "epaFacId": "100000037685",
      "facName": "Brooklyn Park Water Treatment Plant",
      "city": "Brooklyn Park",
      "facStreet1Tx": "5100 Edinbrook Terrace",
      "facStreet2Tx": "",
      "state": "MN",
      "zipCode": "55443",
      "zip4Code": "",
      "county": "HENNEPIN",
      "facLatDecMs": "45.109556",
      "facLongDecMs": "-093.337222"
    },
    {
      "facilityId": 1000107163,
      "epaFacId": "100000038014",
      "facName": "Eickhoff Fertilizer INC.",
      "city": "Fountain",
      "facStreet1Tx": "245 Ave.",
      "facStreet2Tx": "",
      "state": "MN",
      "zipCode": "55935",
      "zip4Code": "",
      "county": "FILLMORE",
      "facLatDecMs": "43.726056",
      "facLongDecMs": "-92.159778"
    },
    {
      "facilityId": 22024,
      "epaFacId": "100000038032",
      "facName": "Triangle Agronomy Services, LLC (Lake Park)",
      "city": "LAKE PARK",
      "facStreet1Tx": "HWY 10",
      "facStreet2Tx": null,
      "state": "MN",
      "zipCode": "56554",
      "zip4Code": null,
      "county": "BECKER",
      "facLatDecMs": "46.876389",
      "facLongDecMs": "-96.099944"
    },
    {
      "facilityId": 1000113750,
      "epaFacId": "100000039111",
      "facName": "United Farmers Cooperative-Brownton",
      "city": "Brownton",
      "facStreet1Tx": "7735 State Hwy 15",
      "facStreet2Tx": "PO Box 189",
      "state": "MN",
      "zipCode": "55312",
      "zip4Code": "0189",
      "county": "MCLEOD",
      "facLatDecMs": "44.729320",
      "facLongDecMs": "-094.372700"
    },
    {
      "facilityId": 1000104616,
      "epaFacId": "100000039424",
      "facName": "Moorhead Water Plant",
      "city": "Moorhead",
      "facStreet1Tx": "307 Highway 75 North",
      "facStreet2Tx": "",
      "state": "MN",
      "zipCode": "56560",
      "zip4Code": "",
      "county": "CLAY",
      "facLatDecMs": "46.878023",
      "facLongDecMs": "-096.744574"
    },
    {
      "facilityId": 1000092567,
      "epaFacId": "100000041162",
      "facName": "Triangle Warehouse Inc.",
      "city": "Minneapolis",
      "facStreet1Tx": "3501 Marshall Street NE",
      "facStreet2Tx": "",
      "state": "MN",
      "zipCode": "55418",
      "zip4Code": "",
      "county": "HENNEPIN",
      "facLatDecMs": "45.030429",
      "facLongDecMs": "-093.276733"
    },
    {
      "facilityId": 3395,
      "epaFacId": "100000042214",
      "facName": "SOUTHWESTERN MN. DAIRY ASS'N",
      "city": "RUSSELL",
      "facStreet1Tx": "CTY RD 2 & HWY 23",
      "facStreet2Tx": null,
      "state": "MN",
      "zipCode": "56169",
      "zip4Code": null,
      "county": "LYON",
      "facLatDecMs": "44.311444",
      "facLongDecMs": "-95.964861"
    },
    {
      "facilityId": 1000102702,
      "epaFacId": "100000042704",
      "facName": "Long Prairie Packing Company",
      "city": "Long Prairie",
      "facStreet1Tx": "10 Riverside Drive",
      "facStreet2Tx": "",
      "state": "MN",
      "zipCode": "56347",
      "zip4Code": "",
      "county": "TODD",
      "facLatDecMs": "45.976939",
      "facLongDecMs": "-94.866879"
    },
    {
      "facilityId": 1000044524,
      "epaFacId": "100000042722",
      "facName": "Seneca Foods Corp.-Proc Facility, Rochester, MN",
      "city": "Rochester",
      "facStreet1Tx": "1217 3rd Ave. S.E.",
      "facStreet2Tx": null,
      "state": "MN",
      "zipCode": "55904",
      "zip4Code": null,
      "county": "OLMSTED",
      "facLatDecMs": "44.006667",
      "facLongDecMs": "-092.459167"
    },
    {
      "facilityId": 1000116036,
      "epaFacId": "100000042731",
      "facName": "Seneca Foods Corp.-Cold Storage, Rochester,MN",
      "city": "Rochester",
      "facStreet1Tx": "308 20th St. S.E.",
      "facStreet2Tx": "",
      "state": "MN",
      "zipCode": "55904",
      "zip4Code": "",
      "county": "OLMSTED",
      "facLatDecMs": "43.990175",
      "facLongDecMs": "-092.458282"
    },
    {
      "facilityId": 3572,
      "epaFacId": "100000043115",
      "facName": "NUWAY COOPERATIVE",
      "city": "ALPHA",
      "facStreet1Tx": "KNOX ST",
      "facStreet2Tx": null,
      "state": "MN",
      "zipCode": "56111",
      "zip4Code": null,
      "county": "JACKSON",
      "facLatDecMs": "43.63725",
      "facLongDecMs": "-94.870611"
    },
    {
      "facilityId": 1000107968,
      "epaFacId": "100000043204",
      "facName": "NuWay-K&H Cooperative-Dunnell",
      "city": "Dunnell",
      "facStreet1Tx": "390 Hwy 4 South",
      "facStreet2Tx": "",
      "state": "MN",
      "zipCode": "56127",
      "zip4Code": "",
      "county": "MARTIN",
      "facLatDecMs": "43.544306",
      "facLongDecMs": "-094.629778"
    },
    {
      "facilityId": 16663,
      "epaFacId": "100000044294",
      "facName": "Federal Correctonal Institution Waseca",
      "city": "Waseca",
      "facStreet1Tx": "1000 University Drive SW",
      "facStreet2Tx": null,
      "state": "MN",
      "zipCode": "56093",
      "zip4Code": "0741",
      "county": "WASECA",
      "facLatDecMs": "44.081472",
      "facLongDecMs": "-93.503611"
    },
    {
      "facilityId": 10487,
      "epaFacId": "100000044329",
      "facName": "Morgan Grain & Feed Co.",
      "city": "Morgan",
      "facStreet1Tx": "307 Front St.",
      "facStreet2Tx": null,
      "state": "MN",
      "zipCode": "56266",
      "zip4Code": "0248",
      "county": "REDWOOD",
      "facLatDecMs": "44.41425",
      "facLongDecMs": "-94.927639"
    },
    {
      "facilityId": 3716,
      "epaFacId": "100000045284",
      "facName": "Central Rivers Coop",
      "city": "Cambridge",
      "facStreet1Tx": "11000 Cleveland Ave",
      "facStreet2Tx": null,
      "state": "MN",
      "zipCode": "55008",
      "zip4Code": null,
      "county": "ISANTI",
      "facLatDecMs": "45.566389",
      "facLongDecMs": "-93.225083"
    },
    {
      "facilityId": 3718,
      "epaFacId": "100000045435",
      "facName": "Central Rivers Coop",
      "city": "Rock Creek",
      "facStreet1Tx": "County Road 2",
      "facStreet2Tx": null,
      "state": "MN",
      "zipCode": "55067",
      "zip4Code": null,
      "county": "PINE",
      "facLatDecMs": "45.758167",
      "facLongDecMs": "-92.963306"
    },
    {
      "facilityId": 3721,
      "epaFacId": "100000045863",
      "facName": "Central Rivers Coop",
      "city": "Princeton",
      "facStreet1Tx": "11th Avenue South",
      "facStreet2Tx": null,
      "state": "MN",
      "zipCode": "55371",
      "zip4Code": null,
      "county": "MILLE LACS",
      "facLatDecMs": "45.559528",
      "facLongDecMs": "-93.592861"
    },
    {
      "facilityId": 1000009292,
      "epaFacId": "100000046194",
      "facName": "COOPERATIVE OIL ASSN.-MIDDLE RIVER",
      "city": "MIDDLE RIVER",
      "facStreet1Tx": "COUNTY ROAD 47 & STATE HWY 32",
      "facStreet2Tx": null,
      "state": "MN",
      "zipCode": "56737",
      "zip4Code": null,
      "county": "MARSHALL",
      "facLatDecMs": "48.428333",
      "facLongDecMs": "-096.168333"
    },
    {
      "facilityId": 1000100587,
      "epaFacId": "100000047077",
      "facName": "Hormel Foods Corporation Austin Plant",
      "city": "Austin",
      "facStreet1Tx": "500 14th Ave NE",
      "facStreet2Tx": null,
      "state": "MN",
      "zipCode": "55912",
      "zip4Code": "3600",
      "county": "MOWER",
      "facLatDecMs": "43.676917",
      "facLongDecMs": "-92.965457"
    },
    {
      "facilityId": 1000118727,
      "epaFacId": "100000047166",
      "facName": "Paynesville Farmers Union Coop Oil Co.",
      "city": "Paynesville",
      "facStreet1Tx": "E. Hwy 23",
      "facStreet2Tx": "",
      "state": "MN",
      "zipCode": "56362",
      "zip4Code": "",
      "county": "STEARNS",
      "facLatDecMs": "45.380889",
      "facLongDecMs": "-094.706139"
    },
    {
      "facilityId": 1000116944,
      "epaFacId": "100000047193",
      "facName": "COOPERATIVE OIL ASSN.-GATZKE",
      "city": "GATZKE",
      "facStreet1Tx": "CTY. RD. 6 & CTY.RD. 131",
      "facStreet2Tx": "",
      "state": "MN",
      "zipCode": "56724",
      "zip4Code": "",
      "county": "MARSHALL",
      "facLatDecMs": "48.422500",
      "facLongDecMs": "-095.818889"
    },
    {
      "facilityId": 33985,
      "epaFacId": "100000048174",
      "facName": "Koch Nitrogen Company - Barnesville Terminal",
      "city": "Barnesville",
      "facStreet1Tx": "16916 130th Ave. South",
      "facStreet2Tx": "P.O. Box 552",
      "state": "MN",
      "zipCode": "56514",
      "zip4Code": "0552",
      "county": "CLAY",
      "facLatDecMs": "46.703611",
      "facLongDecMs": "-096.444722"
    },
    {
      "facilityId": 24622,
      "epaFacId": "100000051481",
      "facName": "UAP Northern Plains",
      "city": "Big Lake",
      "facStreet1Tx": "20190 Highway 10",
      "facStreet2Tx": null,
      "state": "MN",
      "zipCode": "55309",
      "zip4Code": null,
      "county": "SHERBURNE",
      "facLatDecMs": "45.340111",
      "facLongDecMs": "-93.786944"
    },
    {
      "facilityId": 55723,
      "epaFacId": "100000051668",
      "facName": "Harmony, MN 6005 Satellite",
      "city": "Harmony",
      "facStreet1Tx": "12959 Highway 52 South",
      "facStreet2Tx": null,
      "state": "MN",
      "zipCode": "55939",
      "zip4Code": null,
      "county": "FILLMORE",
      "facLatDecMs": "43.544722",
      "facLongDecMs": "-091.999722"
    },
    {
      "facilityId": 10556,
      "epaFacId": "100000051766",
      "facName": "FEDERAL CORRECTIONAL INSTITUTION-SANDSTONE",
      "city": "SANDSTONE",
      "facStreet1Tx": "2300 COUNTY ROAD 29",
      "facStreet2Tx": null,
      "state": "MN",
      "zipCode": "55072",
      "zip4Code": "0999",
      "county": "PINE",
      "facLatDecMs": "45.729972",
      "facLongDecMs": "93.143222"
    },
    {
      "facilityId": 18798,
      "epaFacId": "100000052854",
      "facName": "Keywest Simplot Soilbuilders",
      "city": "East Grand Forks",
      "facStreet1Tx": "Hwy. 2 East",
      "facStreet2Tx": null,
      "state": "MN",
      "zipCode": "56721",
      "zip4Code": null,
      "county": "POLK",
      "facLatDecMs": "47.935",
      "facLongDecMs": "-96.7825"
    },
    {
      "facilityId": 1000079240,
      "epaFacId": "100000052925",
      "facName": "East Grand Forks Simplot Grower Solutions",
      "city": "East Grand Forks",
      "facStreet1Tx": "18268 State Hwy 220 SW",
      "facStreet2Tx": null,
      "state": "MN",
      "zipCode": "56721",
      "zip4Code": "0590",
      "county": "POLK",
      "facLatDecMs": "47.900050",
      "facLongDecMs": "-096.954087"
    },