{
  "_embedded": [
    {
      "facilityId": 1000088397,
      "epaFacId": "100000000474",
      "facName": "Nestle Development Center",
      "city": "Marysville",
      "facStreet1Tx": "809 Collins Ave.",
      "facStreet2Tx": "",
      "state": "OH",
      "zipCode": "43040",
      "zip4Code": "4002",
      "county": "UNION",
      "facLatDecMs": "40.229444",
      "facLongDecMs": "-083.375583"
    },
    {
      "facilityId": 1000118957,
      "epaFacId": "100000001678",
      "facName": "Air Products, Middletown,OH",
      "city": "Middletown",
      "facStreet1Tx": "2500 Yankee Road",
      "facStreet2Tx": "",
      "state": "OH",
      "zipCode": "45044",
      "zip4Code": "7652",
      "county": "BUTLER",
      "facLatDecMs": "39.488616",
      "facLongDecMs": "-84.395935"
    },
    {
      "facilityId": 1000089714,
      "epaFacId": "100000005558",
      "facName": "Meijer Tipp City Distribution Complex",
      "city": "Tipp City",
      "facStreet1Tx": "4200 S. County Road 25A",
      "facStreet2Tx": null,
      "state": "OH",
      "zipCode": "45371",
      "zip4Code": null,
      "county": "MIAMI",
      "facLatDecMs": "39.977103",
      "facLongDecMs": "-084.205853"
    },
    {
      "facilityId": 1000039701,
      "epaFacId": "100000005914",
      "facName": "Air Products, Cleveland Ohio",
      "city": "Cleveland",
      "facStreet1Tx": "2820 Quigley Road",
      "facStreet2Tx": null,
      "state": "OH",
      "zipCode": "44113",
      "zip4Code": "4513",
      "county": "CUYAHOGA",
      "facLatDecMs": "41.282500",
      "facLongDecMs": "-081.410400"
    },
    {
      "facilityId": 1000114864,
      "epaFacId": "100000007226",
      "facName": "Medina County - Liverpool WWTP (SD #500)",
      "city": "Valley City",
      "facStreet1Tx": "89 Columbia Road",
      "facStreet2Tx": "",
      "state": "OH",
      "zipCode": "44280",
      "zip4Code": "",
      "county": "MEDINA",
      "facLatDecMs": "41.272000",
      "facLongDecMs": "-081.916743"
    },
    {
      "facilityId": 10050,
      "epaFacId": "100000007565",
      "facName": "AEROSOL SYSTEMS",
      "city": "MACEDONIA",
      "facStreet1Tx": "9150 VALLEY VIEW ROAD",
      "facStreet2Tx": null,
      "state": "OH",
      "zipCode": "44056",
      "zip4Code": null,
      "county": "SUMMIT",
      "facLatDecMs": "41.299722",
      "facLongDecMs": "-81.492222"
    },
    {
      "facilityId": 1000062359,
      "epaFacId": "100000007627",
      "facName": "Falor Farm Center, Inc.",
      "city": "Grand Rapids",
      "facStreet1Tx": "12078 Grand Rapids Road",
      "facStreet2Tx": "",
      "state": "OH",
      "zipCode": "43522",
      "zip4Code": "",
      "county": "LUCAS",
      "facLatDecMs": "41.418833",
      "facLongDecMs": "-083.863583"
    },
    {
      "facilityId": 1000117124,
      "epaFacId": "100000008243",
      "facName": "Water Treatment Plant",
      "city": "Springfield",
      "facStreet1Tx": "201 Eagle City Rd.",
      "facStreet2Tx": "",
      "state": "OH",
      "zipCode": "45502",
      "zip4Code": "7515",
      "county": "CLARK",
      "facLatDecMs": "39.973611",
      "facLongDecMs": "-083.807500"
    },
    {
      "facilityId": 34181,
      "epaFacId": "100000011239",
      "facName": "Helena Chemical Company",
      "city": "Coldwater",
      "facStreet1Tx": "3971 Burk-St. Henry Road",
      "facStreet2Tx": null,
      "state": "OH",
      "zipCode": "45828",
      "zip4Code": null,
      "county": "MERCER",
      "facLatDecMs": "40.463167",
      "facLongDecMs": "-084.649000"
    },
    {
      "facilityId": 1000005498,
      "epaFacId": "100000012087",
      "facName": "Lewisburg Crop Center",
      "city": "Lewisburg",
      "facStreet1Tx": "4250 State Route 40",
      "facStreet2Tx": null,
      "state": "OH",
      "zipCode": "45338",
      "zip4Code": null,
      "county": "PREBLE",
      "facLatDecMs": "39.853611",
      "facLongDecMs": "-084.550278"
    },
    {
      "facilityId": 1072,
      "epaFacId": "100000012103",
      "facName": "Bradford Crop Center",
      "city": "Bradford",
      "facStreet1Tx": "136 Miami Avenue",
      "facStreet2Tx": null,
      "state": "OH",
      "zipCode": "45308",
      "zip4Code": null,
      "county": "MIAMI",
      "facLatDecMs": "40.130556",
      "facLongDecMs": "-84.43"
    },
    {
      "facilityId": 1000116476,
      "epaFacId": "100000012121",
      "facName": "College Corner",
      "city": "College Corner",
      "facStreet1Tx": "6505 College Corner Pike",
      "facStreet2Tx": "",
      "state": "OH",
      "zipCode": "45003",
      "zip4Code": "",
      "county": "BUTLER",
      "facLatDecMs": "39.548724",
      "facLongDecMs": "-084.796307"
    },
    {
      "facilityId": 1075,
      "epaFacId": "100000012256",
      "facName": "Greenville Ag Center",
      "city": "Greenville",
      "facStreet1Tx": "619 Sater Street",
      "facStreet2Tx": null,
      "state": "OH",
      "zipCode": "45331",
      "zip4Code": null,
      "county": "DARKE",
      "facLatDecMs": "40.092028",
      "facLongDecMs": "-84.626722"
    },
    {
      "facilityId": 1078,
      "epaFacId": "100000012639",
      "facName": "Union City",
      "city": "Union City",
      "facStreet1Tx": "203 South Sycamore Street",
      "facStreet2Tx": null,
      "state": "OH",
      "zipCode": "47390",
      "zip4Code": null,
      "county": "DARKE",
      "facLatDecMs": "40.198139",
      "facLongDecMs": "-84.800889"
    },
    {
      "facilityId": 1000005501,
      "epaFacId": "100000012666",
      "facName": "Seven Mile Ag Center",
      "city": "Seven Mile",
      "facStreet1Tx": "3300 Elkton Road",
      "facStreet2Tx": null,
      "state": "OH",
      "zipCode": "45062",
      "zip4Code": null,
      "county": "BUTLER",
      "facLatDecMs": "39.471668",
      "facLongDecMs": "-084.551941"
    },
    {
      "facilityId": 1000114240,
      "epaFacId": "100000012808",
      "facName": "Eldorado",
      "city": "Eldorado",
      "facStreet1Tx": "150 East Ohio Street",
      "facStreet2Tx": "",
      "state": "OH",
      "zipCode": "45321",
      "zip4Code": "",
      "county": "PREBLE",
      "facLatDecMs": "39.901358",
      "facLongDecMs": "-084.672375"
    },
    {
      "facilityId": 1000000186,
      "epaFacId": "100000014361",
      "facName": "City of Ravenna Water Treatment Plant",
      "city": "Ravenna",
      "facStreet1Tx": "5383 Lakewood Road",
      "facStreet2Tx": null,
      "state": "OH",
      "zipCode": "44266",
      "zip4Code": "9565",
      "county": "PORTAGE",
      "facLatDecMs": "41.138056",
      "facLongDecMs": "-081.284889"
    },
    {
      "facilityId": 1000038941,
      "epaFacId": "100000014398",
      "facName": "Tri-Cities North Regional Wastewater Authority",
      "city": "Dayton",
      "facStreet1Tx": "3777 Old Needmore Rd.",
      "facStreet2Tx": null,
      "state": "OH",
      "zipCode": "45424",
      "zip4Code": null,
      "county": "MONTGOMERY",
      "facLatDecMs": "39.823568",
      "facLongDecMs": "-084.152269"
    },
    {
      "facilityId": 1000093564,
      "epaFacId": "100000018349",
      "facName": "King's Command",
      "city": "Versailles",
      "facStreet1Tx": "770 North Center Street",
      "facStreet2Tx": null,
      "state": "OH",
      "zipCode": "45380",
      "zip4Code": null,
      "county": "DARKE",
      "facLatDecMs": "40.229896",
      "facLongDecMs": "-084.485485"
    },
    {
      "facilityId": 1000118365,
      "epaFacId": "100000018358",
      "facName": "Air Products, Cincinnati, OH",
      "city": "Cincinnati",
      "facStreet1Tx": "4900 Este Avenue",
      "facStreet2Tx": "",
      "state": "OH",
      "zipCode": "45232",
      "zip4Code": "0283",
      "county": "HAMILTON",
      "facLatDecMs": "39.181702",
      "facLongDecMs": "-84.502831"
    },
    {
      "facilityId": 26796,
      "epaFacId": "100000019008",
      "facName": "WILLARD WATER TREATMENT PLANT",
      "city": "WILLARD",
      "facStreet1Tx": "540 CENTRAL AVENUE",
      "facStreet2Tx": "FOURTH STREET",
      "state": "OH",
      "zipCode": "44890",
      "zip4Code": "0367",
      "county": "HURON",
      "facLatDecMs": "41.0575",
      "facLongDecMs": "-82.7175"
    },
    {
      "facilityId": 1000117123,
      "epaFacId": "100000020568",
      "facName": "General Mills - Wellston",
      "city": "Wellston",
      "facStreet1Tx": "2403 South Pennsylvania Avenue",
      "facStreet2Tx": "",
      "state": "OH",
      "zipCode": "45692",
      "zip4Code": "9569",
      "county": "JACKSON",
      "facLatDecMs": "39.096111",
      "facLongDecMs": "-082.543889"
    },
    {
      "facilityId": 1000115647,
      "epaFacId": "100000021264",
      "facName": "City of Kent Water Treatment Plant",
      "city": "Kent",
      "facStreet1Tx": "5860 Hodgeman Lane",
      "facStreet2Tx": "",
      "state": "OH",
      "zipCode": "44240",
      "zip4Code": "",
      "county": "PORTAGE",
      "facLatDecMs": "41.149722",
      "facLongDecMs": "-081.318333"
    },
    {
      "facilityId": 1750,
      "epaFacId": "100000021308",
      "facName": "New Antioch Mill Division",
      "city": "Wilmington",
      "facStreet1Tx": "1255 Antioch Road",
      "facStreet2Tx": null,
      "state": "OH",
      "zipCode": "45177",
      "zip4Code": null,
      "county": "CLINTON",
      "facLatDecMs": "39.402667",
      "facLongDecMs": "-83.761"
    },
    {
      "facilityId": 1760,
      "epaFacId": "100000022129",
      "facName": "Equity Group - Ohio Division",
      "city": "North Baltimore",
      "facStreet1Tx": "2208 Grant Road",
      "facStreet2Tx": "P.O. Box 307",
      "state": "OH",
      "zipCode": "45872",
      "zip4Code": "0307",
      "county": "WOOD",
      "facLatDecMs": "41.182083",
      "facLongDecMs": "-83.647861"
    },
    {
      "facilityId": 1000089593,
      "epaFacId": "100000022637",
      "facName": "Smithfield Packaged Meats Corp. - Springdale, OH",
      "city": "Springdale",
      "facStreet1Tx": "801 E. Kemper Rd.",
      "facStreet2Tx": "",
      "state": "OH",
      "zipCode": "45246",
      "zip4Code": "2515",
      "county": "HAMILTON",
      "facLatDecMs": "39.285767",
      "facLongDecMs": "-84.45693"
    },
    {
      "facilityId": 1973,
      "epaFacId": "100000023789",
      "facName": "Cold Metal Products, Youngstown Facility",
      "city": "Youngstown",
      "facStreet1Tx": "45 South Montgomery Street",
      "facStreet2Tx": null,
      "state": "OH",
      "zipCode": "44501",
      "zip4Code": null,
      "county": "MAHONING",
      "facLatDecMs": "41.082639",
      "facLongDecMs": "-80.615833"
    },
    {
      "facilityId": 1000101312,
      "epaFacId": "100000024136",
      "facName": "East Side Jersey Dairy - Orrville",
      "city": "Orrville",
      "facStreet1Tx": "307 N. Vine St",
      "facStreet2Tx": "",
      "state": "OH",
      "zipCode": "44667",
      "zip4Code": "",
      "county": "WAYNE",
      "facLatDecMs": "40.842784",
      "facLongDecMs": "-081.766327"
    },
    {
      "facilityId": 1000095782,
      "epaFacId": "100000025206",
      "facName": "Lorain Water Purification Plant",
      "city": "Lorain",
      "facStreet1Tx": "1106 First Street",
      "facStreet2Tx": "",
      "state": "OH",
      "zipCode": "44052",
      "zip4Code": "1434",
      "county": "LORAIN",
      "facLatDecMs": "41.470027",
      "facLongDecMs": "-82.185638"
    },
    {
      "facilityId": 19619,
      "epaFacId": "100000025359",
      "facName": "Woodville NH3 Plant",
      "city": "Woodville",
      "facStreet1Tx": "100 Penn Lane",
      "facStreet2Tx": null,
      "state": "OH",
      "zipCode": "43469",
      "zip4Code": null,
      "county": "SANDUSKY",
      "facLatDecMs": "41.459583",
      "facLongDecMs": "-83.368722"
    },
    {
      "facilityId": 30222,
      "epaFacId": "100000025386",
      "facName": "Ridge View Farms",
      "city": "Clyde",
      "facStreet1Tx": "7731 N TR 32",
      "facStreet2Tx": null,
      "state": "OH",
      "zipCode": "43410",
      "zip4Code": null,
      "county": "SENECA",
      "facLatDecMs": "41.242500",
      "facLongDecMs": "-083.034167"
    },
    {
      "facilityId": 1000110705,
      "epaFacId": "100000025448",
      "facName": "Berkey Farm Center",
      "city": "Berkey",
      "facStreet1Tx": "12353 Sylvania-Metamora Rd.",
      "facStreet2Tx": "",
      "state": "OH",
      "zipCode": "43504",
      "zip4Code": "",
      "county": "LUCAS",
      "facLatDecMs": "41.715000",
      "facLongDecMs": "-083.841111"
    },
    {
      "facilityId": 1000118067,
      "epaFacId": "100000025741",
      "facName": "Tremco Incorporated",
      "city": "Cleveland",
      "facStreet1Tx": "4475 E. 175th Street",
      "facStreet2Tx": "",
      "state": "OH",
      "zipCode": "44128",
      "zip4Code": "",
      "county": "CUYAHOGA",
      "facLatDecMs": "41.436667",
      "facLongDecMs": "-81.556667"
    },
    {
      "facilityId": 1000100849,
      "epaFacId": "100000026198",
      "facName": "Campbell Soup Supply Company L.L.C.-Napoleon Plant",
      "city": "Napoleon",
      "facStreet1Tx": "12-773 State Rt. 110",
      "facStreet2Tx": null,
      "state": "OH",
      "zipCode": "43545",
      "zip4Code": "0311",
      "county": "HENRY",
      "facLatDecMs": "41.3975",
      "facLongDecMs": "-084.1075"
    },
    {
      "facilityId": 35405,
      "epaFacId": "100000026394",
      "facName": "BOC - Fostoria",
      "city": "Fostoria",
      "facStreet1Tx": "405 E. Zeller Road",
      "facStreet2Tx": null,
      "state": "OH",
      "zipCode": "44830",
      "zip4Code": null,
      "county": "SENECA",
      "facLatDecMs": "41.135833",
      "facLongDecMs": "-083.404722"
    },
    {
      "facilityId": 1000110461,
      "epaFacId": "100000026474",
      "facName": "Messer - Lima",
      "city": "Lima",
      "facStreet1Tx": "1680 Buckeye Road",
      "facStreet2Tx": "",
      "state": "OH",
      "zipCode": "45805",
      "zip4Code": "",
      "county": "ALLEN",
      "facLatDecMs": "40.713333",
      "facLongDecMs": "-084.135556"
    },
    {
      "facilityId": 1000096484,
      "epaFacId": "100000028347",
      "facName": "Bellisio Foods Incorporated (Formerly Luigino's)",
      "city": "Jackson",
      "facStreet1Tx": "100 East Broadway",
      "facStreet2Tx": "",
      "state": "OH",
      "zipCode": "45640",
      "zip4Code": "",
      "county": "JACKSON",
      "facLatDecMs": "39.054167",
      "facLongDecMs": "-082.631111"
    },
    {
      "facilityId": 1000104615,
      "epaFacId": "100000028579",
      "facName": "Mahoning Valley Sanitary District",
      "city": "Mineral Ridge",
      "facStreet1Tx": "1181 Ohltown McDonald Road",
      "facStreet2Tx": "",
      "state": "OH",
      "zipCode": "44440",
      "zip4Code": "0124",
      "county": "TRUMBULL",
      "facLatDecMs": "41.153879",
      "facLongDecMs": "-080.777290"
    },
    {
      "facilityId": 50224,
      "epaFacId": "100000029042",
      "facName": "Deshler, OH",
      "city": "Deshler",
      "facStreet1Tx": "C-875 County Road 3",
      "facStreet2Tx": "PO Box 7A",
      "state": "OH",
      "zipCode": "43516",
      "zip4Code": null,
      "county": "HENRY",
      "facLatDecMs": "41.209722",
      "facLongDecMs": "-083.920833"
    },
    {
      "facilityId": 1000040959,
      "epaFacId": "100000029051",
      "facName": "Burkettsville, OH Satellite",
      "city": "Burkettsville",
      "facStreet1Tx": "State Route 118 and State Route 319",
      "facStreet2Tx": null,
      "state": "OH",
      "zipCode": "45310",
      "zip4Code": null,
      "county": "DARKE",
      "facLatDecMs": "40.351111",
      "facLongDecMs": "-084.633056"
    },
    {
      "facilityId": 1000061559,
      "epaFacId": "100000030343",
      "facName": "American Craft Brewery, LLC",
      "city": "Cincinnati",
      "facStreet1Tx": "1625 Central Parkway",
      "facStreet2Tx": null,
      "state": "OH",
      "zipCode": "45214",
      "zip4Code": null,
      "county": "HAMILTON",
      "facLatDecMs": "39.114062",
      "facLongDecMs": "-84.522232"
    },
    {
      "facilityId": 1000026358,
      "epaFacId": "100000030502",
      "facName": "Crown Water Treatment Plant",
      "city": "Westlake",
      "facStreet1Tx": "955 Clague Road",
      "facStreet2Tx": null,
      "state": "OH",
      "zipCode": "44145",
      "zip4Code": null,
      "county": "CUYAHOGA",
      "facLatDecMs": "41.474092",
      "facLongDecMs": "-081.880281"
    },
    {
      "facilityId": 1000094064,
      "epaFacId": "100000031654",
      "facName": "Kraft Heinz Foods Company - Coshocton",
      "city": "Coshocton",
      "facStreet1Tx": "1660 South Second Street",
      "facStreet2Tx": null,
      "state": "OH",
      "zipCode": "43812",
      "zip4Code": "1950",
      "county": "COSHOCTON",
      "facLatDecMs": "40.249865",
      "facLongDecMs": "-81.869726"
    },
    {
      "facilityId": 1000086097,
      "epaFacId": "100000031841",
      "facName": "Cooper Farms Processing",
      "city": "St. Henry",
      "facStreet1Tx": "1 Cooper Farms Drive",
      "facStreet2Tx": null,
      "state": "OH",
      "zipCode": "45883",
      "zip4Code": null,
      "county": "MERCER",
      "facLatDecMs": "40.426944",
      "facLongDecMs": "-084.539722"
    },
    {
      "facilityId": 1945,
      "epaFacId": "100000032029",
      "facName": "Pavco inc",
      "city": "CLEVELAND",
      "facStreet1Tx": "2740 Grand Ave",
      "facStreet2Tx": null,
      "state": "OH",
      "zipCode": "44104",
      "zip4Code": null,
      "county": "CUYAHOGA",
      "facLatDecMs": "41.491389",
      "facLongDecMs": "-81.63"
    },
    {
      "facilityId": 1000104493,
      "epaFacId": "100000032396",
      "facName": "Toledo Refining Company LLC",
      "city": "Oregon",
      "facStreet1Tx": "1819 Woodville Rd.",
      "facStreet2Tx": "",
      "state": "OH",
      "zipCode": "43616",
      "zip4Code": "",
      "county": "LUCAS",
      "facLatDecMs": "41.629722",
      "facLongDecMs": "-83.505278"
    },
    {
      "facilityId": 34053,
      "epaFacId": "100000032519",
      "facName": "Garrett A. Morgan Water Treatment Plant",
      "city": "Cleveland",
      "facStreet1Tx": "1245 W. 45th Street",
      "facStreet2Tx": null,
      "state": "OH",
      "zipCode": "44102",
      "zip4Code": null,
      "county": "CUYAHOGA",
      "facLatDecMs": "41.490000",
      "facLongDecMs": "-081.716667"
    },
    {
      "facilityId": 1000052657,
      "epaFacId": "100000032635",
      "facName": "City of Clyde Water Treatment Plant",
      "city": "CLYDE",
      "facStreet1Tx": "1041 S. MAIN ST.",
      "facStreet2Tx": null,
      "state": "OH",
      "zipCode": "43410",
      "zip4Code": null,
      "county": "SANDUSKY",
      "facLatDecMs": "41.298889",
      "facLongDecMs": "-082.982917"
    },
    {
      "facilityId": 32485,
      "epaFacId": "100000033536",
      "facName": "U.S.Food Service,Inc.-Cincinnati",
      "city": "Cincinnati",
      "facStreet1Tx": "5445 Spellmire Drive",
      "facStreet2Tx": null,
      "state": "OH",
      "zipCode": "45246",
      "zip4Code": null,
      "county": "BUTLER",
      "facLatDecMs": "39.301944",
      "facLongDecMs": "-084.445000"
    },
    {
      "facilityId": 1000104408,
      "epaFacId": "100000034688",
      "facName": "Airgas USA, LLC",
      "city": "Miamiville",
      "facStreet1Tx": "160 Glendale Milford Rd",
      "facStreet2Tx": "",
      "state": "OH",
      "zipCode": "45147",
      "zip4Code": "",
      "county": "CLERMONT",
      "facLatDecMs": "39.215278",
      "facLongDecMs": "-084.310526"
    },
    {
      "facilityId": 34054,
      "epaFacId": "100000035972",
      "facName": "Baldwin Water Treatment Plant",
      "city": "Cleveland",
      "facStreet1Tx": "2316 Woodhill Road",
      "facStreet2Tx": null,
      "state": "OH",
      "zipCode": "44106",
      "zip4Code": null,
      "county": "CUYAHOGA",
      "facLatDecMs": "41.495145",
      "facLongDecMs": "-081.611634"
    },
    {
      "facilityId": 1000092176,
      "epaFacId": "100000036016",
      "facName": "Clermont County Bob McEwen WTP",
      "city": "Batavia",
      "facStreet1Tx": "3960 Greenbriar Road",
      "facStreet2Tx": null,
      "state": "OH",
      "zipCode": "45103",
      "zip4Code": null,
      "county": "CLERMONT",
      "facLatDecMs": "39.050861",
      "facLongDecMs": "-084.135407"
    },
    {
      "facilityId": 1000092327,
      "epaFacId": "100000036025",
      "facName": "Clermont County Pierce-Union-Batavia WTP",
      "city": "New Richmond",
      "facStreet1Tx": "650 State Route 749",
      "facStreet2Tx": "at US 52",
      "state": "OH",
      "zipCode": "45157",
      "zip4Code": null,
      "county": "CLERMONT",
      "facLatDecMs": "39.011700",
      "facLongDecMs": "-084.300129"
    },
    {
      "facilityId": 2913,
      "epaFacId": "100000036034",
      "facName": "Clermont County Lower East Fork WWTP",
      "city": "Milford",
      "facStreet1Tx": "1005 US 50",
      "facStreet2Tx": null,
      "state": "OH",
      "zipCode": "45150",
      "zip4Code": null,
      "county": "CLERMONT",
      "facLatDecMs": "39.138056",
      "facLongDecMs": "-84.254444"
    },
    {
      "facilityId": 2938,
      "epaFacId": "100000036301",
      "facName": "Nottingham Water Treatment Plant",
      "city": "Cleveland",
      "facStreet1Tx": "1300 Chardon Road",
      "facStreet2Tx": null,
      "state": "OH",
      "zipCode": "44117",
      "zip4Code": null,
      "county": "CUYAHOGA",
      "facLatDecMs": "41.574444",
      "facLongDecMs": "-81.541944"
    },
    {
      "facilityId": 1000046977,
      "epaFacId": "100000036383",
      "facName": "Custar Agronomy",
      "city": "Custar",
      "facStreet1Tx": "9266 Custar Road",
      "facStreet2Tx": null,
      "state": "OH",
      "zipCode": "43511",
      "zip4Code": null,
      "county": "WOOD",
      "facLatDecMs": "41.288828",
      "facLongDecMs": "-083.843878"
    },
    {
      "facilityId": 1000022458,
      "epaFacId": "100000036695",
      "facName": "Shalersville Water Treatment Plant",
      "city": "Ravenna",
      "facStreet1Tx": "9750 Coit Road",
      "facStreet2Tx": "P.O. Box 812",
      "state": "OH",
      "zipCode": "44266",
      "zip4Code": null,
      "county": "PORTAGE",
      "facLatDecMs": "41.257222",
      "facLongDecMs": "-81.268056"
    },
    {
      "facilityId": 1000112814,
      "epaFacId": "100000037621",
      "facName": "CITY OF ELYRIA WATER WORKS",
      "city": "LORAIN",
      "facStreet1Tx": "3628 WEST ERIE AVE.",
      "facStreet2Tx": "",
      "state": "OH",
      "zipCode": "44053",
      "zip4Code": "",
      "county": "LORAIN",
      "facLatDecMs": "41.454167",
      "facLongDecMs": "-082.215278"
    },
    {
      "facilityId": 35107,
      "epaFacId": "100000037667",
      "facName": "SABINA FACILITY",
      "city": "SABINA",
      "facStreet1Tx": "STATE ROUTE 729",
      "facStreet2Tx": null,
      "state": "OH",
      "zipCode": "45169",
      "zip4Code": null,
      "county": "CLINTON",
      "facLatDecMs": "39.500000",
      "facLongDecMs": "-083.631389"
    },
    {
      "facilityId": 1000002381,
      "epaFacId": "100000037676",
      "facName": "Appleton Papers Inc., West Carrollton Mill",
      "city": "West Carrollton",
      "facStreet1Tx": "1030 West Alex-Bell Rd.",
      "facStreet2Tx": null,
      "state": "OH",
      "zipCode": "45449",
      "zip4Code": "1923",
      "county": "MONTGOMERY",
      "facLatDecMs": "39.675000",
      "facLongDecMs": "-084.234444"
    },
    {
      "facilityId": 1000042907,
      "epaFacId": "100000037881",
      "facName": "CITY OF ELYRIA WASTEWATER POLLUTION CONTROL PLANT",
      "city": "ELYRIA",
      "facStreet1Tx": "1194 GULF ROAD",
      "facStreet2Tx": null,
      "state": "OH",
      "zipCode": "44035",
      "zip4Code": null,
      "county": "LORAIN",
      "facLatDecMs": "41.404167",
      "facLongDecMs": "-082.086944"
    },
    {
      "facilityId": 3139,
      "epaFacId": "100000038657",
      "facName": "CITY OF IRONTON WATER TREATMENT PLANT",
      "city": "IRONTON",
      "facStreet1Tx": "400 SOUTH FRONT STREET",
      "facStreet2Tx": null,
      "state": "OH",
      "zipCode": "45638",
      "zip4Code": null,
      "county": "LAWRENCE",
      "facLatDecMs": "38.531944",
      "facLongDecMs": "-82.685833"
    },
    {
      "facilityId": 1000000104,
      "epaFacId": "100000039399",
      "facName": "Phillip Q. Maiorana Wastewater Plant",
      "city": "Lorain",
      "facStreet1Tx": "6301 West Erie Avenue",
      "facStreet2Tx": null,
      "state": "OH",
      "zipCode": "44053",
      "zip4Code": null,
      "county": "LORAIN",
      "facLatDecMs": "41.432222",
      "facLongDecMs": "-082.251111"
    },
    {
      "facilityId": 15713,
      "epaFacId": "100000039415",
      "facName": "Old Fort Branch",
      "city": "Old Fort",
      "facStreet1Tx": "7867 North State Route 53",
      "facStreet2Tx": null,
      "state": "OH",
      "zipCode": "44861",
      "zip4Code": null,
      "county": "SENECA",
      "facLatDecMs": "41.05275",
      "facLongDecMs": "-83.008028"
    },
    {
      "facilityId": 1000030597,
      "epaFacId": "100000039479",
      "facName": "Bellevue Branch",
      "city": "Bellevue",
      "facStreet1Tx": "601 Goodrich Road",
      "facStreet2Tx": null,
      "state": "OH",
      "zipCode": "44811",
      "zip4Code": null,
      "county": "HURON",
      "facLatDecMs": "41.284734",
      "facLongDecMs": "-082.825258"
    },
    {
      "facilityId": 24353,
      "epaFacId": "100000039512",
      "facName": "Franks Branch",
      "city": "Bellevue",
      "facStreet1Tx": "15581 C.R. 46",
      "facStreet2Tx": null,
      "state": "OH",
      "zipCode": "44811",
      "zip4Code": null,
      "county": "SENECA",
      "facLatDecMs": "41.189861",
      "facLongDecMs": "-82.868056"
    },
    {
      "facilityId": 1000102370,
      "epaFacId": "100000039576",
      "facName": "Green Springs Branch",
      "city": "Green Springs",
      "facStreet1Tx": "8419 N State Route 19",
      "facStreet2Tx": "",
      "state": "OH",
      "zipCode": "44836",
      "zip4Code": "",
      "county": "SENECA",
      "facLatDecMs": "41.249620",
      "facLongDecMs": "-083.053647"
    },
    {
      "facilityId": 3256,
      "epaFacId": "100000039585",
      "facName": "Bloomville Branch",
      "city": "Bloomville",
      "facStreet1Tx": "32 Railroad St.",
      "facStreet2Tx": null,
      "state": "OH",
      "zipCode": "44818",
      "zip4Code": null,
      "county": "SENECA",
      "facLatDecMs": "41.05275",
      "facLongDecMs": "-83.008028"
    },
    {
      "facilityId": 3252,
      "epaFacId": "100000039772",
      "facName": "Litchfield Branch",
      "city": "Litchfield",
      "facStreet1Tx": "10230 Norwalk Road",
      "facStreet2Tx": null,
      "state": "OH",
      "zipCode": "44253",
      "zip4Code": "9504",
      "county": "MEDINA",
      "facLatDecMs": "41.168083",
      "facLongDecMs": "-82.058472"
    },
    {
      "facilityId": 1000061857,
      "epaFacId": "100000039825",
      "facName": "Clarksfiled Branch",
      "city": "Wakeman",
      "facStreet1Tx": "1961 Fitchville River Road",
      "facStreet2Tx": null,
      "state": "OH",
      "zipCode": "44889",
      "zip4Code": null,
      "county": "HURON",
      "facLatDecMs": "41.191810",
      "facLongDecMs": "-082.428196"
    },
    {
      "facilityId": 19895,
      "epaFacId": "100000039852",
      "facName": "Streetsboro-Hudson WWTP",
      "city": "Streetsboro",
      "facStreet1Tx": "9501 Jefferson Street",
      "facStreet2Tx": null,
      "state": "OH",
      "zipCode": "44241",
      "zip4Code": null,
      "county": "PORTAGE",
      "facLatDecMs": "41.249167",
      "facLongDecMs": "-81.388333"
    },
    {
      "facilityId": 1000100869,
      "epaFacId": "100000039978",
      "facName": "PPG Industries, Barberton",
      "city": "Barberton",
      "facStreet1Tx": "4829 Fairland Road",
      "facStreet2Tx": "",
      "state": "OH",
      "zipCode": "44203",
      "zip4Code": "3913",
      "county": "SUMMIT",
      "facLatDecMs": "40.999581",
      "facLongDecMs": "-081.616821"
    },
    {
      "facilityId": 1000082110,
      "epaFacId": "100000040537",
      "facName": "Aqua Ohio Struthers Division WTP",
      "city": "Poland",
      "facStreet1Tx": "7640 Youngstown-Pittsburgh Road",
      "facStreet2Tx": null,
      "state": "OH",
      "zipCode": "44514",
      "zip4Code": null,
      "county": "MAHONING",
      "facLatDecMs": "41.007169",
      "facLongDecMs": "-80.59838"
    },
    {
      "facilityId": 1000115896,
      "epaFacId": "100000040635",
      "facName": "Nestle Prepared Foods Company - Solon, OH",
      "city": "Solon",
      "facStreet1Tx": "5750 Harper Road",
      "facStreet2Tx": "",
      "state": "OH",
      "zipCode": "44139",
      "zip4Code": "1880",
      "county": "CUYAHOGA",
      "facLatDecMs": "41.4044619",
      "facLongDecMs": "-081.469531"
    },
    {
      "facilityId": 1000003217,
      "epaFacId": "100000041091",
      "facName": "Ashland Inc.",
      "city": "Cleveland",
      "facStreet1Tx": "2191 West 110th Street",
      "facStreet2Tx": null,
      "state": "OH",
      "zipCode": "44102",
      "zip4Code": null,
      "county": "CUYAHOGA",
      "facLatDecMs": "41.472500",
      "facLongDecMs": "-081.761944"
    },
    {
      "facilityId": 1000088224,
      "epaFacId": "100000041135",
      "facName": "Univar Solutions USA Inc",
      "city": "Twinsburg",
      "facStreet1Tx": "1610 East Highland Road",
      "facStreet2Tx": null,
      "state": "OH",
      "zipCode": "44087",
      "zip4Code": null,
      "county": "SUMMIT",
      "facLatDecMs": "41.294453",
      "facLongDecMs": "-081.465548"
    },
    {
      "facilityId": 1000119220,
      "epaFacId": "100000041885",
      "facName": "Centerra Co-op, Loudonville",
      "city": "Loudonville",
      "facStreet1Tx": "15670 St. Rt. 3",
      "facStreet2Tx": "",
      "state": "OH",
      "zipCode": "44842",
      "zip4Code": "",
      "county": "HOLMES",
      "facLatDecMs": "40.6617407",
      "facLongDecMs": "-82.1584853"
    },
    {
      "facilityId": 38395,
      "epaFacId": "100000041894",
      "facName": "Kraft Foods Global, Inc.- Toledo Flour Mill",
      "city": "Toledo",
      "facStreet1Tx": "2221 Front Street",
      "facStreet2Tx": null,
      "state": "OH",
      "zipCode": "43605",
      "zip4Code": "2208",
      "county": "LUCAS",
      "facLatDecMs": "41.664444",
      "facLongDecMs": "-083.499444"
    },
    {
      "facilityId": 1000117504,
      "epaFacId": "100000042107",
      "facName": "Trammo Nitrogen Products - North Bend Operations",
      "city": "North Bend",
      "facStreet1Tx": "10743 Brower Road",
      "facStreet2Tx": "",
      "state": "OH",
      "zipCode": "45052",
      "zip4Code": "0158",
      "county": "HAMILTON",
      "facLatDecMs": "39.117472",
      "facLongDecMs": "-084.808278"
    },
    {
      "facilityId": 1000119365,
      "epaFacId": "100000042483",
      "facName": "Centerra Co-op, Smithville",
      "city": "Smithville",
      "facStreet1Tx": "686 East Main St.",
      "facStreet2Tx": "",
      "state": "OH",
      "zipCode": "44677",
      "zip4Code": "",
      "county": "WAYNE",
      "facLatDecMs": "40.8672212",
      "facLongDecMs": "-81.8532037"
    },
    {
      "facilityId": 3550,
      "epaFacId": "100000043124",
      "facName": "Middletown Wastewater Treatment Plant",
      "city": "Middletown",
      "facStreet1Tx": "300 Oxford State Road",
      "facStreet2Tx": null,
      "state": "OH",
      "zipCode": "45044",
      "zip4Code": null,
      "county": "BUTLER",
      "facLatDecMs": "39.478056",
      "facLongDecMs": "84.427778"
    },
    {
      "facilityId": 1000102958,
      "epaFacId": "100000043133",
      "facName": "H. B. Fuller - Blue Ash Plant",
      "city": "Blue Ash",
      "facStreet1Tx": "4450 Malsbary Road",
      "facStreet2Tx": "",
      "state": "OH",
      "zipCode": "45242",
      "zip4Code": "",
      "county": "HAMILTON",
      "facLatDecMs": "39.239444",
      "facLongDecMs": "-084.385833"
    },
    {
      "facilityId": 1000110782,
      "epaFacId": "100000043963",
      "facName": "Davis Farm Services, Inc.",
      "city": "Delta",
      "facStreet1Tx": "5765 State Route 109",
      "facStreet2Tx": "",
      "state": "OH",
      "zipCode": "43515",
      "zip4Code": "",
      "county": "FULTON",
      "facLatDecMs": "41.55783",
      "facLongDecMs": "-84.003888"
    },
    {
      "facilityId": 31032,
      "epaFacId": "100000044016",
      "facName": "Club Chef LLC",
      "city": "Cincinnati",
      "facStreet1Tx": "800 Bank Street",
      "facStreet2Tx": null,
      "state": "OH",
      "zipCode": "45214",
      "zip4Code": null,
      "county": "HAMILTON",
      "facLatDecMs": "39.118611",
      "facLongDecMs": "-084.526111"
    },
    {
      "facilityId": 23408,
      "epaFacId": "100000044061",
      "facName": "Brenntag Mid-South, Inc.",
      "city": "Hebron",
      "facStreet1Tx": "199 Milleken Drive SE",
      "facStreet2Tx": null,
      "state": "OH",
      "zipCode": "43025",
      "zip4Code": null,
      "county": "LICKING",
      "facLatDecMs": "39.96",
      "facLongDecMs": "-82.49"
    },
    {
      "facilityId": 54828,
      "epaFacId": "100000044926",
      "facName": "CITY OF PORTSMOUTH WATER TREATMENT PLANT",
      "city": "PORTSMOUTH",
      "facStreet1Tx": "4862 GALLIA ST",
      "facStreet2Tx": null,
      "state": "OH",
      "zipCode": "45662",
      "zip4Code": null,
      "county": "SCIOTO",
      "facLatDecMs": "38.754444",
      "facLongDecMs": "-082.916944"
    },
    {
      "facilityId": 1000104488,
      "epaFacId": "100000045097",
      "facName": "City of Delaware Ohio Water Treatment Plant",
      "city": "Delaware",
      "facStreet1Tx": "3080 U.S. Route 23 North",
      "facStreet2Tx": "",
      "state": "OH",
      "zipCode": "43015",
      "zip4Code": "",
      "county": "DELAWARE",
      "facLatDecMs": "40.342667",
      "facLongDecMs": "-083.069056"
    },
    {
      "facilityId": 1000041868,
      "epaFacId": "100000045774",
      "facName": "CITY OF FREMONT WATER TREATMENT PLANT",
      "city": "FREMONT",
      "facStreet1Tx": "1113 TIFFIN ST.",
      "facStreet2Tx": null,
      "state": "OH",
      "zipCode": "43420",
      "zip4Code": null,
      "county": "SANDUSKY",
      "facLatDecMs": "41.293056",
      "facLongDecMs": "-082.977778"
    },
    {
      "facilityId": 37185,
      "epaFacId": "100000047601",
      "facName": "Tanner Industries, Inc.",
      "city": "Painesville",
      "facStreet1Tx": "1966 Fairport Nursery Road",
      "facStreet2Tx": null,
      "state": "OH",
      "zipCode": "44077",
      "zip4Code": null,
      "county": "LAKE",
      "facLatDecMs": "41.754722",
      "facLongDecMs": "-081.265556"
    },
    {
      "facilityId": 15879,
      "epaFacId": "100000047978",
      "facName": "DAVIS FARM SERVICES, INC (OKOLONA)",
      "city": "OKOLONA",
      "facStreet1Tx": "18-641 C R  N",
      "facStreet2Tx": null,
      "state": "OH",
      "zipCode": "43550",
      "zip4Code": null,
      "county": "HENRY",
      "facLatDecMs": "41.357028",
      "facLongDecMs": "-84.217917"
    },
    {
      "facilityId": 43014,
      "epaFacId": "100000048165",
      "facName": "Celina Water Treatment Plant",
      "city": "Celina",
      "facStreet1Tx": "714 S. Sugar St.",
      "facStreet2Tx": null,
      "state": "OH",
      "zipCode": "45822",
      "zip4Code": null,
      "county": "MERCER",
      "facLatDecMs": "40.541667",
      "facLongDecMs": "-084.573333"
    },
    {
      "facilityId": 28567,
      "epaFacId": "100000048334",
      "facName": "CITY OF BRYAN WASTE WATER TREATMENT PLANT",
      "city": "BRYAN",
      "facStreet1Tx": "1821 EVANSPORT DRIVE",
      "facStreet2Tx": null,
      "state": "OH",
      "zipCode": "43506",
      "zip4Code": "1412",
      "county": "WILLIAMS",
      "facLatDecMs": "41.463056",
      "facLongDecMs": "-84.526389"
    },
    {
      "facilityId": 1000100415,
      "epaFacId": "100000049609",
      "facName": "Arclin USA, LLC",
      "city": "Toledo",
      "facStreet1Tx": "6175 American Rd",
      "facStreet2Tx": null,
      "state": "OH",
      "zipCode": "43612",
      "zip4Code": null,
      "county": "LUCAS",
      "facLatDecMs": "41.729167",
      "facLongDecMs": "-083.521111"
    },
    {
      "facilityId": 24650,
      "epaFacId": "100000049798",
      "facName": "CSM Industries, Inc.",
      "city": "EUCLID",
      "facStreet1Tx": "21801 TUNGSTEN ROAD",
      "facStreet2Tx": null,
      "state": "OH",
      "zipCode": "44117",
      "zip4Code": "1117",
      "county": "CUYAHOGA",
      "facLatDecMs": "41.576389",
      "facLongDecMs": "81.533333"
    },
    {
      "facilityId": 22386,
      "epaFacId": "100000049912",
      "facName": "Burr Oak Water Tratment Plant",
      "city": "Glouster",
      "facStreet1Tx": "23554 Jenkins Road",
      "facStreet2Tx": null,
      "state": "OH",
      "zipCode": "43752",
      "zip4Code": null,
      "county": "ATHENS",
      "facLatDecMs": "39.544167",
      "facLongDecMs": "-82.057778"
    },
    {
      "facilityId": 56090,
      "epaFacId": "100000050384",
      "facName": "Univar USA Inc., Twinsburg Branch",
      "city": "Twinsburg",
      "facStreet1Tx": "1686 East Highland Road",
      "facStreet2Tx": null,
      "state": "OH",
      "zipCode": "44087",
      "zip4Code": "2219",
      "county": "SUMMIT",
      "facLatDecMs": "41.295556",
      "facLongDecMs": "-081.464167"
    },
    {
      "facilityId": 28702,
      "epaFacId": "100000050703",
      "facName": "Arvesta Corp.",
      "city": "Perry",
      "facStreet1Tx": "3647 Shepard Rd.",
      "facStreet2Tx": null,
      "state": "OH",
      "zipCode": "44081",
      "zip4Code": "9615",
      "county": "LAKE",
      "facLatDecMs": "41.751944",
      "facLongDecMs": "-81.157222"
    },
    {
      "facilityId": 4039,
      "epaFacId": "100000051114",
      "facName": "Van Waters & Rogers Inc.",
      "city": "Walbridge",
      "facStreet1Tx": "30450 Tracy Road",
      "facStreet2Tx": null,
      "state": "OH",
      "zipCode": "43465",
      "zip4Code": "9775",
      "county": "WOOD",
      "facLatDecMs": "41.593333",
      "facLongDecMs": "-83.52775"
    },
    {
      "facilityId": 1000115788,
      "epaFacId": "100000051141",
      "facName": "The Lubrizol Corporation, Painesville Facility",
      "city": "Painesville",
      "facStreet1Tx": "155 Freedom Rd.",
      "facStreet2Tx": "",
      "state": "OH",
      "zipCode": "44077",
      "zip4Code": "1234",
      "county": "LAKE",
      "facLatDecMs": "41.720278",
      "facLongDecMs": "-081.273611"
    },
    {
      "facilityId": 1000093095,
      "epaFacId": "100000051178",
      "facName": "Molson Coors USA LLC - Trenton OH",
      "city": "Trenton",
      "facStreet1Tx": "2525 Wayne Madison Rd.",
      "facStreet2Tx": null,
      "state": "OH",
      "zipCode": "45067",
      "zip4Code": "9760",
      "county": "BUTLER",
      "facLatDecMs": "39.454961",
      "facLongDecMs": "-084.482558"
    },
    {
      "facilityId": 1000082086,
      "epaFacId": "100000052088",
      "facName": "Akzo Nobel Coatings Inc.",
      "city": "Huron",
      "facStreet1Tx": "300 Sprowl Road",
      "facStreet2Tx": null,
      "state": "OH",
      "zipCode": "44839",
      "zip4Code": null,
      "county": "ERIE",
      "facLatDecMs": "41.372222",
      "facLongDecMs": "-082.541667"
    },
    {
      "facilityId": 43427,
      "epaFacId": "100000052122",
      "facName": "Morral Companies - Caledonia",
      "city": "Caledonia",
      "facStreet1Tx": "1592 Columbus-Sandusky road North",
      "facStreet2Tx": null,
      "state": "OH",
      "zipCode": "43314",
      "zip4Code": null,
      "county": "MARION",
      "facLatDecMs": "40.619250",
      "facLongDecMs": "-083.027056"
    },
    {
      "facilityId": 32486,
      "epaFacId": "100000052355",
      "facName": "U.S.Foodservice, Inc. - Cleveland",
      "city": "Twinsburg",
      "facStreet1Tx": "8000 Bavaria Road",
      "facStreet2Tx": null,
      "state": "OH",
      "zipCode": "44087",
      "zip4Code": null,
      "county": "SUMMIT",
      "facLatDecMs": "41.291167",
      "facLongDecMs": "-081.459528"
    },
    {
      "facilityId": 4564,
      "epaFacId": "100000054497",
      "facName": "Uinroyal Chemical Company - Painesville Plant",
      "city": "Painesville",
      "facStreet1Tx": "720 Fairport Nursery Road",
      "facStreet2Tx": null,
      "state": "OH",
      "zipCode": "44077",
      "zip4Code": "4462",
      "county": "LAKE",
      "facLatDecMs": "41.755444",
      "facLongDecMs": "-81.235972"
    },
    {
      "facilityId": 1000009468,
      "epaFacId": "100000055138",
      "facName": "Eaton Aeroquip Inc.",
      "city": "Van Wert",
      "facStreet1Tx": "1225 West Main Street",
      "facStreet2Tx": null,
      "state": "OH",
      "zipCode": "45891",
      "zip4Code": "0389",
      "county": "VAN WERT",
      "facLatDecMs": "40.876111",
      "facLongDecMs": "-084.602222"
    },
    {
      "facilityId": 4146,
      "epaFacId": "100000055673",
      "facName": "Western Reserve Farm Co-op, Andover Agronomy Branc",
      "city": "Andover",
      "facStreet1Tx": "5594 St. Rt. 7",
      "facStreet2Tx": null,
      "state": "OH",
      "zipCode": "44003",
      "zip4Code": null,
      "county": "ASHTABULA",
      "facLatDecMs": "41.598528",
      "facLongDecMs": "-80.570056"
    },
    {
      "facilityId": 20754,
      "epaFacId": "100000056039",
      "facName": "Massillon Stainless, Inc.",
      "city": "Massillon",
      "facStreet1Tx": "411 Oberlin Road, SW",
      "facStreet2Tx": null,
      "state": "OH",
      "zipCode": "44647",
      "zip4Code": null,
      "county": "STARK",
      "facLatDecMs": "40.779167",
      "facLongDecMs": "-81.522222"
    },
    {
      "facilityId": 1000002242,
      "epaFacId": "100000056235",
      "facName": "Aqua Ohio---Stark Regional Division",
      "city": "Massillon",
      "facStreet1Tx": "869 3rd Street NW",
      "facStreet2Tx": null,
      "state": "OH",
      "zipCode": "44646",
      "zip4Code": null,
      "county": "STARK",
      "facLatDecMs": "40.800889",
      "facLongDecMs": "-081.518972"
    },
    {
      "facilityId": 1000066818,
      "epaFacId": "100000056789",
      "facName": "Day-Glo Color Corp.",
      "city": "Twinsburg",
      "facStreet1Tx": "1570 E. Highland Rd.",
      "facStreet2Tx": null,
      "state": "OH",
      "zipCode": "44087",
      "zip4Code": null,
      "county": "SUMMIT",
      "facLatDecMs": "41.296111",
      "facLongDecMs": "-081.468333"
    },
    {
      "facilityId": 52691,
      "epaFacId": "100000057671",
      "facName": "Polyair Corporation",
      "city": "Youngstown",
      "facStreet1Tx": "1100 Performance Place",
      "facStreet2Tx": null,
      "state": "OH",
      "zipCode": "44502",
      "zip4Code": null,
      "county": "MAHONING",
      "facLatDecMs": "41.089167",
      "facLongDecMs": "-080.639167"
    },
    {
      "facilityId": 31470,
      "epaFacId": "100000058395",
      "facName": "Aqua Ohio Inc. Lake Shore Division",
      "city": "Mentor on the Lake",
      "facStreet1Tx": "7748 Twilight",
      "facStreet2Tx": null,
      "state": "OH",
      "zipCode": "44060",
      "zip4Code": null,
      "county": "LAKE",
      "facLatDecMs": "41.719139",
      "facLongDecMs": "-081.362833"
    },
    {
      "facilityId": 1000012776,
      "epaFacId": "100000058723",
      "facName": "Cimcool Industrial Products LLC",
      "city": "Cincinnati",
      "facStreet1Tx": "3000 Disney Street",
      "facStreet2Tx": null,
      "state": "OH",
      "zipCode": "45209",
      "zip4Code": null,
      "county": "HAMILTON",
      "facLatDecMs": "39.161804",
      "facLongDecMs": "-084.433262"
    },
    {
      "facilityId": 43548,
      "epaFacId": "100000058796",
      "facName": "Defiance Water Treatment Plant",
      "city": "Defiance",
      "facStreet1Tx": "1356 Baltimore Street",
      "facStreet2Tx": null,
      "state": "OH",
      "zipCode": "43512",
      "zip4Code": null,
      "county": "DEFIANCE",
      "facLatDecMs": "41.280556",
      "facLongDecMs": "-084.380000"
    },
    {
      "facilityId": 1000093869,
      "epaFacId": "100000058812",
      "facName": "Ohio Refining Division MPC",
      "city": "Canton",
      "facStreet1Tx": "2408 Gambrinus Ave",
      "facStreet2Tx": "",
      "state": "OH",
      "zipCode": "44706",
      "zip4Code": "2345",
      "county": "STARK",
      "facLatDecMs": "40.772222",
      "facLongDecMs": "-081.418056"
    },
    {
      "facilityId": 1000025256,
      "epaFacId": "100000059027",
      "facName": "City of Norwalk Water Treatment",
      "city": "Norwalk",
      "facStreet1Tx": "201 Woodlawn Ave",
      "facStreet2Tx": null,
      "state": "OH",
      "zipCode": "44857",
      "zip4Code": null,
      "county": "HURON",
      "facLatDecMs": "41.241153",
      "facLongDecMs": "-082.590654"
    },
    {
      "facilityId": 1000071060,
      "epaFacId": "100000059321",
      "facName": "Defiance Water Pollution Control Facility",
      "city": "Defiance",
      "facStreet1Tx": "26273 State Route 281 East",
      "facStreet2Tx": null,
      "state": "OH",
      "zipCode": "43512",
      "zip4Code": null,
      "county": "DEFIANCE",
      "facLatDecMs": "41.290490",
      "facLongDecMs": "-084.317865"
    },
    {
      "facilityId": 1000118766,
      "epaFacId": "100000059349",
      "facName": "The Andersons Maumee Terminal",
      "city": "Maumee",
      "facStreet1Tx": "523 Illinois Ave.",
      "facStreet2Tx": "",
      "state": "OH",
      "zipCode": "43537",
      "zip4Code": "",
      "county": "LUCAS",
      "facLatDecMs": "41.571389",
      "facLongDecMs": "-083.670278"
    },
    {
      "facilityId": 1000115082,
      "epaFacId": "100000059367",
      "facName": "Solvay Specialty Polymers USA, L.L.C.",
      "city": "Marietta",
      "facStreet1Tx": "17005 State Route 7",
      "facStreet2Tx": "",
      "state": "OH",
      "zipCode": "45750",
      "zip4Code": "",
      "county": "WASHINGTON",
      "facLatDecMs": "39.372222",
      "facLongDecMs": "-081.513889"
    },
    {
      "facilityId": 1000104050,
      "epaFacId": "100000059447",
      "facName": "Wilbur-Ellis Company (Pulaski, OH)",
      "city": "Bryan",
      "facStreet1Tx": "17768 County Road H-50",
      "facStreet2Tx": "",
      "state": "OH",
      "zipCode": "43506",
      "zip4Code": "",
      "county": "WILLIAMS",
      "facLatDecMs": "41.534646",
      "facLongDecMs": "-084.482539"
    },
    {
      "facilityId": 1000113648,
      "epaFacId": "100000059599",
      "facName": "Kenton Branch",
      "city": "Kenton",
      "facStreet1Tx": "125 Bales Rd",
      "facStreet2Tx": "",
      "state": "OH",
      "zipCode": "43326",
      "zip4Code": "",
      "county": "HARDIN",
      "facLatDecMs": "40.633123",
      "facLongDecMs": "-083.594509"
    },
    {
      "facilityId": 30067,
      "epaFacId": "100000059606",
      "facName": "Conesville Power Plant",
      "city": "Conesville",
      "facStreet1Tx": "47201 County Road 273",
      "facStreet2Tx": null,
      "state": "OH",
      "zipCode": "43811",
      "zip4Code": null,
      "county": "COSHOCTON",
      "facLatDecMs": "40.185000",
      "facLongDecMs": "-081.879722"
    },
    {
      "facilityId": 1000099182,
      "epaFacId": "100000059759",
      "facName": "Nachurs Alpine Solutions - Marion Plant",
      "city": "Marion",
      "facStreet1Tx": "421 Leader Street",
      "facStreet2Tx": null,
      "state": "OH",
      "zipCode": "43302",
      "zip4Code": null,
      "county": "MARION",
      "facLatDecMs": "40.59529",
      "facLongDecMs": "-83.13962"
    },
    {
      "facilityId": 1000064239,
      "epaFacId": "100000059919",
      "facName": "Spring Grove resource Recovery, Inc.",
      "city": "Cincinnati",
      "facStreet1Tx": "4879 Spring Grove Ave",
      "facStreet2Tx": null,
      "state": "OH",
      "zipCode": "45232",
      "zip4Code": null,
      "county": "HAMILTON",
      "facLatDecMs": "39.169722",
      "facLongDecMs": "-084.508333"
    },
    {
      "facilityId": 1000116945,
      "epaFacId": "100000060024",
      "facName": "Richard Miller Water Treatment Plant",
      "city": "Cincinnati",
      "facStreet1Tx": "5651 Kellogg Avenue",
      "facStreet2Tx": "",
      "state": "OH",
      "zipCode": "45230",
      "zip4Code": "7123",
      "county": "HAMILTON",
      "facLatDecMs": "39.070886",
      "facLongDecMs": "-084.423889"
    },
    {
      "facilityId": 4779,
      "epaFacId": "100000060051",
      "facName": "City of Findlay Water Pollution Control Center",
      "city": "Findlay",
      "facStreet1Tx": "1201 South River Road",
      "facStreet2Tx": null,
      "state": "OH",
      "zipCode": "45840",
      "zip4Code": null,
      "county": "HANCOCK",
      "facLatDecMs": "41.0475",
      "facLongDecMs": "-83.663056"
    },
    {
      "facilityId": 1000012221,
      "epaFacId": "100000060729",
      "facName": "Black River Wastewater Treatment Plant",
      "city": "Lorain",
      "facStreet1Tx": "100 Alabama Avenue",
      "facStreet2Tx": null,
      "state": "OH",
      "zipCode": "44052",
      "zip4Code": null,
      "county": "LORAIN",
      "facLatDecMs": "41.471667",
      "facLongDecMs": "-082.179722"
    },
    {
      "facilityId": 5083,
      "epaFacId": "100000061416",
      "facName": "AC HUMKO - Columbus, OH",
      "city": "Columbus",
      "facStreet1Tx": "525 West First Avenue",
      "facStreet2Tx": null,
      "state": "OH",
      "zipCode": "43215",
      "zip4Code": null,
      "county": "FRANKLIN",
      "facLatDecMs": "39.980833",
      "facLongDecMs": "-83.018611"
    },
    {
      "facilityId": 1000118901,
      "epaFacId": "100000061684",
      "facName": "Airgas Specialty Products Inc., Delphos, OH",
      "city": "Delphos",
      "facStreet1Tx": "11713 B Spencerville-Delphos Road",
      "facStreet2Tx": "",
      "state": "OH",
      "zipCode": "45833",
      "zip4Code": "",
      "county": "VAN WERT",
      "facLatDecMs": "40.8346",
      "facLongDecMs": "-084.3585"
    },
    {
      "facilityId": 1000049598,
      "epaFacId": "100000061817",
      "facName": "Abbott Nutrition Columbus Plant",
      "city": "Columbus",
      "facStreet1Tx": "585 Cleveland Avenue",
      "facStreet2Tx": null,
      "state": "OH",
      "zipCode": "43215",
      "zip4Code": "1755",
      "county": "FRANKLIN",
      "facLatDecMs": "39.976111",
      "facLongDecMs": "-082.990000"
    },
    {
      "facilityId": 1000044957,
      "epaFacId": "100000062656",
      "facName": "General Aluminum Mfg. Co. - Rootstown Division",
      "city": "Ravenna",
      "facStreet1Tx": "5159 South Prospect Street",
      "facStreet2Tx": null,
      "state": "OH",
      "zipCode": "44266",
      "zip4Code": "9031",
      "county": "PORTAGE",
      "facLatDecMs": "41.130959",
      "facLongDecMs": "-081.242153"
    },
    {
      "facilityId": 36331,
      "epaFacId": "100000062709",
      "facName": "Ravenna Aluminum Inc. -- Ravenna Foundry",
      "city": "Ravenna",
      "facStreet1Tx": "706 North Walnut Street",
      "facStreet2Tx": null,
      "state": "OH",
      "zipCode": "44266",
      "zip4Code": null,
      "county": "PORTAGE",
      "facLatDecMs": "41.161278",
      "facLongDecMs": "-081.238889"
    },
    {
      "facilityId": 32266,
      "epaFacId": "100000062861",
      "facName": "Mason Water Treatment Plant",
      "city": "Lebanon",
      "facStreet1Tx": "4988 Hamilton Road",
      "facStreet2Tx": null,
      "state": "OH",
      "zipCode": "45040",
      "zip4Code": "9438",
      "county": "WARREN",
      "facLatDecMs": "39.411111",
      "facLongDecMs": "-084.303833"
    },
    {
      "facilityId": 26075,
      "epaFacId": "100000062978",
      "facName": "Valley Farm Retail Warehouse",
      "city": "Maumee",
      "facStreet1Tx": "800 Ford St.",
      "facStreet2Tx": null,
      "state": "OH",
      "zipCode": "43537",
      "zip4Code": "1898",
      "county": "LUCAS",
      "facLatDecMs": "41.563056",
      "facLongDecMs": "-83.666611"
    },
    {
      "facilityId": 33088,
      "epaFacId": "100000063058",
      "facName": "Dow Chemical, Hanging Rock Ohio Facility",
      "city": "Ironton",
      "facStreet1Tx": "925 County Rd 1A",
      "facStreet2Tx": null,
      "state": "OH",
      "zipCode": "45638",
      "zip4Code": "8687",
      "county": "LAWRENCE",
      "facLatDecMs": "38.575000",
      "facLongDecMs": "-082.791667"
    },
    {
      "facilityId": 1000078821,
      "epaFacId": "100000063183",
      "facName": "Harrod Branch",
      "city": "Harrod",
      "facStreet1Tx": "226 East Third St.",
      "facStreet2Tx": null,
      "state": "OH",
      "zipCode": "45850",
      "zip4Code": "0169",
      "county": "ALLEN",
      "facLatDecMs": "40.708889",
      "facLongDecMs": "-083.917500"
    },
    {
      "facilityId": 1000101402,
      "epaFacId": "100000063708",
      "facName": "Green Springs Rail Terminal",
      "city": "Green Springs",
      "facStreet1Tx": "8500 N. Township Road 75",
      "facStreet2Tx": "",
      "state": "OH",
      "zipCode": "44836",
      "zip4Code": "",
      "county": "SENECA",
      "facLatDecMs": "41.248056",
      "facLongDecMs": "-83.112778"
    },
    {
      "facilityId": 1000114628,
      "epaFacId": "100000064896",
      "facName": "Ada Branch",
      "city": "Ada",
      "facStreet1Tx": "3303 County Rd 55",
      "facStreet2Tx": "",
      "state": "OH",
      "zipCode": "45810",
      "zip4Code": "",
      "county": "HARDIN",
      "facLatDecMs": "40.775000",
      "facLongDecMs": "-083.808333"
    },
    {
      "facilityId": 35094,
      "epaFacId": "100000065289",
      "facName": "City of Findlay Water Treatment Plant",
      "city": "Findlay",
      "facStreet1Tx": "110 N. Blanchard St.",
      "facStreet2Tx": null,
      "state": "OH",
      "zipCode": "45840",
      "zip4Code": null,
      "county": "HANCOCK",
      "facLatDecMs": "41.041667",
      "facLongDecMs": "-083.642778"
    },
    {
      "facilityId": 1000114395,
      "epaFacId": "100000065314",
      "facName": "Charles M. Bolton Plant",
      "city": "Fairfield",
      "facStreet1Tx": "6800 East River Road",
      "facStreet2Tx": "",
      "state": "OH",
      "zipCode": "45014",
      "zip4Code": "5610",
      "county": "BUTLER",
      "facLatDecMs": "39.315000",
      "facLongDecMs": "-084.608611"
    },
    {
      "facilityId": 1000113571,
      "epaFacId": "100000065877",
      "facName": "Systech Environmental Corporation",
      "city": "Paulding",
      "facStreet1Tx": "11397 Road 176",
      "facStreet2Tx": "",
      "state": "OH",
      "zipCode": "45879",
      "zip4Code": "",
      "county": "PAULDING",
      "facLatDecMs": "41.181164",
      "facLongDecMs": "-084.621971"
    },
    {
      "facilityId": 1000087464,
      "epaFacId": "100000066028",
      "facName": "Morral Companies -Main Facility",
      "city": "Morral",
      "facStreet1Tx": "132 Postle Street",
      "facStreet2Tx": null,
      "state": "OH",
      "zipCode": "43337",
      "zip4Code": null,
      "county": "MARION",
      "facLatDecMs": "40.684194",
      "facLongDecMs": "-083.211611"
    },
    {
      "facilityId": 1000112622,
      "epaFacId": "100000066073",
      "facName": "Eveready Products Corporation",
      "city": "Cleveland",
      "facStreet1Tx": "1101 Belt Line Street",
      "facStreet2Tx": "",
      "state": "OH",
      "zipCode": "44109",
      "zip4Code": "2896",
      "county": "CUYAHOGA",
      "facLatDecMs": "41.452778",
      "facLongDecMs": "-081.686389"
    },
    {
      "facilityId": 21201,
      "epaFacId": "100000066144",
      "facName": "Johns Manville Corporation, Defiance, OH, 08",
      "city": "Defiance",
      "facStreet1Tx": "925 Carpenter Road",
      "facStreet2Tx": null,
      "state": "OH",
      "zipCode": "43512",
      "zip4Code": "7218",
      "county": "DEFIANCE",
      "facLatDecMs": "41.301806",
      "facLongDecMs": "-84.340278"
    },
    {
      "facilityId": 38623,
      "epaFacId": "100000066297",
      "facName": "Arnco - Cleveland",
      "city": "Cleveland",
      "facStreet1Tx": "3400 Independence Rd.",
      "facStreet2Tx": null,
      "state": "OH",
      "zipCode": "44105",
      "zip4Code": "1048",
      "county": "CUYAHOGA",
      "facLatDecMs": "41.464194",
      "facLongDecMs": "-081.666111"
    },
    {
      "facilityId": 10799,
      "epaFacId": "100000066368",
      "facName": "Jackson Pike Wastewater Treatment Plant",
      "city": "Columbus",
      "facStreet1Tx": "2104 Jackson Pike",
      "facStreet2Tx": null,
      "state": "OH",
      "zipCode": "43223",
      "zip4Code": null,
      "county": "FRANKLIN",
      "facLatDecMs": "39.908333",
      "facLongDecMs": "-83.016722"
    },
    {
      "facilityId": 1000114478,
      "epaFacId": "100000066858",
      "facName": "United Equity, Inc. - Delphos Fertilizer Plant",
      "city": "Delphos",
      "facStreet1Tx": "200 East Thirteenth Street",
      "facStreet2Tx": "",
      "state": "OH",
      "zipCode": "45833",
      "zip4Code": "",
      "county": "ALLEN",
      "facLatDecMs": "40.855212",
      "facLongDecMs": "-084.337420"
    },
    {
      "facilityId": 1000045824,
      "epaFacId": "100000066894",
      "facName": "TIER Environmental, LLC",
      "city": "Bedford",
      "facStreet1Tx": "7013 Krick Road",
      "facStreet2Tx": null,
      "state": "OH",
      "zipCode": "44146",
      "zip4Code": null,
      "county": "CUYAHOGA",
      "facLatDecMs": "41.373056",
      "facLongDecMs": "-081.530556"
    },
    {
      "facilityId": 1000094266,
      "epaFacId": "100000067223",
      "facName": "Coshocton Water Treatment Plant",
      "city": "Coshocton",
      "facStreet1Tx": "118 Bridge Street",
      "facStreet2Tx": null,
      "state": "OH",
      "zipCode": "43812",
      "zip4Code": "1127",
      "county": "COSHOCTON",
      "facLatDecMs": "40.270000",
      "facLongDecMs": "-081.871667"
    },
    {
      "facilityId": 1000111362,
      "epaFacId": "100000068099",
      "facName": "Heritage Thermal Services",
      "city": "East Liverpool",
      "facStreet1Tx": "1250 St. George Street",
      "facStreet2Tx": "",
      "state": "OH",
      "zipCode": "43920",
      "zip4Code": "5915",
      "county": "COLUMBIANA",
      "facLatDecMs": "40.632369",
      "facLongDecMs": "-80.544433"
    },
    {
      "facilityId": 1000114304,
      "epaFacId": "100000068277",
      "facName": "Pitsburg Ag Center",
      "city": "Pitsburg",
      "facStreet1Tx": "100 South Street",
      "facStreet2Tx": "",
      "state": "OH",
      "zipCode": "45358",
      "zip4Code": "0242",
      "county": "DARKE",
      "facLatDecMs": "39.98865",
      "facLongDecMs": "-084.485111"
    },
    {
      "facilityId": 1000114059,
      "epaFacId": "100000068357",
      "facName": "Gerald Grain Center Inc.",
      "city": "Napoleon",
      "facStreet1Tx": "20758 US Highway 6",
      "facStreet2Tx": "",
      "state": "OH",
      "zipCode": "43545",
      "zip4Code": "",
      "county": "HENRY",
      "facLatDecMs": "41.440127",
      "facLongDecMs": "-084.261259"
    },
    {
      "facilityId": 1000027599,
      "epaFacId": "100000068446",
      "facName": "Sedalia, OH Satellite",
      "city": "Sedalia",
      "facStreet1Tx": "505 State Route 323 SW",
      "facStreet2Tx": null,
      "state": "OH",
      "zipCode": "43151",
      "zip4Code": null,
      "county": "MADISON",
      "facLatDecMs": "39.733169",
      "facLongDecMs": "-083.486242"
    },
    {
      "facilityId": 1000111525,
      "epaFacId": "100000068712",
      "facName": "Middle Point, OH Satellite",
      "city": "Middle Point",
      "facStreet1Tx": "402 West Veach Road",
      "facStreet2Tx": "",
      "state": "OH",
      "zipCode": "45863",
      "zip4Code": "",
      "county": "VAN WERT",
      "facLatDecMs": "40.858487",
      "facLongDecMs": "-084.449538"
    },
    {
      "facilityId": 34841,
      "epaFacId": "100000068981",
      "facName": "Covington Ag Center",
      "city": "Covington",
      "facStreet1Tx": "550 East Broadway",
      "facStreet2Tx": null,
      "state": "OH",
      "zipCode": "45318",
      "zip4Code": "0065",
      "county": "MIAMI",
      "facLatDecMs": "40.123890",
      "facLongDecMs": "-084.344719"
    },
    {
      "facilityId": 5504,
      "epaFacId": "100000069141",
      "facName": "Terra International, Inc. - Latty, Ohio",
      "city": "Latty",
      "facStreet1Tx": "7506 St. Rt. 127",
      "facStreet2Tx": null,
      "state": "OH",
      "zipCode": "45855",
      "zip4Code": "0068",
      "county": "PAULDING",
      "facLatDecMs": "41.084444",
      "facLongDecMs": "-84.571944"
    },
    {
      "facilityId": 1000115751,
      "epaFacId": "100000069169",
      "facName": "Jewell Grain - Mark Center",
      "city": "Mark Center",
      "facStreet1Tx": "9585 Marion Street",
      "facStreet2Tx": "",
      "state": "OH",
      "zipCode": "43536",
      "zip4Code": "",
      "county": "DEFIANCE",
      "facLatDecMs": "41.289444",
      "facLongDecMs": "-084.632500"
    },
    {
      "facilityId": 1000112934,
      "epaFacId": "100000069258",
      "facName": "Sycamore Branch",
      "city": "Sycamore",
      "facStreet1Tx": "2477 TH 31",
      "facStreet2Tx": "",
      "state": "OH",
      "zipCode": "44882",
      "zip4Code": "2477",
      "county": "WYANDOT",
      "facLatDecMs": "40.957222",
      "facLongDecMs": "-083.193611"
    },
    {
      "facilityId": 1000114549,
      "epaFacId": "100000069481",
      "facName": "Altanta Agronomy",
      "city": "New Holland",
      "facStreet1Tx": "25915 State Route 207",
      "facStreet2Tx": "",
      "state": "OH",
      "zipCode": "43145",
      "zip4Code": "",
      "county": "PICKAWAY",
      "facLatDecMs": "39.561996",
      "facLongDecMs": "-083.193756"
    },
    {
      "facilityId": 1000117823,
      "epaFacId": "100000069784",
      "facName": "Arlington Agronomy",
      "city": "Arlington",
      "facStreet1Tx": "18491 CR 182",
      "facStreet2Tx": "",
      "state": "OH",
      "zipCode": "45814",
      "zip4Code": "",
      "county": "HANCOCK",
      "facLatDecMs": "40.899417",
      "facLongDecMs": "-083.613817"
    },
    {
      "facilityId": 1000103373,
      "epaFacId": "100000069908",
      "facName": "Detrex Chemicals",
      "city": "Ashtabula",
      "facStreet1Tx": "1100 State Road",
      "facStreet2Tx": "",
      "state": "OH",
      "zipCode": "44004",
      "zip4Code": "",
      "county": "ASHTABULA",
      "facLatDecMs": "41.896111",
      "facLongDecMs": "-080.770278"
    },
    {
      "facilityId": 1000007886,
      "epaFacId": "100000069926",
      "facName": "Trupointe, Roxanna",
      "city": "Waynesville",
      "facStreet1Tx": "1960 Roxanna New Burlington Road",
      "facStreet2Tx": null,
      "state": "OH",
      "zipCode": "45068",
      "zip4Code": null,
      "county": "GREENE",
      "facLatDecMs": "39.582778",
      "facLongDecMs": "-084.015833"
    },
    {
      "facilityId": 1000007862,
      "epaFacId": "100000069953",
      "facName": "Trupointe, Catawba",
      "city": "Mechanicsburg",
      "facStreet1Tx": "5361 Virts Road",
      "facStreet2Tx": null,
      "state": "OH",
      "zipCode": "43044",
      "zip4Code": "0141",
      "county": "CHAMPAIGN",
      "facLatDecMs": "40.028889",
      "facLongDecMs": "-083.654444"
    },
    {
      "facilityId": 1000118997,
      "epaFacId": "100000069971",
      "facName": "Versailles, OH",
      "city": "Versailles",
      "facStreet1Tx": "9368 McGreevey Road",
      "facStreet2Tx": "",
      "state": "OH",
      "zipCode": "45380",
      "zip4Code": "",
      "county": "DARKE",
      "facLatDecMs": "40.226765",
      "facLongDecMs": "-084.460682"
    },
    {
      "facilityId": 16645,
      "epaFacId": "100000069999",
      "facName": "Terra International, Inc. (Verona)",
      "city": "Verona",
      "facStreet1Tx": "141 S. Commerce St,",
      "facStreet2Tx": null,
      "state": "OH",
      "zipCode": "45378",
      "zip4Code": "0682",
      "county": "PREBLE",
      "facLatDecMs": "39.901944",
      "facLongDecMs": "-84.488611"
    },
    {
      "facilityId": 1000097962,
      "epaFacId": "100000070004",
      "facName": "Sunrise Co-op, Inc. - Norwalk, Ohio",
      "city": "Norwalk",
      "facStreet1Tx": "3130 Greenwich-Milan Townline Road",
      "facStreet2Tx": "",
      "state": "OH",
      "zipCode": "44857",
      "zip4Code": "",
      "county": "HURON",
      "facLatDecMs": "41.224692",
      "facLongDecMs": "-082.537972"
    },
    {
      "facilityId": 24322,
      "epaFacId": "100000070077",
      "facName": "Auglaize Farmers Cooperative, Inc. - Moulton",
      "city": "Wapakoneta",
      "facStreet1Tx": "14021 Bay Road",
      "facStreet2Tx": null,
      "state": "OH",
      "zipCode": "45895",
      "zip4Code": null,
      "county": "AUGLAIZE",
      "facLatDecMs": "40.555",
      "facLongDecMs": "-84.279444"
    },
    {
      "facilityId": 5815,
      "epaFacId": "100000070601",
      "facName": "City of Dover Water Treatment Plant",
      "city": "Dover",
      "facStreet1Tx": "390 West 17th Street",
      "facStreet2Tx": null,
      "state": "OH",
      "zipCode": "44622",
      "zip4Code": null,
      "county": "TUSCARAWAS",
      "facLatDecMs": "40.535833",
      "facLongDecMs": "-81.493333"
    },
    {
      "facilityId": 1000001082,
      "epaFacId": "100000071147",
      "facName": "Orrville Department of Public Utilities",
      "city": "Orrville",
      "facStreet1Tx": "300 Mineral Springs Street",
      "facStreet2Tx": null,
      "state": "OH",
      "zipCode": "44667",
      "zip4Code": null,
      "county": "WAYNE",
      "facLatDecMs": "40.849722",
      "facLongDecMs": "-081.766556"
    },
    {
      "facilityId": 1000046402,
      "epaFacId": "100000071218",
      "facName": "City of Bucyrus, Ohio - Water Department",
      "city": "Bucyrus",
      "facStreet1Tx": "407 Water Street",
      "facStreet2Tx": null,
      "state": "OH",
      "zipCode": "44820",
      "zip4Code": null,
      "county": "CRAWFORD",
      "facLatDecMs": "40.812778",
      "facLongDecMs": "-082.969444"
    },
    {
      "facilityId": 1000101408,
      "epaFacId": "100000071389",
      "facName": "Arcadia Agronomy",
      "city": "Arcadia",
      "facStreet1Tx": "3725 TR 247",
      "facStreet2Tx": "",
      "state": "OH",
      "zipCode": "44804",
      "zip4Code": "",
      "county": "HANCOCK",
      "facLatDecMs": "41.112273",
      "facLongDecMs": "-083.544705"
    },
    {
      "facilityId": 1000114129,
      "epaFacId": "100000071995",
      "facName": "Givaudan Flavors Corporation -Carthage",
      "city": "Cincinnati",
      "facStreet1Tx": "110 E. 70th Street",
      "facStreet2Tx": "",
      "state": "OH",
      "zipCode": "45216",
      "zip4Code": "",
      "county": "HAMILTON",
      "facLatDecMs": "39.192500",
      "facLongDecMs": "-084.480000"
    },
    {
      "facilityId": 1000101585,
      "epaFacId": "100000072155",
      "facName": "Linde  - Twinsburg",
      "city": "Twinsburg",
      "facStreet1Tx": "2045 E. Aurora Road",
      "facStreet2Tx": null,
      "state": "OH",
      "zipCode": "44087",
      "zip4Code": null,
      "county": "SUMMIT",
      "facLatDecMs": "41.312811",
      "facLongDecMs": "-081.466090"
    },
    {
      "facilityId": 1000102243,
      "epaFacId": "100000072431",
      "facName": "Franklin International",
      "city": "Columbus",
      "facStreet1Tx": "2020 Bruck Street",
      "facStreet2Tx": "",
      "state": "OH",
      "zipCode": "43207",
      "zip4Code": "2382",
      "county": "FRANKLIN",
      "facLatDecMs": "39.92241",
      "facLongDecMs": "-82.98971"
    },
    {
      "facilityId": 50340,
      "epaFacId": "100000073065",
      "facName": "ERAMET MARIETTA INC",
      "city": "MARIETTA",
      "facStreet1Tx": "16705 Rt 7 South, Riverview",
      "facStreet2Tx": null,
      "state": "OH",
      "zipCode": "45750",
      "zip4Code": "0299",
      "county": "WASHINGTON",
      "facLatDecMs": "39.372906",
      "facLongDecMs": "-081.523579"
    },
    {
      "facilityId": 1000115761,
      "epaFacId": "100000073298",
      "facName": "PCS Nitrogen Ohio, L.P.",
      "city": "Lima",
      "facStreet1Tx": "2200 Fort Amanda Road",
      "facStreet2Tx": "Fort Amanda & Adgate Roads",
      "state": "OH",
      "zipCode": "45804",
      "zip4Code": "",
      "county": "ALLEN",
      "facLatDecMs": "40.712778",
      "facLongDecMs": "-084.133333"
    },
    {
      "facilityId": 1000092728,
      "epaFacId": "100000073412",
      "facName": "INEOS Nitriles USA LLC",
      "city": "Lima",
      "facStreet1Tx": "1900 Fort Amanda Road",
      "facStreet2Tx": "Fort Amanda & Adgate Roads",
      "state": "OH",
      "zipCode": "45804",
      "zip4Code": null,
      "county": "ALLEN",
      "facLatDecMs": "40.714167",
      "facLongDecMs": "-084.132222"
    },
    {
      "facilityId": 1000104318,
      "epaFacId": "100000073635",
      "facName": "J.H. Routh Packing Co.",
      "city": "Sandusky",
      "facStreet1Tx": "4413 West Bogart Road",
      "facStreet2Tx": "",
      "state": "OH",
      "zipCode": "44870",
      "zip4Code": "",
      "county": "ERIE",
      "facLatDecMs": "41.399167",
      "facLongDecMs": "-082.759722"
    },
    {
      "facilityId": 1000108827,
      "epaFacId": "100000073751",
      "facName": "INEOS ABS (USA) LLC Addyston, Ohio Plant",
      "city": "ADDYSTON",
      "facStreet1Tx": "356 THREE RIVERS PARKWAY",
      "facStreet2Tx": "",
      "state": "OH",
      "zipCode": "45001",
      "zip4Code": "0039",
      "county": "HAMILTON",
      "facLatDecMs": "39.134805",
      "facLongDecMs": "-084.712278"
    },
    {
      "facilityId": 1000113506,
      "epaFacId": "100000073993",
      "facName": "PPG Industries Ohio, Inc.",
      "city": "Delaware",
      "facStreet1Tx": "760 Pittsburgh Drive",
      "facStreet2Tx": "",
      "state": "OH",
      "zipCode": "43015",
      "zip4Code": "3811",
      "county": "DELAWARE",
      "facLatDecMs": "40.283889",
      "facLongDecMs": "-083.098611"
    },
    {
      "facilityId": 1000110828,
      "epaFacId": "100000074607",
      "facName": "Bradner Branch",
      "city": "Bradner",
      "facStreet1Tx": "2320 Bowling Green Rd.",
      "facStreet2Tx": "",
      "state": "OH",
      "zipCode": "43406",
      "zip4Code": "",
      "county": "WOOD",
      "facLatDecMs": "41.345000",
      "facLongDecMs": "-083.442500"
    },
    {
      "facilityId": 1000031619,
      "epaFacId": "100000075134",
      "facName": "Chemtron Corporation",
      "city": "Avon",
      "facStreet1Tx": "35850 Schneider Court",
      "facStreet2Tx": null,
      "state": "OH",
      "zipCode": "44011",
      "zip4Code": null,
      "county": "LORAIN",
      "facLatDecMs": "41.471194",
      "facLongDecMs": "-082.015917"
    },
    {
      "facilityId": 1000113758,
      "epaFacId": "100000075189",
      "facName": "Pilot Chemical Company of Ohio Lockland Plant",
      "city": "LOCKLAND",
      "facStreet1Tx": "606 SHEPHERD DRIVE",
      "facStreet2Tx": "",
      "state": "OH",
      "zipCode": "45215",
      "zip4Code": "2145",
      "county": "HAMILTON",
      "facLatDecMs": "39.236111",
      "facLongDecMs": "-084.461667"
    },
    {
      "facilityId": 5867,
      "epaFacId": "100000075205",
      "facName": "Terra International, Inc. - Dola, Ohio",
      "city": "Dola",
      "facStreet1Tx": "2488 Wayne St.",
      "facStreet2Tx": null,
      "state": "OH",
      "zipCode": "45835",
      "zip4Code": "0100",
      "county": "HARDIN",
      "facLatDecMs": "40.784722",
      "facLongDecMs": "-83.690556"
    },
    {
      "facilityId": 1000100163,
      "epaFacId": "100000075376",
      "facName": "Gerald Grain Center - Wauseon Agronomy",
      "city": "Wauseon",
      "facStreet1Tx": "16134 County Road B",
      "facStreet2Tx": null,
      "state": "OH",
      "zipCode": "43567",
      "zip4Code": null,
      "county": "FULTON",
      "facLatDecMs": "41.500889",
      "facLongDecMs": "-84.176167"
    },
    {
      "facilityId": 13015,
      "epaFacId": "100000076053",
      "facName": "Matheson Gas Products - Twinsburg",
      "city": "Twinsburg",
      "facStreet1Tx": "1650 Enterprise Parkway",
      "facStreet2Tx": null,
      "state": "OH",
      "zipCode": "44087",
      "zip4Code": null,
      "county": "SUMMIT",
      "facLatDecMs": "41.291111",
      "facLongDecMs": "81.461667"
    },
    {
      "facilityId": 1000118967,
      "epaFacId": "100000076133",
      "facName": "Ashtabula Complex Plant 1",
      "city": "Ashtabula",
      "facStreet1Tx": "2900 Middle Road",
      "facStreet2Tx": "",
      "state": "OH",
      "zipCode": "44004",
      "zip4Code": "0000",
      "county": "ASHTABULA",
      "facLatDecMs": "41.895000",
      "facLongDecMs": "-080.750000"
    },
    {
      "facilityId": 1000043442,
      "epaFacId": "100000076277",
      "facName": "City of Westerville Water Plant",
      "city": "Westerville",
      "facStreet1Tx": "312 West Main St.",
      "facStreet2Tx": null,
      "state": "OH",
      "zipCode": "43081",
      "zip4Code": null,
      "county": "FRANKLIN",
      "facLatDecMs": "40.126111",
      "facLongDecMs": "-082.944444"
    },
    {
      "facilityId": 1000118953,
      "epaFacId": "100000076339",
      "facName": "Ashtabula Complex Plant 2",
      "city": "Ashtabula",
      "facStreet1Tx": "2426 Middle Road",
      "facStreet2Tx": "",
      "state": "OH",
      "zipCode": "44004",
      "zip4Code": "",
      "county": "ASHTABULA",
      "facLatDecMs": "41.891667",
      "facLongDecMs": "-080.775000"
    },
    {
      "facilityId": 1000105625,
      "epaFacId": "100000076883",
      "facName": "Nestle Professional, L.J. Minor Factory",
      "city": "Cleveland",
      "facStreet1Tx": "2621 W. 25th Street",
      "facStreet2Tx": "",
      "state": "OH",
      "zipCode": "44113",
      "zip4Code": "",
      "county": "CUYAHOGA",
      "facLatDecMs": "41.475461",
      "facLongDecMs": "-81.699081"
    },
    {
      "facilityId": 1000107693,
      "epaFacId": "100000076936",
      "facName": "Huntsman Advanced Materials Americas LLC",
      "city": "Ashtabula",
      "facStreet1Tx": "725 State Road",
      "facStreet2Tx": "",
      "state": "OH",
      "zipCode": "44004",
      "zip4Code": "3934",
      "county": "ASHTABULA",
      "facLatDecMs": "41.899170",
      "facLongDecMs": "-080.773380"
    },
    {
      "facilityId": 50488,
      "epaFacId": "100000077677",
      "facName": "Linde Gas, LLC - Maumee",
      "city": "Maumee",
      "facStreet1Tx": "6421 Monclova Road",
      "facStreet2Tx": null,
      "state": "OH",
      "zipCode": "43537",
      "zip4Code": null,
      "county": "LUCAS",
      "facLatDecMs": "41.557889",
      "facLongDecMs": "-083.692194"
    },
    {
      "facilityId": 1000100291,
      "epaFacId": "100000078266",
      "facName": "The Elco Corporation",
      "city": "Cleveland",
      "facStreet1Tx": "1000 Belt Line St",
      "facStreet2Tx": null,
      "state": "OH",
      "zipCode": "44109",
      "zip4Code": "2848",
      "county": "CUYAHOGA",
      "facLatDecMs": "41.453721",
      "facLongDecMs": "-81.686470"
    },
    {
      "facilityId": 6195,
      "epaFacId": "100000078417",
      "facName": "Newark Water Treatment Plant",
      "city": "Newark",
      "facStreet1Tx": "164 WaterWorks Road",
      "facStreet2Tx": null,
      "state": "OH",
      "zipCode": "43055",
      "zip4Code": null,
      "county": "LICKING",
      "facLatDecMs": "40.087833",
      "facLongDecMs": "-82.412528"
    },
    {
      "facilityId": 1000090943,
      "epaFacId": "100000078854",
      "facName": "Borden Dairy",
      "city": "Cleveland",
      "facStreet1Tx": "3068 W. 106th St.",
      "facStreet2Tx": null,
      "state": "OH",
      "zipCode": "44111",
      "zip4Code": "1801",
      "county": "CUYAHOGA",
      "facLatDecMs": "41.468920",
      "facLongDecMs": "-81.761242"
    },
    {
      "facilityId": 1000007896,
      "epaFacId": "100000078863",
      "facName": "BRYAN MUNICIPAL UTILITIES WATER TREATMENT PLANT",
      "city": "BRYAN",
      "facStreet1Tx": "EMMETT AND MAPLE STREETS",
      "facStreet2Tx": null,
      "state": "OH",
      "zipCode": "43506",
      "zip4Code": null,
      "county": "WILLIAMS",
      "facLatDecMs": "41.472222",
      "facLongDecMs": "-084.543056"
    },
    {
      "facilityId": 1000094271,
      "epaFacId": "100000078934",
      "facName": "PPG Industries Ohio,-Circleville, Ohio Plant",
      "city": "Circleville",
      "facStreet1Tx": "559 Pittsburgh Road",
      "facStreet2Tx": "",
      "state": "OH",
      "zipCode": "43113",
      "zip4Code": "",
      "county": "PICKAWAY",
      "facLatDecMs": "39.555139",
      "facLongDecMs": "-82.944028"
    },
    {
      "facilityId": 23645,
      "epaFacId": "100000079933",
      "facName": "Kraft Foods North America, Inc.",
      "city": "Farmdale",
      "facStreet1Tx": "5915 Burnett Road East",
      "facStreet2Tx": "PO Box 100",
      "state": "OH",
      "zipCode": "44417",
      "zip4Code": "0100",
      "county": "TRUMBULL",
      "facLatDecMs": "41.438056",
      "facLongDecMs": "-80.607222"
    },
    {
      "facilityId": 1000093919,
      "epaFacId": "100000081109",
      "facName": "City of Sidney, Ohio - Water Treatment Plant",
      "city": "Sidney",
      "facStreet1Tx": "880 East Court Street",
      "facStreet2Tx": null,
      "state": "OH",
      "zipCode": "45365",
      "zip4Code": "2816",
      "county": "SHELBY",
      "facLatDecMs": "40.285556",
      "facLongDecMs": "-084.141667"
    },
    {
      "facilityId": 1000110875,
      "epaFacId": "100000081662",
      "facName": "Payne, OH",
      "city": "Payne",
      "facStreet1Tx": "225 North Laura Street",
      "facStreet2Tx": "",
      "state": "OH",
      "zipCode": "45880",
      "zip4Code": "",
      "county": "PAULDING",
      "facLatDecMs": "41.080833",
      "facLongDecMs": "-084.722500"
    },
    {
      "facilityId": 11058,
      "epaFacId": "100000081804",
      "facName": "Bucyrus Blades, Inc.",
      "city": "Bucyrus",
      "facStreet1Tx": "260 East Beal Avenue",
      "facStreet2Tx": null,
      "state": "OH",
      "zipCode": "44820",
      "zip4Code": "0628",
      "county": "CRAWFORD",
      "facLatDecMs": "40.791083",
      "facLongDecMs": "-82.976639"
    },
    {
      "facilityId": 1000111542,
      "epaFacId": "100000082616",
      "facName": "Elgin, OH",
      "city": "Elgin",
      "facStreet1Tx": "18110 Sands Road",
      "facStreet2Tx": "",
      "state": "OH",
      "zipCode": "45894",
      "zip4Code": "",
      "county": "VAN WERT",
      "facLatDecMs": "40.741712",
      "facLongDecMs": "-084.476567"
    },
    {
      "facilityId": 1000083732,
      "epaFacId": "100000082876",
      "facName": "Oregon Wastewater Treatment Plant",
      "city": "Oregon",
      "facStreet1Tx": "4657 Dupont Road",
      "facStreet2Tx": null,
      "state": "OH",
      "zipCode": "43616",
      "zip4Code": null,
      "county": "LUCAS",
      "facLatDecMs": "41.683706",
      "facLongDecMs": "-083.435905"
    },
    {
      "facilityId": 1000096488,
      "epaFacId": "100000083321",
      "facName": "Water Treatment Plant",
      "city": "Mentor",
      "facStreet1Tx": "9565 Headlands Road",
      "facStreet2Tx": "",
      "state": "OH",
      "zipCode": "44060",
      "zip4Code": "",
      "county": "LAKE",
      "facLatDecMs": "41.753217",
      "facLongDecMs": "-81.295490"
    },
    {
      "facilityId": 1000112468,
      "epaFacId": "100000084062",
      "facName": "City of Oregon Water Plant",
      "city": "Oregon",
      "facStreet1Tx": "935 North Curtice Rd., N.",
      "facStreet2Tx": "",
      "state": "OH",
      "zipCode": "43618",
      "zip4Code": "",
      "county": "LUCAS",
      "facLatDecMs": "41.668889",
      "facLongDecMs": "-083.371943"
    },
    {
      "facilityId": 1000091285,
      "epaFacId": "100000084295",
      "facName": "Conagra Foods Packaged Foods, LLC",
      "city": "Troy",
      "facStreet1Tx": "801 Dye Mill Rd.",
      "facStreet2Tx": "",
      "state": "OH",
      "zipCode": "45373",
      "zip4Code": "",
      "county": "MIAMI",
      "facLatDecMs": "40.026284",
      "facLongDecMs": "-084.187717"
    },
    {
      "facilityId": 1000097953,
      "epaFacId": "100000084384",
      "facName": "Pixelle Specialty Solutions LLC - Chillicothe",
      "city": "Chillicothe",
      "facStreet1Tx": "Eighth & Hickory Streets",
      "facStreet2Tx": null,
      "state": "OH",
      "zipCode": "45601",
      "zip4Code": "0997",
      "county": "ROSS",
      "facLatDecMs": "39.326557",
      "facLongDecMs": "-082.974419"
    },
    {
      "facilityId": 1000108452,
      "epaFacId": "100000084516",
      "facName": "Honda Dev and Mfg of America, Anna Engine Plant",
      "city": "Anna",
      "facStreet1Tx": "12500 Meranda Road",
      "facStreet2Tx": "",
      "state": "OH",
      "zipCode": "45302",
      "zip4Code": "9699",
      "county": "SHELBY",
      "facLatDecMs": "40.372712",
      "facLongDecMs": "-084.190020"
    },
    {
      "facilityId": 1000100283,
      "epaFacId": "100000085169",
      "facName": "Adient Greenfield",
      "city": "Greenfield",
      "facStreet1Tx": "1147 N. Washington Street",
      "facStreet2Tx": "",
      "state": "OH",
      "zipCode": "45123",
      "zip4Code": "",
      "county": "HIGHLAND",
      "facLatDecMs": "39.355556",
      "facLongDecMs": "-83.388889"
    },
    {
      "facilityId": 1000041294,
      "epaFacId": "100000087719",
      "facName": "OMNOVA Solutions Inc. - Akron Plant",
      "city": "Akron",
      "facStreet1Tx": "1380 Tech Way Drive",
      "facStreet2Tx": null,
      "state": "OH",
      "zipCode": "44306",
      "zip4Code": null,
      "county": "SUMMIT",
      "facLatDecMs": "41.048531",
      "facLongDecMs": "-081.474754"
    },
    {
      "facilityId": 1000041510,
      "epaFacId": "100000088344",
      "facName": "Portsmouth Gaseous Diffusion Plant",
      "city": "Piketon",
      "facStreet1Tx": "3930 U.S. Rt 23",
      "facStreet2Tx": null,
      "state": "OH",
      "zipCode": "45661",
      "zip4Code": null,
      "county": "PIKE",
      "facLatDecMs": "39.013332",
      "facLongDecMs": "-082.998055"
    },
    {
      "facilityId": 1000102444,
      "epaFacId": "100000088406",
      "facName": "Springdale Ice Cream and Beverage",
      "city": "Cincinnati",
      "facStreet1Tx": "11801 Chesterdale Road",
      "facStreet2Tx": "",
      "state": "OH",
      "zipCode": "45246",
      "zip4Code": "3473",
      "county": "HAMILTON",
      "facLatDecMs": "39.291987",
      "facLongDecMs": "-084.450633"
    },
    {
      "facilityId": 1000105605,
      "epaFacId": "100000088683",
      "facName": "Ohio Refining Company LLC",
      "city": "Oregon",
      "facStreet1Tx": "4001 Cedar Point Road",
      "facStreet2Tx": "",
      "state": "OH",
      "zipCode": "43616",
      "zip4Code": "1310",
      "county": "LUCAS",
      "facLatDecMs": "41.678480",
      "facLongDecMs": "-083.452852"
    },
    {
      "facilityId": 1000116102,
      "epaFacId": "100000088727",
      "facName": "United Dairy Farmers Production Facility",
      "city": "Norwood",
      "facStreet1Tx": "3955 Montgomery Road",
      "facStreet2Tx": "",
      "state": "OH",
      "zipCode": "45212",
      "zip4Code": "",
      "county": "HAMILTON",
      "facLatDecMs": "39.152222",
      "facLongDecMs": "-084.463056"
    },
    {
      "facilityId": 1000022503,
      "epaFacId": "100000089138",
      "facName": "Big Island Water Works",
      "city": "Sandusky",
      "facStreet1Tx": "2425 First Street",
      "facStreet2Tx": null,
      "state": "OH",
      "zipCode": "44870",
      "zip4Code": null,
      "county": "ERIE",
      "facLatDecMs": "41.450556",
      "facLongDecMs": "-082.668889"
    },
    {
      "facilityId": 7227,
      "epaFacId": "100000089753",
      "facName": "LANCASTER WATER POLLUTION CONTROL",
      "city": "LANCASTER",
      "facStreet1Tx": "800 LAWRENCE ST.",
      "facStreet2Tx": null,
      "state": "OH",
      "zipCode": "43130",
      "zip4Code": null,
      "county": "FAIRFIELD",
      "facLatDecMs": "39.71",
      "facLongDecMs": "-82.59"
    },
    {
      "facilityId": 1000101979,
      "epaFacId": "100000089904",
      "facName": "Land O'Lakes, Kent",
      "city": "Kent",
      "facStreet1Tx": "2001 Mogadorore",
      "facStreet2Tx": "",
      "state": "OH",
      "zipCode": "44240",
      "zip4Code": "",
      "county": "PORTAGE",
      "facLatDecMs": "41.132222",
      "facLongDecMs": "-081.372222"
    },
    {
      "facilityId": 1000106136,
      "epaFacId": "100000090126",
      "facName": "Tamarack Farms Dairy",
      "city": "Newark",
      "facStreet1Tx": "1701 Tamarack Drive",
      "facStreet2Tx": "",
      "state": "OH",
      "zipCode": "43055",
      "zip4Code": "",
      "county": "LICKING",
      "facLatDecMs": "40.038889",
      "facLongDecMs": "-082.460833"
    },
    {
      "facilityId": 19412,
      "epaFacId": "100000090947",
      "facName": "Praxair Distribution - North Royalton, OH",
      "city": "North Royalton",
      "facStreet1Tx": "14788 York Road",
      "facStreet2Tx": null,
      "state": "OH",
      "zipCode": "44133",
      "zip4Code": null,
      "county": "CUYAHOGA",
      "facLatDecMs": "41.309306",
      "facLongDecMs": "-81.75575"
    },
    {
      "facilityId": 1000113356,
      "epaFacId": "100000091606",
      "facName": "Scott, OH",
      "city": "Scott",
      "facStreet1Tx": "12529 Blaine Street",
      "facStreet2Tx": "PO Box 147",
      "state": "OH",
      "zipCode": "45886",
      "zip4Code": "",
      "county": "PAULDING",
      "facLatDecMs": "40.990833",
      "facLongDecMs": "-084.581665"
    },
    {
      "facilityId": 1000115402,
      "epaFacId": "100000091973",
      "facName": "Kraton Corporation",
      "city": "Belpre",
      "facStreet1Tx": "2419 State Route 618",
      "facStreet2Tx": "",
      "state": "OH",
      "zipCode": "45714",
      "zip4Code": "",
      "county": "WASHINGTON",
      "facLatDecMs": "39.2783",
      "facLongDecMs": "-81.6353"
    },
    {
      "facilityId": 1000089463,
      "epaFacId": "100000092464",
      "facName": "Schwan's MaMa Rosa's, LLC",
      "city": "Sidney",
      "facStreet1Tx": "1910 Fair Road",
      "facStreet2Tx": null,
      "state": "OH",
      "zipCode": "45365",
      "zip4Code": null,
      "county": "SHELBY",
      "facLatDecMs": "40.269848",
      "facLongDecMs": "-084.179409"
    },
    {
      "facilityId": 1000001930,
      "epaFacId": "100000092482",
      "facName": "AQUA OHIO WATER CO. INC. - Ashtabula District",
      "city": "Ashtabula",
      "facStreet1Tx": "1330 West First St.",
      "facStreet2Tx": null,
      "state": "OH",
      "zipCode": "44004",
      "zip4Code": null,
      "county": "ASHTABULA",
      "facLatDecMs": "41.901111",
      "facLongDecMs": "-080.803611"
    },
    {
      "facilityId": 1000084093,
      "epaFacId": "100000092507",
      "facName": "W. H. Sammis Plant",
      "city": "Stratton",
      "facStreet1Tx": "29503 State Route 7",
      "facStreet2Tx": null,
      "state": "OH",
      "zipCode": "43961",
      "zip4Code": null,
      "county": "JEFFERSON",
      "facLatDecMs": "40.530000",
      "facLongDecMs": "-80.630000"
    },
    {
      "facilityId": 1000091084,
      "epaFacId": "100000092883",
      "facName": "Rich Products Corporation - Hilliard Facility",
      "city": "Hilliard",
      "facStreet1Tx": "4600 Northwest Parkway",
      "facStreet2Tx": null,
      "state": "OH",
      "zipCode": "43026",
      "zip4Code": "0490",
      "county": "FRANKLIN",
      "facLatDecMs": "40.038545",
      "facLongDecMs": "-83.14149"
    },
    {
      "facilityId": 1000001939,
      "epaFacId": "100000092963",
      "facName": "AQUA OHIO WATER COMPANY, INC.",
      "city": "Marion",
      "facStreet1Tx": "810 Holland Road",
      "facStreet2Tx": null,
      "state": "OH",
      "zipCode": "43302",
      "zip4Code": null,
      "county": "MARION",
      "facLatDecMs": "40.595000",
      "facLongDecMs": "-083.188611"
    },
    {
      "facilityId": 1000028739,
      "epaFacId": "100000093016",
      "facName": "AQUA OHIO INC. - TIFFIN DIVISION",
      "city": "TIFFIN",
      "facStreet1Tx": "170 ELLA STREET",
      "facStreet2Tx": null,
      "state": "OH",
      "zipCode": "44883",
      "zip4Code": null,
      "county": "SENECA",
      "facLatDecMs": "41.104444",
      "facLongDecMs": "-083.185833"
    },
    {
      "facilityId": 7477,
      "epaFacId": "100000093588",
      "facName": "Southerly Wastewater Treatment Plant",
      "city": "Lockbourne",
      "facStreet1Tx": "6977 South High Street",
      "facStreet2Tx": null,
      "state": "OH",
      "zipCode": "43137",
      "zip4Code": null,
      "county": "FRANKLIN",
      "facLatDecMs": "39.816389",
      "facLongDecMs": "-83.01"
    },
    {
      "facilityId": 1000103927,
      "epaFacId": "100000093613",
      "facName": "VEOLIA WTS USA, INC",
      "city": "New Philadelphia",
      "facStreet1Tx": "2118 Reiser Avenue, SE",
      "facStreet2Tx": "",
      "state": "OH",
      "zipCode": "44663",
      "zip4Code": "",
      "county": "TUSCARAWAS",
      "facLatDecMs": "40.454528",
      "facLongDecMs": "-081.411694"
    },
    {
      "facilityId": 1000094243,
      "epaFacId": "100000094024",
      "facName": "Lima Water Treatment Plant",
      "city": "Lima",
      "facStreet1Tx": "1100 East Wayne Street",
      "facStreet2Tx": null,
      "state": "OH",
      "zipCode": "45804",
      "zip4Code": "2869",
      "county": "ALLEN",
      "facLatDecMs": "40.743333",
      "facLongDecMs": "-084.086944"
    },
    {
      "facilityId": 1000099787,
      "epaFacId": "100000094444",
      "facName": "Synthomer Inc.",
      "city": "Mogadore",
      "facStreet1Tx": "165 South Cleveland Avenue",
      "facStreet2Tx": "",
      "state": "OH",
      "zipCode": "44260",
      "zip4Code": "1505",
      "county": "PORTAGE",
      "facLatDecMs": "41.046775",
      "facLongDecMs": "-81.391662"
    },
    {
      "facilityId": 19411,
      "epaFacId": "100000094809",
      "facName": "Owens Corning Newark Plant",
      "city": "Newark",
      "facStreet1Tx": "400 Case Avenue",
      "facStreet2Tx": null,
      "state": "OH",
      "zipCode": "43058",
      "zip4Code": "3012",
      "county": "LICKING",
      "facLatDecMs": "40.066667",
      "facLongDecMs": "-82.402778"
    },
    {
      "facilityId": 40299,
      "epaFacId": "100000095531",
      "facName": "Mount Vernon Wastewater Treatment Plant",
      "city": "Mount Vernon",
      "facStreet1Tx": "3 Cougar Drive",
      "facStreet2Tx": null,
      "state": "OH",
      "zipCode": "43050",
      "zip4Code": null,
      "county": "KNOX",
      "facLatDecMs": "40.379250",
      "facLongDecMs": "-082.468528"
    },
    {
      "facilityId": 7652,
      "epaFacId": "100000096736",
      "facName": "Elkem Metals Company, LP, Ashtabula, Ohio Facility",
      "city": "Ashtabula",
      "facStreet1Tx": "2700 Lake Road East",
      "facStreet2Tx": null,
      "state": "OH",
      "zipCode": "44044",
      "zip4Code": null,
      "county": "ASHTABULA",
      "facLatDecMs": "41.908333",
      "facLongDecMs": "-80.7625"
    },
    {
      "facilityId": 1000086422,
      "epaFacId": "100000098039",
      "facName": "ICP Building Solutions Group - Norton Plant",
      "city": "Norton",
      "facStreet1Tx": "2775 Barber Road",
      "facStreet2Tx": null,
      "state": "OH",
      "zipCode": "44203",
      "zip4Code": null,
      "county": "SUMMIT",
      "facLatDecMs": "41.050700",
      "facLongDecMs": "-081.607600"
    },
    {
      "facilityId": 1000111527,
      "epaFacId": "100000098182",
      "facName": "Rockford, OH",
      "city": "Rockford",
      "facStreet1Tx": "450 Strable Road",
      "facStreet2Tx": "",
      "state": "OH",
      "zipCode": "45882",
      "zip4Code": "",
      "county": "MERCER",
      "facLatDecMs": "40.639329",
      "facLongDecMs": "-084.787599"
    },
    {
      "facilityId": 1000041379,
      "epaFacId": "100000099047",
      "facName": "City of Portsmouth Waste Water Treatment Plant",
      "city": "Portsmouth",
      "facStreet1Tx": "2040 Charles Street",
      "facStreet2Tx": null,
      "state": "OH",
      "zipCode": "45662",
      "zip4Code": null,
      "county": "SCIOTO",
      "facLatDecMs": "38.730833",
      "facLongDecMs": "-082.974444"
    },
    {
      "facilityId": 1000113175,
      "epaFacId": "100000099154",
      "facName": "Farmers Elevator Grain and Supply - Standley",
      "city": "Holgate",
      "facStreet1Tx": "18797 County Road H",
      "facStreet2Tx": "",
      "state": "OH",
      "zipCode": "43527",
      "zip4Code": "",
      "county": "HENRY",
      "facLatDecMs": "41.266981",
      "facLongDecMs": "-084.223191"
    },
    {
      "facilityId": 1000111537,
      "epaFacId": "100000099458",
      "facName": "Upper Sandusky, OH 3057",
      "city": "Upper Sandusky",
      "facStreet1Tx": "9960 County Road 49",
      "facStreet2Tx": "",
      "state": "OH",
      "zipCode": "43351",
      "zip4Code": "",
      "county": "WYANDOT",
      "facLatDecMs": "40.847466",
      "facLongDecMs": "-083.302425"
    },
    {
      "facilityId": 1000001924,
      "epaFacId": "100000099653",
      "facName": "Country Star Co-op North Robinson",
      "city": "North Robinson",
      "facStreet1Tx": "2423 Western Ave",
      "facStreet2Tx": "P.O. Box 8",
      "state": "OH",
      "zipCode": "44856",
      "zip4Code": "0008",
      "county": "CRAWFORD",
      "facLatDecMs": "40.792694",
      "facLongDecMs": "-082.859083"
    },
    {
      "facilityId": 1000118068,
      "epaFacId": "100000099966",
      "facName": "Perstorp Polyols, Inc.",
      "city": "Toledo",
      "facStreet1Tx": "600 Matzinger Road",
      "facStreet2Tx": "",
      "state": "OH",
      "zipCode": "43612",
      "zip4Code": "2695",
      "county": "LUCAS",
      "facLatDecMs": "41.702662",
      "facLongDecMs": "-083.530910"
    },
    {
      "facilityId": 1000001731,
      "epaFacId": "100000100099",
      "facName": "SUMCO Phoenix Corporation, Cincinnati",
      "city": "Maineville",
      "facStreet1Tx": "537 Grandin Road",
      "facStreet2Tx": null,
      "state": "OH",
      "zipCode": "45039",
      "zip4Code": null,
      "county": "WARREN",
      "facLatDecMs": "39.345000",
      "facLongDecMs": "-084.227694"
    },
    {
      "facilityId": 50763,
      "epaFacId": "100000100801",
      "facName": "AgriServices - West Unity",
      "city": "West Unity",
      "facStreet1Tx": "520 North Liberty Street",
      "facStreet2Tx": null,
      "state": "OH",
      "zipCode": "43570",
      "zip4Code": null,
      "county": "WILLIAMS",
      "facLatDecMs": "41.586111",
      "facLongDecMs": "-084.429444"
    },
    {
      "facilityId": 1000000669,
      "epaFacId": "100000101187",
      "facName": "Lubrizol Advanced Materials,  Avon Lake Plant",
      "city": "Avon Lake",
      "facStreet1Tx": "550 Moore Road",
      "facStreet2Tx": null,
      "state": "OH",
      "zipCode": "44012",
      "zip4Code": "0134",
      "county": "LORAIN",
      "facLatDecMs": "41.493333",
      "facLongDecMs": "-082.046667"
    },
    {
      "facilityId": 1000115053,
      "epaFacId": "100000101329",
      "facName": "EMD Millipore Corporation",
      "city": "Cincinnati",
      "facStreet1Tx": "2909 Highland Avenue",
      "facStreet2Tx": "",
      "state": "OH",
      "zipCode": "45212",
      "zip4Code": "2498",
      "county": "HAMILTON",
      "facLatDecMs": "39.166389",
      "facLongDecMs": "-084.435833"
    },
    {
      "facilityId": 32732,
      "epaFacId": "100000101622",
      "facName": "Erie Logistics -  NEO Warehouse",
      "city": "Maple Heights",
      "facStreet1Tx": "17000 Rockside Road",
      "facStreet2Tx": null,
      "state": "OH",
      "zipCode": "44137",
      "zip4Code": null,
      "county": "CUYAHOGA",
      "facLatDecMs": "41.402100",
      "facLongDecMs": "-081.561365"
    },
    {
      "facilityId": 1000024459,
      "epaFacId": "100000101846",
      "facName": "PMC Cincinnati, Inc.",
      "city": "Cincinnati",
      "facStreet1Tx": "2000 West Street",
      "facStreet2Tx": null,
      "state": "OH",
      "zipCode": "45215",
      "zip4Code": "3431",
      "county": "HAMILTON",
      "facLatDecMs": "39.234722",
      "facLongDecMs": "-084.437778"
    },
    {
      "facilityId": 1000097827,
      "epaFacId": "100000102177",
      "facName": "Firestone Polymers Pilot Plant",
      "city": "Akron",
      "facStreet1Tx": "381 West Wilbeth Road",
      "facStreet2Tx": null,
      "state": "OH",
      "zipCode": "44301",
      "zip4Code": "2465",
      "county": "SUMMIT",
      "facLatDecMs": "41.042500",
      "facLongDecMs": "-081.539167"
    },
    {
      "facilityId": 24713,
      "epaFacId": "100000102382",
      "facName": "Akron Water Supply Plant",
      "city": "Kent",
      "facStreet1Tx": "1540 Ravenna Road",
      "facStreet2Tx": null,
      "state": "OH",
      "zipCode": "44240",
      "zip4Code": null,
      "county": "PORTAGE",
      "facLatDecMs": "41.18",
      "facLongDecMs": "-81.336"
    },
    {
      "facilityId": 1000111507,
      "epaFacId": "100000102408",
      "facName": "Convoy, OH Satellite",
      "city": "Convoy",
      "facStreet1Tx": "5032 State Route 49",
      "facStreet2Tx": "PO Box 100",
      "state": "OH",
      "zipCode": "45832",
      "zip4Code": "",
      "county": "VAN WERT",
      "facLatDecMs": "40.931156",
      "facLongDecMs": "-084.707763"
    },
    {
      "facilityId": 1000093888,
      "epaFacId": "100000102505",
      "facName": "Durez Corporation - Kenton Facility",
      "city": "Kenton",
      "facStreet1Tx": "13717 US Highway Route 68 S.",
      "facStreet2Tx": null,
      "state": "OH",
      "zipCode": "43326",
      "zip4Code": null,
      "county": "HARDIN",
      "facLatDecMs": "40.621111",
      "facLongDecMs": "-083.619722"
    },
    {
      "facilityId": 1000077421,
      "epaFacId": "100000102701",
      "facName": "Ohio City, OH",
      "city": "Ohio City",
      "facStreet1Tx": "114 Carmean Street",
      "facStreet2Tx": "PO Box 187",
      "state": "OH",
      "zipCode": "45874",
      "zip4Code": null,
      "county": "VAN WERT",
      "facLatDecMs": "40.772625",
      "facLongDecMs": "-084.613165"
    },
    {
      "facilityId": 15456,
      "epaFacId": "100000103933",
      "facName": "City of Bowling Green Water Treatment",
      "city": "Bowling Green",
      "facStreet1Tx": "17549 West River Road",
      "facStreet2Tx": null,
      "state": "OH",
      "zipCode": "43402",
      "zip4Code": null,
      "county": "WOOD",
      "facLatDecMs": "41.476389",
      "facLongDecMs": "-83.738333"
    },
    {
      "facilityId": 1000106635,
      "epaFacId": "100000104031",
      "facName": "Mansfield Wastewater Treatment Plant",
      "city": "Mansfield",
      "facStreet1Tx": "385 South Illinois Ave.",
      "facStreet2Tx": "",
      "state": "OH",
      "zipCode": "44905",
      "zip4Code": "",
      "county": "RICHLAND",
      "facLatDecMs": "40.747135",
      "facLongDecMs": "-082.480840"
    },
    {
      "facilityId": 11284,
      "epaFacId": "100000104709",
      "facName": "AGA Gas, Inc.",
      "city": "Brook Park",
      "facStreet1Tx": "5575 Engle Road",
      "facStreet2Tx": null,
      "state": "OH",
      "zipCode": "44142",
      "zip4Code": null,
      "county": "CUYAHOGA",
      "facLatDecMs": "41.409972",
      "facLongDecMs": "-81.819139"
    },