{
  "_embedded": [
    {
      "facilityId": 9885,
      "epaFacId": "100000001847",
      "facName": "Martin Electronics, Inc.",
      "city": "Perry",
      "facStreet1Tx": "10625 Puckett Road",
      "facStreet2Tx": null,
      "state": "FL",
      "zipCode": "32347",
      "zip4Code": "9751",
      "county": "TAYLOR",
      "facLatDecMs": "29.970278",
      "facLongDecMs": "83.660278"
    },
    {
      "facilityId": 1000095163,
      "epaFacId": "100000003792",
      "facName": "Tampa Maid Foods",
      "city": "Lakeland",
      "facStreet1Tx": "1600 Kathleen Rd",
      "facStreet2Tx": null,
      "state": "FL",
      "zipCode": "33805",
      "zip4Code": null,
      "county": "POLK",
      "facLatDecMs": "28.064444",
      "facLongDecMs": "-081.584800"
    },
    {
      "facilityId": 672,
      "epaFacId": "100000003934",
      "facName": "Water Reclamation Facility #2",
      "city": "Ocala",
      "facStreet1Tx": "4200 Se 24th Street",
      "facStreet2Tx": null,
      "state": "FL",
      "zipCode": "34471",
      "zip4Code": "5605",
      "county": "MARION",
      "facLatDecMs": "29.163056",
      "facLongDecMs": "-82.0775"
    },
    {
      "facilityId": 15912,
      "epaFacId": "100000005157",
      "facName": "Coral Springs Water Treatment Plant",
      "city": "Coral Springs",
      "facStreet1Tx": "3800 Northwest 85th Avenue",
      "facStreet2Tx": null,
      "state": "FL",
      "zipCode": "33065",
      "zip4Code": null,
      "county": "BROWARD",
      "facLatDecMs": "26.277222",
      "facLongDecMs": "-80.240833"
    },
    {
      "facilityId": 1000113777,
      "epaFacId": "100000005326",
      "facName": "Tampa Bay Fisheries, Inc.",
      "city": "Dover",
      "facStreet1Tx": "3060 N Gallagher Rd.",
      "facStreet2Tx": "",
      "state": "FL",
      "zipCode": "33527",
      "zip4Code": "4728",
      "county": "HILLSBOROUGH",
      "facLatDecMs": "27.992806",
      "facLongDecMs": "-082.250667"
    },
    {
      "facilityId": 1000113894,
      "epaFacId": "100000006245",
      "facName": "Airgas USA, LLC, Jacksonville",
      "city": "Jacksonville",
      "facStreet1Tx": "5837 West 5th Street",
      "facStreet2Tx": "",
      "state": "FL",
      "zipCode": "32254",
      "zip4Code": "",
      "county": "DUVAL",
      "facLatDecMs": "30.343333",
      "facLongDecMs": "-081.746111"
    },
    {
      "facilityId": 44079,
      "epaFacId": "100000007725",
      "facName": "University of Florida Water Reclamation Facility",
      "city": "Gainesville",
      "facStreet1Tx": "Bldg. 1070;  Gale Lemerand Dr.",
      "facStreet2Tx": null,
      "state": "FL",
      "zipCode": "32611",
      "zip4Code": "7700",
      "county": "ALACHUA",
      "facLatDecMs": "29.640194",
      "facLongDecMs": "-082.350667"
    },
    {
      "facilityId": 31840,
      "epaFacId": "100000008671",
      "facName": "Harcros Chemicals Inc. - Tampa",
      "city": "Tampa",
      "facStreet1Tx": "5132 Trenton St.",
      "facStreet2Tx": null,
      "state": "FL",
      "zipCode": "33619",
      "zip4Code": null,
      "county": "HILLSBOROUGH",
      "facLatDecMs": "27.913333",
      "facLongDecMs": "-082.398611"
    },
    {
      "facilityId": 1000084503,
      "epaFacId": "100000010267",
      "facName": "Ambassador Services, Inc.",
      "city": "Cape Canaveral",
      "facStreet1Tx": "9025 N. Atlantic Avenue",
      "facStreet2Tx": "n/a",
      "state": "FL",
      "zipCode": "32920",
      "zip4Code": "",
      "county": "BREVARD",
      "facLatDecMs": "28.407500",
      "facLongDecMs": "-080.605667"
    },
    {
      "facilityId": 928,
      "epaFacId": "100000010276",
      "facName": "MID-FLORIDA FREEZER WAREHOUSES, LTD",
      "city": "HIGHLAND CITY",
      "facStreet1Tx": "5320 U.S. HIGHWAY 98 SOUTH",
      "facStreet2Tx": null,
      "state": "FL",
      "zipCode": "33846",
      "zip4Code": null,
      "county": "POLK",
      "facLatDecMs": "27.970556",
      "facLongDecMs": "-81.881111"
    },
    {
      "facilityId": 21195,
      "epaFacId": "100000010294",
      "facName": "MID-FLORIDA FREEZER WAREHOUSES, LTD.",
      "city": "Leesburg",
      "facStreet1Tx": "1801 Bradford Ave.",
      "facStreet2Tx": null,
      "state": "FL",
      "zipCode": "34748",
      "zip4Code": null,
      "county": "LAKE",
      "facLatDecMs": "29.161944",
      "facLongDecMs": "-81.552222"
    },
    {
      "facilityId": 1000111965,
      "epaFacId": "100000010301",
      "facName": "Cold-Link Logistics Orlando, LLC",
      "city": "Apopka",
      "facStreet1Tx": "2560 W. Orange Blossom Trail",
      "facStreet2Tx": "",
      "state": "FL",
      "zipCode": "32712",
      "zip4Code": "",
      "county": "ORANGE",
      "facLatDecMs": "28.690714",
      "facLongDecMs": "-081.552767"
    },
    {
      "facilityId": 1000113708,
      "epaFacId": "100000010668",
      "facName": "John E. Preston Water Treatment Plant",
      "city": "Hialeah",
      "facStreet1Tx": "1100 W 2nd Avenue",
      "facStreet2Tx": "",
      "state": "FL",
      "zipCode": "33010",
      "zip4Code": "",
      "county": "MIAMI-DADE",
      "facLatDecMs": "25.831060",
      "facLongDecMs": "-080.285890"
    },
    {
      "facilityId": 1000000085,
      "epaFacId": "100000010819",
      "facName": "South Walton Utility Company WWTP",
      "city": "Miramar Beach",
      "facStreet1Tx": "71 Miramar Beach Drive",
      "facStreet2Tx": null,
      "state": "FL",
      "zipCode": "32550",
      "zip4Code": null,
      "county": "WALTON",
      "facLatDecMs": "30.380000",
      "facLongDecMs": "-086.360000"
    },
    {
      "facilityId": 1000089842,
      "epaFacId": "100000012069",
      "facName": "Wastewater Treatment Plant",
      "city": "Milton",
      "facStreet1Tx": "6903 Municipal Drive",
      "facStreet2Tx": null,
      "state": "FL",
      "zipCode": "32570",
      "zip4Code": null,
      "county": "SANTA ROSA",
      "facLatDecMs": "30.617799",
      "facLongDecMs": "-087.034483"
    },
    {
      "facilityId": 1121,
      "epaFacId": "100000012229",
      "facName": "City of Eustis - WWTP",
      "city": "Eustis",
      "facStreet1Tx": "875 Bates Avenue",
      "facStreet2Tx": null,
      "state": "FL",
      "zipCode": "32726",
      "zip4Code": null,
      "county": "LAKE",
      "facLatDecMs": "28.859722",
      "facLongDecMs": "-81.676944"
    },
    {
      "facilityId": 1147,
      "epaFacId": "100000013442",
      "facName": "City of Eustis - CR 44 WTP",
      "city": "Eustis",
      "facStreet1Tx": "3351 CR East Highway 44",
      "facStreet2Tx": null,
      "state": "FL",
      "zipCode": "32726",
      "zip4Code": null,
      "county": "LAKE",
      "facLatDecMs": "28.854722",
      "facLongDecMs": "-81.652222"
    },
    {
      "facilityId": 1148,
      "epaFacId": "100000013451",
      "facName": "City of Eustis - Ardice WTP",
      "city": "Eustis",
      "facStreet1Tx": "400 Ardice Avenue",
      "facStreet2Tx": null,
      "state": "FL",
      "zipCode": "32726",
      "zip4Code": null,
      "county": "LAKE",
      "facLatDecMs": "28.828889",
      "facLongDecMs": "-81.690278"
    },
    {
      "facilityId": 1149,
      "epaFacId": "100000013488",
      "facName": "City of Eustis - Haselton WTP",
      "city": "Eustis",
      "facStreet1Tx": "700 Haselton Street",
      "facStreet2Tx": null,
      "state": "FL",
      "zipCode": "32726",
      "zip4Code": null,
      "county": "LAKE",
      "facLatDecMs": "28.846944",
      "facLongDecMs": "-81.686111"
    },
    {
      "facilityId": 1160,
      "epaFacId": "100000013549",
      "facName": "The City of Miramar East Water Treatment Plant",
      "city": "Miramar",
      "facStreet1Tx": "2600 S.W. 66th Terrace",
      "facStreet2Tx": null,
      "state": "FL",
      "zipCode": "33023",
      "zip4Code": null,
      "county": "BROWARD",
      "facLatDecMs": "25.986028",
      "facLongDecMs": "-80.221139"
    },
    {
      "facilityId": 14443,
      "epaFacId": "100000014192",
      "facName": "Wekiva Hunt Club WWTF/WTP",
      "city": "Longwood",
      "facStreet1Tx": "144 Ledbury Drive",
      "facStreet2Tx": null,
      "state": "FL",
      "zipCode": "32750",
      "zip4Code": null,
      "county": "SEMINOLE",
      "facLatDecMs": "28.695278",
      "facLongDecMs": "-81.432222"
    },
    {
      "facilityId": 14449,
      "epaFacId": "100000014236",
      "facName": "Des Pinar WTP/WWTF Site",
      "city": "Longwood",
      "facStreet1Tx": "125 Western Fork Avenue",
      "facStreet2Tx": null,
      "state": "FL",
      "zipCode": "32750",
      "zip4Code": null,
      "county": "SEMINOLE",
      "facLatDecMs": "28.707222",
      "facLongDecMs": "-81.3775"
    },
    {
      "facilityId": 19131,
      "epaFacId": "100000014487",
      "facName": "Wastewater Treatment Plant",
      "city": "New Smyrna Beach",
      "facStreet1Tx": "20 North Causeway",
      "facStreet2Tx": null,
      "state": "FL",
      "zipCode": "32169",
      "zip4Code": null,
      "county": "VOLUSIA",
      "facLatDecMs": "29.020556",
      "facLongDecMs": "-80.995278"
    },
    {
      "facilityId": 16909,
      "epaFacId": "100000015299",
      "facName": "Holox Ltd.",
      "city": "Pensacola",
      "facStreet1Tx": "4310 North Palafox",
      "facStreet2Tx": null,
      "state": "FL",
      "zipCode": "32505",
      "zip4Code": "2921",
      "county": "ESCAMBIA",
      "facLatDecMs": "30.455917",
      "facLongDecMs": "-87.236139"
    },
    {
      "facilityId": 20773,
      "epaFacId": "100000015734",
      "facName": "Central Regional Wastewater Treatment Facility",
      "city": "Vero Beach",
      "facStreet1Tx": "3550 49th Street",
      "facStreet2Tx": null,
      "state": "FL",
      "zipCode": "32967",
      "zip4Code": null,
      "county": "INDIAN RIVER",
      "facLatDecMs": "27.685556",
      "facLongDecMs": "-80.42"
    },
    {
      "facilityId": 1330,
      "epaFacId": "100000016056",
      "facName": "Bee Ridge Water Reclamation Facility",
      "city": "Sarasota",
      "facStreet1Tx": "4001 Iona Rd.",
      "facStreet2Tx": null,
      "state": "FL",
      "zipCode": "34240",
      "zip4Code": null,
      "county": "SARASOTA",
      "facLatDecMs": "27.296667",
      "facLongDecMs": "-82.391667"
    },
    {
      "facilityId": 1000084110,
      "epaFacId": "100000016378",
      "facName": "George F. French Water Reclamation Facility",
      "city": "Destin",
      "facStreet1Tx": "14 Industrial Park Lane",
      "facStreet2Tx": null,
      "state": "FL",
      "zipCode": "32541",
      "zip4Code": null,
      "county": "OKALOOSA",
      "facLatDecMs": "30.393056",
      "facLongDecMs": "-086.445000"
    },
    {
      "facilityId": 20772,
      "epaFacId": "100000016458",
      "facName": "North Regional Wastewater Treatment Facility",
      "city": "Vero Beach",
      "facStreet1Tx": "5150 77th Street",
      "facStreet2Tx": null,
      "state": "FL",
      "zipCode": "32867",
      "zip4Code": "5515",
      "county": "INDIAN RIVER",
      "facLatDecMs": "27.735278",
      "facLongDecMs": "-80.438611"
    },
    {
      "facilityId": 20774,
      "epaFacId": "100000016715",
      "facName": "West Regional Wastewater Treatment Facility",
      "city": "Vero Beach",
      "facStreet1Tx": "8405 8th Street",
      "facStreet2Tx": null,
      "state": "FL",
      "zipCode": "32968",
      "zip4Code": null,
      "county": "INDIAN RIVER",
      "facLatDecMs": "27.612778",
      "facLongDecMs": "-80.502778"
    },
    {
      "facilityId": 1395,
      "epaFacId": "100000016895",
      "facName": "T. Mabry Carlton Water Treatment Facility",
      "city": "Venice",
      "facStreet1Tx": "1255 Mabry Carlton Parkway",
      "facStreet2Tx": null,
      "state": "FL",
      "zipCode": "34292",
      "zip4Code": null,
      "county": "SARASOTA",
      "facLatDecMs": "27.147222",
      "facLongDecMs": "-82.3375"
    },
    {
      "facilityId": 1400,
      "epaFacId": "100000017153",
      "facName": "Venice Gardens Water Reclamation Facility",
      "city": "Venice",
      "facStreet1Tx": "375 Venice East Blvd.",
      "facStreet2Tx": null,
      "state": "FL",
      "zipCode": "34293",
      "zip4Code": null,
      "county": "SARASOTA",
      "facLatDecMs": "27.060556",
      "facLongDecMs": "-82.385556"
    },
    {
      "facilityId": 1453,
      "epaFacId": "100000017858",
      "facName": "Central County Water Reclamation Facility",
      "city": "Sarasota",
      "facStreet1Tx": "7905 Mcintosh Rd",
      "facStreet2Tx": null,
      "state": "FL",
      "zipCode": "34238",
      "zip4Code": null,
      "county": "SARASOTA",
      "facLatDecMs": "27.236111",
      "facLongDecMs": "-82.474167"
    },
    {
      "facilityId": 1000099024,
      "epaFacId": "100000018009",
      "facName": "Seaonus Cold Storage",
      "city": "Jacksonville",
      "facStreet1Tx": "2625 West 5th Street",
      "facStreet2Tx": null,
      "state": "FL",
      "zipCode": "32254",
      "zip4Code": null,
      "county": "DUVAL",
      "facLatDecMs": "30.345472",
      "facLongDecMs": "-081.708756"
    },
    {
      "facilityId": 1428,
      "epaFacId": "100000018143",
      "facName": "Atlantic Wastewater Water Reclamation Facility",
      "city": "Sarasota",
      "facStreet1Tx": "411 Bahia Vista Street",
      "facStreet2Tx": null,
      "state": "FL",
      "zipCode": "34240",
      "zip4Code": null,
      "county": "SARASOTA",
      "facLatDecMs": "27.320833",
      "facLongDecMs": "-82.474167"
    },
    {
      "facilityId": 1000112554,
      "epaFacId": "100000018296",
      "facName": "Water Treatment Plant",
      "city": "New Smyrna Beach",
      "facStreet1Tx": "2640 Paige Ave.",
      "facStreet2Tx": "",
      "state": "FL",
      "zipCode": "32168",
      "zip4Code": "",
      "county": "VOLUSIA",
      "facLatDecMs": "28.997200",
      "facLongDecMs": "-080.964753"
    },
    {
      "facilityId": 1478,
      "epaFacId": "100000018321",
      "facName": "IRC SOUTH COUNTY R/O PLANT",
      "city": "Vero Beach",
      "facStreet1Tx": "1550 SW 9th Street",
      "facStreet2Tx": null,
      "state": "FL",
      "zipCode": "32962",
      "zip4Code": null,
      "county": "INDIAN RIVER",
      "facLatDecMs": "27.591111",
      "facLongDecMs": "-80.401667"
    },
    {
      "facilityId": 1461,
      "epaFacId": "100000018508",
      "facName": "Indian River County Utilitiles Hobart R/O Plant",
      "city": "Vero Beach",
      "facStreet1Tx": "7751 58th Avenue",
      "facStreet2Tx": null,
      "state": "FL",
      "zipCode": "32967",
      "zip4Code": null,
      "county": "INDIAN RIVER",
      "facLatDecMs": "27.735278",
      "facLongDecMs": "-80.447222"
    },
    {
      "facilityId": 1000082390,
      "epaFacId": "100000018615",
      "facName": "City of Dunedin R.O. Water Treatment Plant",
      "city": "Dunedin",
      "facStreet1Tx": "1401 County Road 1",
      "facStreet2Tx": null,
      "state": "FL",
      "zipCode": "34698",
      "zip4Code": null,
      "county": "PINELLAS",
      "facLatDecMs": "28.023766",
      "facLongDecMs": "-082.762477"
    },
    {
      "facilityId": 1539,
      "epaFacId": "100000018633",
      "facName": "Southeast Wastewater Treatment Plant",
      "city": "Zephyrhills",
      "facStreet1Tx": "6039 Handcart Road",
      "facStreet2Tx": null,
      "state": "FL",
      "zipCode": "33544",
      "zip4Code": null,
      "county": "PASCO",
      "facLatDecMs": "28.244444",
      "facLongDecMs": "-82.247222"
    },
    {
      "facilityId": 1000046797,
      "epaFacId": "100000018651",
      "facName": "City of Dunedin Wastewater Treatment Plant",
      "city": "Dunedin",
      "facStreet1Tx": "1140 Martin Luther King Jr. Avenue",
      "facStreet2Tx": null,
      "state": "FL",
      "zipCode": "34698",
      "zip4Code": null,
      "county": "PINELLAS",
      "facLatDecMs": "28.019444",
      "facLongDecMs": "-082.785833"
    },
    {
      "facilityId": 1541,
      "epaFacId": "100000018697",
      "facName": "Wesley Center Wastewater Treatment Plant",
      "city": "Wesley Chapel",
      "facStreet1Tx": "7501 Boyette Road",
      "facStreet2Tx": null,
      "state": "FL",
      "zipCode": "33544",
      "zip4Code": null,
      "county": "PASCO",
      "facLatDecMs": "28.264722",
      "facLongDecMs": "-82.330278"
    },
    {
      "facilityId": 1542,
      "epaFacId": "100000018731",
      "facName": "Shady Hills Wastewater Treatment Plant",
      "city": "Spring Hill",
      "facStreet1Tx": "14220 Hays Road",
      "facStreet2Tx": null,
      "state": "FL",
      "zipCode": "34610",
      "zip4Code": null,
      "county": "PASCO",
      "facLatDecMs": "28.377222",
      "facLongDecMs": "-82.57"
    },
    {
      "facilityId": 1579,
      "epaFacId": "100000018795",
      "facName": "Mount Dora Wastewater Treatment Facility",
      "city": "Mount Dora",
      "facStreet1Tx": "1111 Overhiser Lane",
      "facStreet2Tx": null,
      "state": "FL",
      "zipCode": "32757",
      "zip4Code": null,
      "county": "LAKE",
      "facLatDecMs": "28.804889",
      "facLongDecMs": "81.675139"
    },
    {
      "facilityId": 39282,
      "epaFacId": "100000018875",
      "facName": "Little Road Water Treatment Plant",
      "city": "New Port Richey",
      "facStreet1Tx": "8215 Little Road",
      "facStreet2Tx": null,
      "state": "FL",
      "zipCode": "34654",
      "zip4Code": null,
      "county": "PASCO",
      "facLatDecMs": "28.276389",
      "facLongDecMs": "-082.675000"
    },
    {
      "facilityId": 1934,
      "epaFacId": "100000018964",
      "facName": "Hudson Wastewater Treatment Plant",
      "city": "Hudson",
      "facStreet1Tx": "10745 Denton Ave.",
      "facStreet2Tx": null,
      "state": "FL",
      "zipCode": "34667",
      "zip4Code": null,
      "county": "PASCO",
      "facLatDecMs": "28.391667",
      "facLongDecMs": "-82.636111"
    },
    {
      "facilityId": 20589,
      "epaFacId": "100000018991",
      "facName": "Palm Beach County Water Treatment Plant #9",
      "city": "Boca Raton",
      "facStreet1Tx": "22438 SW 7th Street",
      "facStreet2Tx": null,
      "state": "FL",
      "zipCode": "33428",
      "zip4Code": "6045",
      "county": "PALM BEACH",
      "facLatDecMs": "26.342694",
      "facLongDecMs": "-80.196667"
    },
    {
      "facilityId": 1000114094,
      "epaFacId": "100000019115",
      "facName": "City of Vero Beach Water Treatment Plant",
      "city": "Vero Beach",
      "facStreet1Tx": "2515 Airport North Drive",
      "facStreet2Tx": "",
      "state": "FL",
      "zipCode": "32960",
      "zip4Code": "",
      "county": "INDIAN RIVER",
      "facLatDecMs": "27.652222",
      "facLongDecMs": "-080.402500"
    },
    {
      "facilityId": 1586,
      "epaFacId": "100000019197",
      "facName": "MOUNT DORA WATER TREATMENT FACILITY",
      "city": "MOUNT DORA",
      "facStreet1Tx": "2200 N. Tremain",
      "facStreet2Tx": null,
      "state": "FL",
      "zipCode": "32757",
      "zip4Code": null,
      "county": "LAKE",
      "facLatDecMs": "28.812528",
      "facLongDecMs": "81.640583"
    },
    {
      "facilityId": 1533,
      "epaFacId": "100000019311",
      "facName": "Joseph A. Maytum Water Treatment Plant",
      "city": "New Port Richey",
      "facStreet1Tx": "9748 Decubellis Road",
      "facStreet2Tx": null,
      "state": "FL",
      "zipCode": "34654",
      "zip4Code": null,
      "county": "PASCO",
      "facLatDecMs": "28.258056",
      "facLongDecMs": "-82.652778"
    },
    {
      "facilityId": 32503,
      "epaFacId": "100000019348",
      "facName": "Palm Beach County Water Treatment Plant # 3",
      "city": "Delray Beach",
      "facStreet1Tx": "13026 Jog Road",
      "facStreet2Tx": null,
      "state": "FL",
      "zipCode": "33446",
      "zip4Code": "3801",
      "county": "PALM BEACH",
      "facLatDecMs": "26.482389",
      "facLongDecMs": "-080.145306"
    },
    {
      "facilityId": 20587,
      "epaFacId": "100000019384",
      "facName": "PBC Southern Region Water Reclamation Facility",
      "city": "Boynton Beach",
      "facStreet1Tx": "12751 Hagen Ranch Road",
      "facStreet2Tx": null,
      "state": "FL",
      "zipCode": "33437",
      "zip4Code": "4129",
      "county": "PALM BEACH",
      "facLatDecMs": "26.487417",
      "facLongDecMs": "-80.171389"
    },
    {
      "facilityId": 1534,
      "epaFacId": "100000019428",
      "facName": "Embassy Hills Wastewater Treatment Plant",
      "city": "Newport Richey",
      "facStreet1Tx": "9512 Crabtree Lane",
      "facStreet2Tx": null,
      "state": "FL",
      "zipCode": "34654",
      "zip4Code": null,
      "county": "PASCO",
      "facLatDecMs": "28.295278",
      "facLongDecMs": "-82.702778"
    },
    {
      "facilityId": 1535,
      "epaFacId": "100000019455",
      "facName": "Land O'Lakes Wastewater Treatment Plant",
      "city": "Land O'Lakes",
      "facStreet1Tx": "23730 Shining Star Drive",
      "facStreet2Tx": null,
      "state": "FL",
      "zipCode": "34639",
      "zip4Code": null,
      "county": "PASCO",
      "facLatDecMs": "28.229444",
      "facLongDecMs": "-82.4225"
    },
    {
      "facilityId": 32227,
      "epaFacId": "100000019473",
      "facName": "Palm Beach County Water Treatment Plant #2",
      "city": "West Palm Beach",
      "facStreet1Tx": "2956 Pinehurst Drive",
      "facStreet2Tx": null,
      "state": "FL",
      "zipCode": "33413",
      "zip4Code": "3336",
      "county": "PALM BEACH",
      "facLatDecMs": "26.633833",
      "facLongDecMs": "-080.155889"
    },
    {
      "facilityId": 42518,
      "epaFacId": "100000019598",
      "facName": "City of New Port Richey Wastewater Treatment Plant",
      "city": "New Port Richey",
      "facStreet1Tx": "4730 Main Street",
      "facStreet2Tx": null,
      "state": "FL",
      "zipCode": "34652",
      "zip4Code": null,
      "county": "PASCO",
      "facLatDecMs": "28.248333",
      "facLongDecMs": "-082.735556"
    },
    {
      "facilityId": 1537,
      "epaFacId": "100000019678",
      "facName": "Deer Park Wastewater Treatment Plant",
      "city": "New Port Richey",
      "facStreet1Tx": "5000 Little Road",
      "facStreet2Tx": null,
      "state": "FL",
      "zipCode": "34654",
      "zip4Code": null,
      "county": "PASCO",
      "facLatDecMs": "28.233333",
      "facLongDecMs": "-82.663889"
    },
    {
      "facilityId": 1762,
      "epaFacId": "100000020808",
      "facName": "Sigma International",
      "city": "St Petersburg",
      "facStreet1Tx": "333 16th Avenue South",
      "facStreet2Tx": null,
      "state": "FL",
      "zipCode": "33701",
      "zip4Code": null,
      "county": "PINELLAS",
      "facLatDecMs": "27.755278",
      "facLongDecMs": "-82.638056"
    },
    {
      "facilityId": 1000057984,
      "epaFacId": "100000020951",
      "facName": "City of Perry Wastewater Treatment Facility",
      "city": "Perry",
      "facStreet1Tx": "507 W. Goff St.",
      "facStreet2Tx": null,
      "state": "FL",
      "zipCode": "32347",
      "zip4Code": "3900",
      "county": "TAYLOR",
      "facLatDecMs": "30.112750",
      "facLongDecMs": "-083.597778"
    },
    {
      "facilityId": 1000088207,
      "epaFacId": "100000020997",
      "facName": "Mason H. Kelley Water Treatment Plant",
      "city": "Perry",
      "facStreet1Tx": "713 N. Faulkner Street",
      "facStreet2Tx": null,
      "state": "FL",
      "zipCode": "32347",
      "zip4Code": null,
      "county": "TAYLOR",
      "facLatDecMs": "30.116667",
      "facLongDecMs": "-083.583333"
    },
    {
      "facilityId": 1000049444,
      "epaFacId": "100000021736",
      "facName": "Perry Water Works Water Treatment Plant",
      "city": "Perry",
      "facStreet1Tx": "400 W. Leon Street",
      "facStreet2Tx": null,
      "state": "FL",
      "zipCode": "32347",
      "zip4Code": null,
      "county": "TAYLOR",
      "facLatDecMs": "30.116667",
      "facLongDecMs": "-083.583333"
    },
    {
      "facilityId": 36171,
      "epaFacId": "100000022165",
      "facName": "City of Boynton Beach West Water Treatment Plant",
      "city": "Boynton Beach",
      "facStreet1Tx": "5469 W. Boynton Beach Blvd.",
      "facStreet2Tx": null,
      "state": "FL",
      "zipCode": "33437",
      "zip4Code": null,
      "county": "PALM BEACH",
      "facLatDecMs": "26.529167",
      "facLongDecMs": "-080.130000"
    },
    {
      "facilityId": 1000115842,
      "epaFacId": "100000022548",
      "facName": "Primus Pipe and Tube Inc.",
      "city": "Wildwood",
      "facStreet1Tx": "241 West Clarke Street",
      "facStreet2Tx": "",
      "state": "FL",
      "zipCode": "34785",
      "zip4Code": "",
      "county": "SUMTER",
      "facLatDecMs": "28.875556",
      "facLongDecMs": "-082.039444"
    },
    {
      "facilityId": 1869,
      "epaFacId": "100000023379",
      "facName": "Nitram, Inc.",
      "city": "Tampa",
      "facStreet1Tx": "5321 Hartford Street",
      "facStreet2Tx": null,
      "state": "FL",
      "zipCode": "33619",
      "zip4Code": null,
      "county": "HILLSBOROUGH",
      "facLatDecMs": "27.910278",
      "facLongDecMs": "-82.394444"
    },
    {
      "facilityId": 1873,
      "epaFacId": "100000023529",
      "facName": "Manatee County Water Treatment Plant",
      "city": "Bradenton",
      "facStreet1Tx": "18315 Dam Road",
      "facStreet2Tx": null,
      "state": "FL",
      "zipCode": "34202",
      "zip4Code": null,
      "county": "MANATEE",
      "facLatDecMs": "27.493056",
      "facLongDecMs": "82.624444"
    },
    {
      "facilityId": 32353,
      "epaFacId": "100000023841",
      "facName": "Lake City Water Treatment Facility",
      "city": "Lake City",
      "facStreet1Tx": "928 SE Putnam Street",
      "facStreet2Tx": null,
      "state": "FL",
      "zipCode": "32025",
      "zip4Code": null,
      "county": "COLUMBIA",
      "facLatDecMs": "30.185556",
      "facLongDecMs": "-082.622500"
    },
    {
      "facilityId": 1000011584,
      "epaFacId": "100000025242",
      "facName": "City of Boynton Beach East Water Treatment Plant",
      "city": "Boynton Beach",
      "facStreet1Tx": "1620 South Seacrest Blvd.",
      "facStreet2Tx": null,
      "state": "FL",
      "zipCode": "33435",
      "zip4Code": "6040",
      "county": "PALM BEACH",
      "facLatDecMs": "26.513611",
      "facLongDecMs": "-080.063056"
    },
    {
      "facilityId": 1000082982,
      "epaFacId": "100000026606",
      "facName": "Southern Regional WWTP",
      "city": "Hollywood",
      "facStreet1Tx": "1621 N 14th Avenue",
      "facStreet2Tx": null,
      "state": "FL",
      "zipCode": "33022",
      "zip4Code": "9045",
      "county": "BROWARD",
      "facLatDecMs": "26.13568",
      "facLongDecMs": "-80.88123"
    },
    {
      "facilityId": 2172,
      "epaFacId": "100000026624",
      "facName": "Water Conserv I Water Reclamation Facility",
      "city": "Orlando",
      "facStreet1Tx": "11401 Boggy Creek Road",
      "facStreet2Tx": null,
      "state": "FL",
      "zipCode": "32824",
      "zip4Code": "7406",
      "county": "ORANGE",
      "facLatDecMs": "28.398333",
      "facLongDecMs": "-81.330278"
    },
    {
      "facilityId": 2188,
      "epaFacId": "100000026633",
      "facName": "City of Hollywood Water Plant",
      "city": "Hollywood",
      "facStreet1Tx": "3441 Hollywood Blvd.",
      "facStreet2Tx": null,
      "state": "FL",
      "zipCode": "33021",
      "zip4Code": "9045",
      "county": "BROWARD",
      "facLatDecMs": "26.008333",
      "facLongDecMs": "80.180556"
    },
    {
      "facilityId": 1000103514,
      "epaFacId": "100000026704",
      "facName": "Water Conservation II Water Reclamation Facility",
      "city": "Orlando",
      "facStreet1Tx": "5420 L.B. McLeod Road",
      "facStreet2Tx": "",
      "state": "FL",
      "zipCode": "32811",
      "zip4Code": "7404",
      "county": "ORANGE",
      "facLatDecMs": "28.502050",
      "facLongDecMs": "-081.453233"
    },
    {
      "facilityId": 1000103934,
      "epaFacId": "100000026884",
      "facName": "Iron Bridge Regional Water Reclamation Facility",
      "city": "Oveido",
      "facStreet1Tx": "601 Iron Bridge Circle",
      "facStreet2Tx": "",
      "state": "FL",
      "zipCode": "32765",
      "zip4Code": "",
      "county": "SEMINOLE",
      "facLatDecMs": "28.620668",
      "facLongDecMs": "-081.217593"
    },
    {
      "facilityId": 2244,
      "epaFacId": "100000028249",
      "facName": "Winter Garden Wastewater Pollution Control Fac.",
      "city": "Winter Garden",
      "facStreet1Tx": "101 East Crest Avenue",
      "facStreet2Tx": null,
      "state": "FL",
      "zipCode": "34787",
      "zip4Code": null,
      "county": "ORANGE",
      "facLatDecMs": "28.577806",
      "facLongDecMs": "-81.582528"
    },
    {
      "facilityId": 23825,
      "epaFacId": "100000028418",
      "facName": "Robert L. Pratt Water",
      "city": "Palm Springs",
      "facStreet1Tx": "5618 Basil Drive",
      "facStreet2Tx": null,
      "state": "FL",
      "zipCode": "33415",
      "zip4Code": null,
      "county": "PALM BEACH",
      "facLatDecMs": "26.647444",
      "facLongDecMs": "80.130917"
    },
    {
      "facilityId": 1000117604,
      "epaFacId": "100000028613",
      "facName": "Shaw Family Seafood Company",
      "city": "Jacksonville",
      "facStreet1Tx": "821 Virginia St.",
      "facStreet2Tx": "",
      "state": "FL",
      "zipCode": "32208",
      "zip4Code": "",
      "county": "DUVAL",
      "facLatDecMs": "30.385452",
      "facLongDecMs": "-081.639175"
    },
    {
      "facilityId": 2475,
      "epaFacId": "100000029373",
      "facName": "District 3A Water Treatment Plant",
      "city": "Fort Lauderdale",
      "facStreet1Tx": "4980 S.W. 40th Avenue",
      "facStreet2Tx": null,
      "state": "FL",
      "zipCode": "33314",
      "zip4Code": "5603",
      "county": "BROWARD",
      "facLatDecMs": "26.061111",
      "facLongDecMs": "-80.198333"
    },
    {
      "facilityId": 1000013301,
      "epaFacId": "100000029765",
      "facName": "Lithia Water Treatment Facility",
      "city": "Lithia",
      "facStreet1Tx": "5402 Lithia Pinecrest Road",
      "facStreet2Tx": null,
      "state": "FL",
      "zipCode": "33547",
      "zip4Code": null,
      "county": "HILLSBOROUGH",
      "facLatDecMs": "27.861944",
      "facLongDecMs": "-082.206111"
    },
    {
      "facilityId": 1000013343,
      "epaFacId": "100000029827",
      "facName": "South County Regional Wastewater Treatment Plant",
      "city": "Tampa",
      "facStreet1Tx": "520 Teco Road",
      "facStreet2Tx": null,
      "state": "FL",
      "zipCode": "33570",
      "zip4Code": null,
      "county": "HILLSBOROUGH",
      "facLatDecMs": "27.721389",
      "facLongDecMs": "-082.383611"
    },
    {
      "facilityId": 1000013258,
      "epaFacId": "100000029925",
      "facName": "Van Dyke Wastewater Treatment Plant",
      "city": "Odessa",
      "facStreet1Tx": "19140 Ramblewood Road",
      "facStreet2Tx": null,
      "state": "FL",
      "zipCode": "33556",
      "zip4Code": null,
      "county": "HILLSBOROUGH",
      "facLatDecMs": "28.137500",
      "facLongDecMs": "-082.633333"
    },
    {
      "facilityId": 14321,
      "epaFacId": "100000029943",
      "facName": "Greater Pine Island Reverse Osmosis WTP",
      "city": "St. James City",
      "facStreet1Tx": "9550 Stringfellow Road",
      "facStreet2Tx": null,
      "state": "FL",
      "zipCode": "33956",
      "zip4Code": null,
      "county": "LEE",
      "facLatDecMs": "26.599944",
      "facLongDecMs": "-82.113"
    },
    {
      "facilityId": 2410,
      "epaFacId": "100000030076",
      "facName": "Lake Park Water Plant",
      "city": "Tampa,",
      "facStreet1Tx": "17316 Dale Mabry Highway North",
      "facStreet2Tx": null,
      "state": "FL",
      "zipCode": "33549",
      "zip4Code": null,
      "county": "HILLSBOROUGH",
      "facLatDecMs": "28.136111",
      "facLongDecMs": "-82.5"
    },
    {
      "facilityId": 41755,
      "epaFacId": "100000030085",
      "facName": "River Oaks Advanced Wastewater Tratment Plant",
      "city": "Tampa",
      "facStreet1Tx": "8425 Sheldon Road North",
      "facStreet2Tx": null,
      "state": "FL",
      "zipCode": "33615",
      "zip4Code": null,
      "county": "HILLSBOROUGH",
      "facLatDecMs": "28.028889",
      "facLongDecMs": "-082.580556"
    },
    {
      "facilityId": 41754,
      "epaFacId": "100000030307",
      "facName": "Falkenburg Advanced Wastewater Treatment Plant",
      "city": "Tampa",
      "facStreet1Tx": "102 North Falkenburg Road",
      "facStreet2Tx": null,
      "state": "FL",
      "zipCode": "33619",
      "zip4Code": null,
      "county": "HILLSBOROUGH",
      "facLatDecMs": "27.953056",
      "facLongDecMs": "-082.341389"
    },
    {
      "facilityId": 1000111671,
      "epaFacId": "100000030469",
      "facName": "Hood Road Water Treatment Plant",
      "city": "Palm Beach Gardens",
      "facStreet1Tx": "4170 Hood Road",
      "facStreet2Tx": "",
      "state": "FL",
      "zipCode": "33410",
      "zip4Code": "",
      "county": "PALM BEACH",
      "facLatDecMs": "26.862778",
      "facLongDecMs": "-080.097333"
    },
    {
      "facilityId": 2550,
      "epaFacId": "100000031002",
      "facName": "Northwest Regional Potable Water Facility",
      "city": "Tampa",
      "facStreet1Tx": "12950 Fawnridge Road",
      "facStreet2Tx": null,
      "state": "FL",
      "zipCode": "33626",
      "zip4Code": null,
      "county": "HILLSBOROUGH",
      "facLatDecMs": "28.052778",
      "facLongDecMs": "-82.669444"
    },
    {
      "facilityId": 41757,
      "epaFacId": "100000031075",
      "facName": "Northwest Regional Water Reclamation Facility",
      "city": "Tampa",
      "facStreet1Tx": "10890 South Mobley Road",
      "facStreet2Tx": null,
      "state": "FL",
      "zipCode": "33626",
      "zip4Code": null,
      "county": "HILLSBOROUGH",
      "facLatDecMs": "28.071389",
      "facLongDecMs": "-082.610278"
    },
    {
      "facilityId": 1000013342,
      "epaFacId": "100000031084",
      "facName": "Dale Mabry Advanced Wastewater Treatment Plant",
      "city": "Tampa",
      "facStreet1Tx": "13055 Delwood Road",
      "facStreet2Tx": null,
      "state": "FL",
      "zipCode": "33624",
      "zip4Code": null,
      "county": "HILLSBOROUGH",
      "facLatDecMs": "28.072500",
      "facLongDecMs": "-082.525833"
    },
    {
      "facilityId": 1000107922,
      "epaFacId": "100000031333",
      "facName": "Kennedy Space Center",
      "city": "KSC",
      "facStreet1Tx": "SI-E2",
      "facStreet2Tx": "",
      "state": "FL",
      "zipCode": "32899",
      "zip4Code": "",
      "county": "BREVARD",
      "facLatDecMs": "28.454144",
      "facLongDecMs": "-080.549569"
    },
    {
      "facilityId": 41756,
      "epaFacId": "100000031404",
      "facName": "Valrico Advanced Wastewater Treatment Plant",
      "city": "Dover",
      "facStreet1Tx": "1167 Dover Road North",
      "facStreet2Tx": null,
      "state": "FL",
      "zipCode": "33527",
      "zip4Code": null,
      "county": "HILLSBOROUGH",
      "facLatDecMs": "27.958611",
      "facLongDecMs": "-082.229167"
    },
    {
      "facilityId": 1000094982,
      "epaFacId": "100000031627",
      "facName": "Commercial Warehousing T6",
      "city": "Winter Haven",
      "facStreet1Tx": "102 Industrial Blvd.",
      "facStreet2Tx": null,
      "state": "FL",
      "zipCode": "33880",
      "zip4Code": null,
      "county": "POLK",
      "facLatDecMs": "28.035167",
      "facLongDecMs": "-081.790389"
    },
    {
      "facilityId": 49901,
      "epaFacId": "100000031896",
      "facName": "District 1A - Water Treatment Plant",
      "city": "Lauderdale Lakes",
      "facStreet1Tx": "3701 N. State Rd. 7",
      "facStreet2Tx": null,
      "state": "FL",
      "zipCode": "33319",
      "zip4Code": "5609",
      "county": "BROWARD",
      "facLatDecMs": "26.171667",
      "facLongDecMs": "-080.203889"
    },
    {
      "facilityId": 42440,
      "epaFacId": "100000032109",
      "facName": "City of Palm Bay",
      "city": "Palm Bay",
      "facStreet1Tx": "1105 Troutman Blvd.",
      "facStreet2Tx": null,
      "state": "FL",
      "zipCode": "32905",
      "zip4Code": null,
      "county": "BREVARD",
      "facLatDecMs": "28.013300",
      "facLongDecMs": "-080.360500"
    },
    {
      "facilityId": 1000011821,
      "epaFacId": "100000032378",
      "facName": "City of Starke Wastewater Treatment Plant",
      "city": "Starke",
      "facStreet1Tx": "602 Edwards Road",
      "facStreet2Tx": null,
      "state": "FL",
      "zipCode": "32091",
      "zip4Code": null,
      "county": "BRADFORD",
      "facLatDecMs": "29.940556",
      "facLongDecMs": "-082.114722"
    },
    {
      "facilityId": 35560,
      "epaFacId": "100000032421",
      "facName": "Naval Air Station - Jacksonville",
      "city": "Jacksonville",
      "facStreet1Tx": "6500 Roosevelt. Blvd",
      "facStreet2Tx": null,
      "state": "FL",
      "zipCode": "32212",
      "zip4Code": "5000",
      "county": "DUVAL",
      "facLatDecMs": "30.236667",
      "facLongDecMs": "-081.682778"
    },
    {
      "facilityId": 1000090907,
      "epaFacId": "100000032467",
      "facName": "City of Palatka Platt Drew WWTP",
      "city": "Palatka",
      "facStreet1Tx": "3010 Browns Landing",
      "facStreet2Tx": null,
      "state": "FL",
      "zipCode": "32177",
      "zip4Code": null,
      "county": "PUTNAM",
      "facLatDecMs": "29.615833",
      "facLongDecMs": "-081.651111"
    },
    {
      "facilityId": 1000048511,
      "epaFacId": "100000032617",
      "facName": "R.C. Willis Water Treatment Plant",
      "city": "Palatka",
      "facStreet1Tx": "320 N. Moody Road",
      "facStreet2Tx": null,
      "state": "FL",
      "zipCode": "32177",
      "zip4Code": null,
      "county": "PUTNAM",
      "facLatDecMs": "29.652500",
      "facLongDecMs": "-081.681667"
    },
    {
      "facilityId": 1000113289,
      "epaFacId": "100000032751",
      "facName": "PGA Wastewater Treatment Plant",
      "city": "Palm Beach Gardens",
      "facStreet1Tx": "11498 Nursery Lane",
      "facStreet2Tx": "",
      "state": "FL",
      "zipCode": "33418",
      "zip4Code": "",
      "county": "PALM BEACH",
      "facLatDecMs": "26.855833",
      "facLongDecMs": "-080.143889"
    },
    {
      "facilityId": 49897,
      "epaFacId": "100000033331",
      "facName": "District 2A - Water Treatment Plant",
      "city": "Pompano Beach",
      "facStreet1Tx": "1390 NE 50th St.",
      "facStreet2Tx": null,
      "state": "FL",
      "zipCode": "33064",
      "zip4Code": "4921",
      "county": "BROWARD",
      "facLatDecMs": "26.292500",
      "facLongDecMs": "-080.106111"
    },
    {
      "facilityId": 1000112290,
      "epaFacId": "100000034321",
      "facName": "White Springs Agricultural Chemical, Inc.",
      "city": "White Springs",
      "facStreet1Tx": "15843 SE 78 Street",
      "facStreet2Tx": "",
      "state": "FL",
      "zipCode": "32096",
      "zip4Code": "",
      "county": "HAMILTON",
      "facLatDecMs": "30.442150",
      "facLongDecMs": "-82.784511"
    },
    {
      "facilityId": 32354,
      "epaFacId": "100000034802",
      "facName": "Auxiliary Water Plant",
      "city": "Sanford",
      "facStreet1Tx": "3100 Orlando Drive",
      "facStreet2Tx": null,
      "state": "FL",
      "zipCode": "32779",
      "zip4Code": null,
      "county": "SEMINOLE",
      "facLatDecMs": "28.770000",
      "facLongDecMs": "-081.280000"
    },
    {
      "facilityId": 1000104386,
      "epaFacId": "100000034811",
      "facName": "IFF Chemical Holdings Inc",
      "city": "Jacksonville",
      "facStreet1Tx": "2051 N. Lane Avenue",
      "facStreet2Tx": "",
      "state": "FL",
      "zipCode": "32254",
      "zip4Code": "1529",
      "county": "DUVAL",
      "facLatDecMs": "30.347778",
      "facLongDecMs": "-081.752222"
    },
    {
      "facilityId": 39424,
      "epaFacId": "100000034928",
      "facName": "Main Water Plant",
      "city": "Sanford",
      "facStreet1Tx": "3701 Country Club Road",
      "facStreet2Tx": null,
      "state": "FL",
      "zipCode": "32773",
      "zip4Code": null,
      "county": "SEMINOLE",
      "facLatDecMs": "28.790000",
      "facLongDecMs": "-081.320000"
    },
    {
      "facilityId": 41458,
      "epaFacId": "100000034991",
      "facName": "Main Water Plant",
      "city": "Sanford",
      "facStreet1Tx": "3701 Country Club Road",
      "facStreet2Tx": null,
      "state": "FL",
      "zipCode": "32773",
      "zip4Code": null,
      "county": "SEMINOLE",
      "facLatDecMs": "28.783873",
      "facLongDecMs": "-081.318508"
    },
    {
      "facilityId": 44879,
      "epaFacId": "100000035455",
      "facName": "Northwest Regional Dechlorination Facility",
      "city": "Tampa",
      "facStreet1Tx": "9320 West Waters Avenue",
      "facStreet2Tx": null,
      "state": "FL",
      "zipCode": "33608",
      "zip4Code": null,
      "county": "HILLSBOROUGH",
      "facLatDecMs": "27.570000",
      "facLongDecMs": "-082.054000"
    },
    {
      "facilityId": 1000002823,
      "epaFacId": "100000035589",
      "facName": "Hood Road Well Field",
      "city": "Palm Beach Gardens",
      "facStreet1Tx": "5944 Hood Road",
      "facStreet2Tx": null,
      "state": "FL",
      "zipCode": "33418",
      "zip4Code": null,
      "county": "PALM BEACH",
      "facLatDecMs": "26.861111",
      "facLongDecMs": "-080.128333"
    },
    {
      "facilityId": 1000004881,
      "epaFacId": "100000035874",
      "facName": "Lilac Street Repump Station",
      "city": "Palm Beach Gardens",
      "facStreet1Tx": "10245 Plant Drive",
      "facStreet2Tx": null,
      "state": "FL",
      "zipCode": "33410",
      "zip4Code": null,
      "county": "PALM BEACH",
      "facLatDecMs": "26.826944",
      "facLongDecMs": "-080.098333"
    },
    {
      "facilityId": 1000043689,
      "epaFacId": "100000035918",
      "facName": "Richard Road Water Treatment Plant",
      "city": "Lake Park",
      "facStreet1Tx": "1156 Richard Road",
      "facStreet2Tx": null,
      "state": "FL",
      "zipCode": "33410",
      "zip4Code": null,
      "county": "PALM BEACH",
      "facLatDecMs": "26.813611",
      "facLongDecMs": "-080.082778"
    },
    {
      "facilityId": 1000067537,
      "epaFacId": "100000036392",
      "facName": "North Regional Wastewater Treatment Plant",
      "city": "Pompano Beach",
      "facStreet1Tx": "2401 N. Powerline Rd.",
      "facStreet2Tx": null,
      "state": "FL",
      "zipCode": "33069",
      "zip4Code": "1233",
      "county": "BROWARD",
      "facLatDecMs": "26.261236",
      "facLongDecMs": "-080.154197"
    },
    {
      "facilityId": 48337,
      "epaFacId": "100000036622",
      "facName": "ALLIED UNIVERSAL CORPORATION",
      "city": "FT. PIERCE",
      "facStreet1Tx": "9501 RANGELINE ROAD",
      "facStreet2Tx": null,
      "state": "FL",
      "zipCode": "34987",
      "zip4Code": null,
      "county": "ST. LUCIE",
      "facLatDecMs": "27.293194",
      "facLongDecMs": "-080.481694"
    },
    {
      "facilityId": 1000103007,
      "epaFacId": "100000036631",
      "facName": "ALLIED UNIVERSAL CORPORATION",
      "city": "MIAMI",
      "facStreet1Tx": "8350 NW 93RD STREET",
      "facStreet2Tx": "",
      "state": "FL",
      "zipCode": "33166",
      "zip4Code": "2026",
      "county": "MIAMI-DADE",
      "facLatDecMs": "25.857466",
      "facLongDecMs": "-080.333619"
    },
    {
      "facilityId": 1000058120,
      "epaFacId": "100000037006",
      "facName": "Cutrale Citrus Juices USA, Inc.- Dade City",
      "city": "Dade City",
      "facStreet1Tx": "38000 Cargill Way",
      "facStreet2Tx": null,
      "state": "FL",
      "zipCode": "33523",
      "zip4Code": null,
      "county": "PASCO",
      "facLatDecMs": "28.377889",
      "facLongDecMs": "-082.187389"
    },
    {
      "facilityId": 17535,
      "epaFacId": "100000037122",
      "facName": "Charles B. Garnsey Water Treatment Plant",
      "city": "Port Orange",
      "facStreet1Tx": "4400 Wellfield Drive",
      "facStreet2Tx": null,
      "state": "FL",
      "zipCode": "32119",
      "zip4Code": null,
      "county": "VOLUSIA",
      "facLatDecMs": "29.081778",
      "facLongDecMs": "-81.016306"
    },
    {
      "facilityId": 1000106626,
      "epaFacId": "100000037177",
      "facName": "Wastewater Treatment Plant",
      "city": "Holly Hill",
      "facStreet1Tx": "453 LPGA Blvd.",
      "facStreet2Tx": "",
      "state": "FL",
      "zipCode": "32117",
      "zip4Code": "",
      "county": "VOLUSIA",
      "facLatDecMs": "29.243436",
      "facLongDecMs": "-081.045773"
    },
    {
      "facilityId": 53382,
      "epaFacId": "100000038176",
      "facName": "Lykes Meat Group, Inc. (Plant City)",
      "city": "Plant City",
      "facStreet1Tx": "4611 Lykes Rd",
      "facStreet2Tx": null,
      "state": "FL",
      "zipCode": "33566",
      "zip4Code": "0518",
      "county": "HILLSBOROUGH",
      "facLatDecMs": "27.997510",
      "facLongDecMs": "-082.168440"
    },
    {
      "facilityId": 1000103026,
      "epaFacId": "100000038906",
      "facName": "DeLand Regional Water Reclamation Facility",
      "city": "DeLand",
      "facStreet1Tx": "1101 S. Amelia Ave.",
      "facStreet2Tx": "",
      "state": "FL",
      "zipCode": "32724",
      "zip4Code": "6985",
      "county": "VOLUSIA",
      "facLatDecMs": "29.009000",
      "facLongDecMs": "-081.297904"
    },
    {
      "facilityId": 1000081639,
      "epaFacId": "100000039237",
      "facName": "W. E. Dunn Water Reclamation Facility",
      "city": "Palm Harbor",
      "facStreet1Tx": "4111 Dunn Drive",
      "facStreet2Tx": null,
      "state": "FL",
      "zipCode": "34683",
      "zip4Code": null,
      "county": "PINELLAS",
      "facLatDecMs": "28.111389",
      "facLongDecMs": "-082.768611"
    },
    {
      "facilityId": 15712,
      "epaFacId": "100000039273",
      "facName": "McKay Creek Wastewater Treatment Facility",
      "city": "Largo",
      "facStreet1Tx": "14800 118th Avenue North",
      "facStreet2Tx": null,
      "state": "FL",
      "zipCode": "34644",
      "zip4Code": null,
      "county": "PINELLAS",
      "facLatDecMs": "27.879444",
      "facLongDecMs": "-82.840833"
    },
    {
      "facilityId": 1000067459,
      "epaFacId": "100000039433",
      "facName": "Dean Dairy Holdings LLC",
      "city": "Miami",
      "facStreet1Tx": "6851 NE 2nd Avenue",
      "facStreet2Tx": null,
      "state": "FL",
      "zipCode": "33138",
      "zip4Code": null,
      "county": "MIAMI-DADE",
      "facLatDecMs": "25.837650",
      "facLongDecMs": "-080.192410"
    },
    {
      "facilityId": 45031,
      "epaFacId": "100000041288",
      "facName": "City of Altamonte Springs Water Treatment Plant #2",
      "city": "Altamonte Springs",
      "facStreet1Tx": "800 Oakland Road",
      "facStreet2Tx": null,
      "state": "FL",
      "zipCode": "32701",
      "zip4Code": "6856",
      "county": "SEMINOLE",
      "facLatDecMs": "28.646667",
      "facLongDecMs": "-081.371666"
    },
    {
      "facilityId": 1000046001,
      "epaFacId": "100000041395",
      "facName": "Keller Water Treatment Plant",
      "city": "Tarpon Springs",
      "facStreet1Tx": "3655 Keller Circle",
      "facStreet2Tx": null,
      "state": "FL",
      "zipCode": "34689",
      "zip4Code": null,
      "county": "PINELLAS",
      "facLatDecMs": "28.146944",
      "facLongDecMs": "-082.673056"
    },
    {
      "facilityId": 3306,
      "epaFacId": "100000041484",
      "facName": "Kissimmee West Water Reclamation Facility",
      "city": "Kissimmee",
      "facStreet1Tx": "3230 Reedy Creek Boulevard",
      "facStreet2Tx": null,
      "state": "FL",
      "zipCode": "34747",
      "zip4Code": null,
      "county": "OSCEOLA",
      "facLatDecMs": "28.342778",
      "facLongDecMs": "-81.582694"
    },
    {
      "facilityId": 1000054919,
      "epaFacId": "100000041493",
      "facName": "City of Punta Gorda Water Treatment Plant",
      "city": "Punta Gorda",
      "facStreet1Tx": "38100 Washington Loop Road",
      "facStreet2Tx": null,
      "state": "FL",
      "zipCode": "33982",
      "zip4Code": null,
      "county": "CHARLOTTE",
      "facLatDecMs": "26.975725",
      "facLongDecMs": "-081.935461"
    },
    {
      "facilityId": 1000011546,
      "epaFacId": "100000041536",
      "facName": "South Bermuda Water Reclamation Facility",
      "city": "Kissimmee",
      "facStreet1Tx": "1616 South Bermuda Avenue",
      "facStreet2Tx": null,
      "state": "FL",
      "zipCode": "34741",
      "zip4Code": null,
      "county": "OSCEOLA",
      "facLatDecMs": "28.330550",
      "facLongDecMs": "-081.416805"
    },
    {
      "facilityId": 35494,
      "epaFacId": "100000041607",
      "facName": "Parkway Water Reclamation Facility",
      "city": "Kissimmee",
      "facStreet1Tx": "2550 Fortune Road",
      "facStreet2Tx": null,
      "state": "FL",
      "zipCode": "34743",
      "zip4Code": null,
      "county": "OSCEOLA",
      "facLatDecMs": "28.312500",
      "facLongDecMs": "-081.322778"
    },
    {
      "facilityId": 1000011547,
      "epaFacId": "100000041652",
      "facName": "Camelot Water Reclamation Facility",
      "city": "Kissimmee",
      "facStreet1Tx": "5400 Camelot Country Way",
      "facStreet2Tx": null,
      "state": "FL",
      "zipCode": "34746",
      "zip4Code": null,
      "county": "OSCEOLA",
      "facLatDecMs": "28.320278",
      "facLongDecMs": "-081.500000"
    },
    {
      "facilityId": 35493,
      "epaFacId": "100000041689",
      "facName": "Sandhill Water Reclamation Facility",
      "city": "Kissimmee",
      "facStreet1Tx": "2200 Sandhill Road",
      "facStreet2Tx": null,
      "state": "FL",
      "zipCode": "34747",
      "zip4Code": null,
      "county": "OSCEOLA",
      "facLatDecMs": "28.300000",
      "facLongDecMs": "-081.608330"
    },
    {
      "facilityId": 35496,
      "epaFacId": "100000041723",
      "facName": "Parkway Water Treatment Plant",
      "city": "Kissimmee",
      "facStreet1Tx": "2107 Partin Settlement Road",
      "facStreet2Tx": null,
      "state": "FL",
      "zipCode": "34742",
      "zip4Code": null,
      "county": "OSCEOLA",
      "facLatDecMs": "28.280556",
      "facLongDecMs": "-081.363888"
    },
    {
      "facilityId": 45032,
      "epaFacId": "100000041956",
      "facName": "City of Altamonte Springs Water Treatment Plant #5",
      "city": "Altamonte Springs",
      "facStreet1Tx": "1207 McNeil Road",
      "facStreet2Tx": null,
      "state": "FL",
      "zipCode": "32714",
      "zip4Code": "5438",
      "county": "SEMINOLE",
      "facLatDecMs": "28.654722",
      "facLongDecMs": "-081.428337"
    },
    {
      "facilityId": 1000014791,
      "epaFacId": "100000042018",
      "facName": "City of Altamonte Springs Regional WRF",
      "city": "Altamonte Springs",
      "facStreet1Tx": "950 Keller Road",
      "facStreet2Tx": null,
      "state": "FL",
      "zipCode": "32714",
      "zip4Code": "1617",
      "county": "SEMINOLE",
      "facLatDecMs": "28.642499",
      "facLongDecMs": "-081.399719"
    },
    {
      "facilityId": 1000110223,
      "epaFacId": "100000042438",
      "facName": "Brenntag Mid-South, Inc.",
      "city": "Clearwater",
      "facStreet1Tx": "1575 Sunshine Drive",
      "facStreet2Tx": "",
      "state": "FL",
      "zipCode": "33765",
      "zip4Code": "",
      "county": "PINELLAS",
      "facLatDecMs": "27.981111",
      "facLongDecMs": "-082.749167"
    },
    {
      "facilityId": 14862,
      "epaFacId": "100000042991",
      "facName": "FLORIDA SELECT CITRUS, INC. - GROVELAND",
      "city": "GROVELAND",
      "facStreet1Tx": "305 W. BROAD STREET",
      "facStreet2Tx": null,
      "state": "FL",
      "zipCode": "34738",
      "zip4Code": null,
      "county": "LAKE",
      "facLatDecMs": "28.531944",
      "facLongDecMs": "-81.875"
    },
    {
      "facilityId": 3543,
      "epaFacId": "100000043213",
      "facName": "City of Casselberry - Howell Park Water Plant",
      "city": "Casselberry",
      "facStreet1Tx": "720 Semoran Blvd.",
      "facStreet2Tx": null,
      "state": "FL",
      "zipCode": "32707",
      "zip4Code": "5303",
      "county": "SEMINOLE",
      "facLatDecMs": "28.652111",
      "facLongDecMs": "-81.33"
    },
    {
      "facilityId": 1000045123,
      "epaFacId": "100000043393",
      "facName": "Oberly Pumping Station",
      "city": "St. Petersburg",
      "facStreet1Tx": "6198 66th Street North",
      "facStreet2Tx": "N/A",
      "state": "FL",
      "zipCode": "33709",
      "zip4Code": null,
      "county": "PINELLAS",
      "facLatDecMs": "27.828162",
      "facLongDecMs": "-082.728754"
    },
    {
      "facilityId": 12953,
      "epaFacId": "100000043428",
      "facName": "BSU Water Reclamation Facility",
      "city": "Bonita Springs",
      "facStreet1Tx": "25051 South Tamiami Trail",
      "facStreet2Tx": "N/A",
      "state": "FL",
      "zipCode": "33134",
      "zip4Code": null,
      "county": "LEE",
      "facLatDecMs": "26.375556",
      "facLongDecMs": "-81.802778"
    },
    {
      "facilityId": 12954,
      "epaFacId": "100000043455",
      "facName": "Albert Whittted Water Reclamation Facility",
      "city": "St. Petersburg",
      "facStreet1Tx": "601 Eighth Avenue Southeast",
      "facStreet2Tx": "N/A",
      "state": "FL",
      "zipCode": "33713",
      "zip4Code": null,
      "county": "PINELLAS",
      "facLatDecMs": "27.764444",
      "facLongDecMs": "-82.619167"
    },
    {
      "facilityId": 12955,
      "epaFacId": "100000043491",
      "facName": "Northeast Water Reclamation Facility",
      "city": "St. Petersburg",
      "facStreet1Tx": "1100 62nd Avenue Northeast",
      "facStreet2Tx": "N/A",
      "state": "FL",
      "zipCode": "33731",
      "zip4Code": null,
      "county": "PINELLAS",
      "facLatDecMs": "27.794444",
      "facLongDecMs": "-82.741667"
    },
    {
      "facilityId": 1000078923,
      "epaFacId": "100000043516",
      "facName": "Wastewater Treatment Plant",
      "city": "Punta Gorda",
      "facStreet1Tx": "30999 Bermont Road",
      "facStreet2Tx": null,
      "state": "FL",
      "zipCode": "33982",
      "zip4Code": null,
      "county": "CHARLOTTE",
      "facLatDecMs": "26.928709",
      "facLongDecMs": "-81.946895"
    },
    {
      "facilityId": 1000113754,
      "epaFacId": "100000043525",
      "facName": "Cosme Water Treatment Plant",
      "city": "Odessa",
      "facStreet1Tx": "16015 Racetrack Road",
      "facStreet2Tx": "N/A",
      "state": "FL",
      "zipCode": "33556",
      "zip4Code": "",
      "county": "HILLSBOROUGH",
      "facLatDecMs": "28.097161",
      "facLongDecMs": "-082.598260"
    },
    {
      "facilityId": 23624,
      "epaFacId": "100000043543",
      "facName": "Northwest Water Reclamation Facility",
      "city": "St. Petersburg",
      "facStreet1Tx": "7200 26th Avenue North",
      "facStreet2Tx": "N/A",
      "state": "FL",
      "zipCode": "33713",
      "zip4Code": null,
      "county": "PINELLAS",
      "facLatDecMs": "27.795",
      "facLongDecMs": "-82.741667"
    },
    {
      "facilityId": 3592,
      "epaFacId": "100000043598",
      "facName": "City of Casselberry - North Water Plant",
      "city": "Casselberyy",
      "facStreet1Tx": "530 Bridle Path",
      "facStreet2Tx": null,
      "state": "FL",
      "zipCode": "32707",
      "zip4Code": "3140",
      "county": "SEMINOLE",
      "facLatDecMs": "28.682944",
      "facLongDecMs": "-81.321528"
    },
    {
      "facilityId": 3594,
      "epaFacId": "100000043794",
      "facName": "City of Casselberry - South Water Plant",
      "city": "Casselberry",
      "facStreet1Tx": "100 Castleton Drive",
      "facStreet2Tx": null,
      "state": "FL",
      "zipCode": "32707",
      "zip4Code": null,
      "county": "SEMINOLE",
      "facLatDecMs": "28.6175",
      "facLongDecMs": "-81.311111"
    },
    {
      "facilityId": 10477,
      "epaFacId": "100000043838",
      "facName": "Fancy Flora Inc.",
      "city": "Miami",
      "facStreet1Tx": "19950 S.W. 216 Street",
      "facStreet2Tx": null,
      "state": "FL",
      "zipCode": "33170",
      "zip4Code": "3299",
      "county": "DADE",
      "facLatDecMs": "25.338694",
      "facLongDecMs": "-80.310306"
    },
    {
      "facilityId": 1000045036,
      "epaFacId": "100000043936",
      "facName": "Washington Terrace Pumping Station",
      "city": "St. Petersburg",
      "facStreet1Tx": "2801 66th Avenue North",
      "facStreet2Tx": "N/A",
      "state": "FL",
      "zipCode": "33703",
      "zip4Code": null,
      "county": "PINELLAS",
      "facLatDecMs": "27.832137",
      "facLongDecMs": "-082.671949"
    },
    {
      "facilityId": 23405,
      "epaFacId": "100000044098",
      "facName": "Brenntag Mid-South, Inc.",
      "city": "Jacksonville",
      "facStreet1Tx": "2940 West 45th ST",
      "facStreet2Tx": null,
      "state": "FL",
      "zipCode": "32209",
      "zip4Code": null,
      "county": "DUVAL",
      "facLatDecMs": "30.36",
      "facLongDecMs": "-81.74"
    },
    {
      "facilityId": 1000102955,
      "epaFacId": "100000044212",
      "facName": "Brenntag Mid-South, Inc.",
      "city": "ORLANDO",
      "facStreet1Tx": "250  CENTRAL FLORIDA PARKWAY",
      "facStreet2Tx": "",
      "state": "FL",
      "zipCode": "32824",
      "zip4Code": "7601",
      "county": "ORANGE",
      "facLatDecMs": "28.410000",
      "facLongDecMs": "-081.370000"
    },
    {
      "facilityId": 16397,
      "epaFacId": "100000044356",
      "facName": "Southwest Water Reclamation Facility",
      "city": "St. Petersburg",
      "facStreet1Tx": "3800 54th Avenue South",
      "facStreet2Tx": "N/A",
      "state": "FL",
      "zipCode": "33713",
      "zip4Code": null,
      "county": "PINELLAS",
      "facLatDecMs": "27.718056",
      "facLongDecMs": "-82.685833"
    },
    {
      "facilityId": 16398,
      "epaFacId": "100000044392",
      "facName": "BSU Water Treatment Plant",
      "city": "Bonita Springs",
      "facStreet1Tx": "11860 East Terry Street",
      "facStreet2Tx": "N/A",
      "state": "FL",
      "zipCode": "34135",
      "zip4Code": null,
      "county": "LEE",
      "facLatDecMs": "26.343889",
      "facLongDecMs": "-81.756111"
    },
    {
      "facilityId": 1000112487,
      "epaFacId": "100000044436",
      "facName": "Publix Super Markets, Inc.-Lakeland Facility",
      "city": "Lakeland",
      "facStreet1Tx": "Publix Super Markets-Lakeland",
      "facStreet2Tx": "3045 New Tampa Highway",
      "state": "FL",
      "zipCode": "33815",
      "zip4Code": "",
      "county": "POLK",
      "facLatDecMs": "28.038818",
      "facLongDecMs": "-082.006926"
    },
    {
      "facilityId": 1000101088,
      "epaFacId": "100000044542",
      "facName": "Publix Super Markets,Inc.-Deerfield Beach Facility",
      "city": "Deerfield",
      "facStreet1Tx": "Publix - Deerfield Beach Facility",
      "facStreet2Tx": "777 SW 12th Avenue",
      "state": "FL",
      "zipCode": "33442",
      "zip4Code": null,
      "county": "BROWARD",
      "facLatDecMs": "26.309013",
      "facLongDecMs": "-080.124144"
    },
    {
      "facilityId": 1000112796,
      "epaFacId": "100000044604",
      "facName": "Publix Super Markets, Inc.-Jacksonville Warehouse",
      "city": "Jacksonville",
      "facStreet1Tx": "9800 West Beaver Street",
      "facStreet2Tx": "",
      "state": "FL",
      "zipCode": "32220",
      "zip4Code": "2138",
      "county": "DUVAL",
      "facLatDecMs": "30.313686",
      "facLongDecMs": "-081.821747"
    },
    {
      "facilityId": 3678,
      "epaFacId": "100000045122",
      "facName": "City of Casselberry - Reclamation Facility",
      "city": "Casselberry",
      "facStreet1Tx": "700 Cross Street",
      "facStreet2Tx": null,
      "state": "FL",
      "zipCode": "32707",
      "zip4Code": null,
      "county": "SEMINOLE",
      "facLatDecMs": "28.682528",
      "facLongDecMs": "-81.316611"
    },
    {
      "facilityId": 3740,
      "epaFacId": "100000045168",
      "facName": "City of Ocala Water Treatment Plant",
      "city": "Ocala",
      "facStreet1Tx": "1808 NE 36th Ave",
      "facStreet2Tx": null,
      "state": "FL",
      "zipCode": "34470",
      "zip4Code": "4920",
      "county": "MARION",
      "facLatDecMs": "29.204833",
      "facLongDecMs": "-82.08725"
    },
    {
      "facilityId": 3741,
      "epaFacId": "100000045186",
      "facName": "Water Reclamation Facility #1",
      "city": "Ocala",
      "facStreet1Tx": "1220 NW Fourth Avenue",
      "facStreet2Tx": null,
      "state": "FL",
      "zipCode": "34475",
      "zip4Code": "1220",
      "county": "MARION",
      "facLatDecMs": "29.199722",
      "facLongDecMs": "-82.141111"
    },
    {
      "facilityId": 3743,
      "epaFacId": "100000045257",
      "facName": "Stuart Water Treatment Plant",
      "city": "Stuart",
      "facStreet1Tx": "Palm Beach Road And 10th Street",
      "facStreet2Tx": null,
      "state": "FL",
      "zipCode": "34994",
      "zip4Code": null,
      "county": "MARTIN",
      "facLatDecMs": "27.189444",
      "facLongDecMs": "-80.236889"
    },
    {
      "facilityId": 38784,
      "epaFacId": "100000045266",
      "facName": "Green Meadows Water Treatment Plant",
      "city": "Fort Myers",
      "facStreet1Tx": "13001 Alico Road",
      "facStreet2Tx": null,
      "state": "FL",
      "zipCode": "33913",
      "zip4Code": null,
      "county": "LEE",
      "facLatDecMs": "26.512723",
      "facLongDecMs": "-081.724441"
    },
    {
      "facilityId": 1000114452,
      "epaFacId": "100000046078",
      "facName": "Tanner Industries, Inc. - Apopka",
      "city": "Apopka",
      "facStreet1Tx": "2530 Vulcan Road",
      "facStreet2Tx": "",
      "state": "FL",
      "zipCode": "32703",
      "zip4Code": "",
      "county": "ORANGE",
      "facLatDecMs": "28.640833",
      "facLongDecMs": "-081.463056"
    },
    {
      "facilityId": 1000116477,
      "epaFacId": "100000046176",
      "facName": "South Cross Bayou AWRF",
      "city": "St. Petersburg",
      "facStreet1Tx": "7401 54th Ave N",
      "facStreet2Tx": "",
      "state": "FL",
      "zipCode": "33709",
      "zip4Code": "",
      "county": "PINELLAS",
      "facLatDecMs": "27.823417",
      "facLongDecMs": "-082.780139"
    },
    {
      "facilityId": 3642,
      "epaFacId": "100000046256",
      "facName": "Waterway Estates Water Treatment Plant",
      "city": "North Fort Myers",
      "facStreet1Tx": "4271 St. Clair Avenue",
      "facStreet2Tx": null,
      "state": "FL",
      "zipCode": "33903",
      "zip4Code": null,
      "county": "LEE",
      "facLatDecMs": "26.648889",
      "facLongDecMs": "-81.915833"
    },
    {
      "facilityId": 3647,
      "epaFacId": "100000046461",
      "facName": "Fiesta Village Wastewater Treatment Plant",
      "city": "Fort Myers",
      "facStreet1Tx": "1366 San Souci Drive",
      "facStreet2Tx": null,
      "state": "FL",
      "zipCode": "33919",
      "zip4Code": null,
      "county": "LEE",
      "facLatDecMs": "26.538611",
      "facLongDecMs": "-81.904444"
    },
    {
      "facilityId": 52713,
      "epaFacId": "100000047175",
      "facName": "A.M. Jones Water Plant 2008",
      "city": "Oviedo",
      "facStreet1Tx": "1600 Alafaya Woods Blvd.",
      "facStreet2Tx": null,
      "state": "FL",
      "zipCode": "32765",
      "zip4Code": null,
      "county": "SEMINOLE",
      "facLatDecMs": "28.651826",
      "facLongDecMs": "-081.189970"
    },
    {
      "facilityId": 1000039284,
      "epaFacId": "100000048272",
      "facName": "Pace Plant",
      "city": "Pace",
      "facStreet1Tx": "4575 Highway 90",
      "facStreet2Tx": null,
      "state": "FL",
      "zipCode": "32571",
      "zip4Code": null,
      "county": "SANTA ROSA",
      "facLatDecMs": "30.591389",
      "facLongDecMs": "-087.135833"
    },
    {
      "facilityId": 31680,
      "epaFacId": "100000049075",
      "facName": "City of Flagler Beach Water Treatment Plant",
      "city": "Flagler Beach",
      "facStreet1Tx": "4680 SEMINOLE WOODS BLVD.",
      "facStreet2Tx": null,
      "state": "FL",
      "zipCode": "32136",
      "zip4Code": null,
      "county": "FLAGLER",
      "facLatDecMs": "29.469889",
      "facLongDecMs": "-081.190611"
    },
    {
      "facilityId": 31679,
      "epaFacId": "100000049191",
      "facName": "City of Flagler Beach Wastewater Treatment Plant",
      "city": "Flagler Beach",
      "facStreet1Tx": "2000 Avenue A",
      "facStreet2Tx": null,
      "state": "FL",
      "zipCode": "32136",
      "zip4Code": null,
      "county": "FLAGLER",
      "facLatDecMs": "29.472222",
      "facLongDecMs": "-081.142500"
    },
    {
      "facilityId": 45610,
      "epaFacId": "100000049556",
      "facName": "Peele-Dixie Water Treatment Plant",
      "city": "Fort Lauderdale",
      "facStreet1Tx": "1500 South State Road 7",
      "facStreet2Tx": null,
      "state": "FL",
      "zipCode": "33317",
      "zip4Code": null,
      "county": "BROWARD",
      "facLatDecMs": "26.101389",
      "facLongDecMs": "-080.201111"
    },
    {
      "facilityId": 1000113207,
      "epaFacId": "100000049716",
      "facName": "Kraton Chemical, LLC-Pensacola, FL",
      "city": "Pensacola",
      "facStreet1Tx": "411 South Pace Blvd.",
      "facStreet2Tx": "",
      "state": "FL",
      "zipCode": "32502",
      "zip4Code": "5009",
      "county": "ESCAMBIA",
      "facLatDecMs": "30.408032",
      "facLongDecMs": "-087.241771"
    },
    {
      "facilityId": 1000050957,
      "epaFacId": "100000050008",
      "facName": "City of Largo Wastewater Reclamation Facility",
      "city": "Clearwater",
      "facStreet1Tx": "5000 150th Avenue North",
      "facStreet2Tx": null,
      "state": "FL",
      "zipCode": "33760",
      "zip4Code": null,
      "county": "PINELLAS",
      "facLatDecMs": "27.913667",
      "facLongDecMs": "-082.704222"
    },
    {
      "facilityId": 1000009190,
      "epaFacId": "100000050516",
      "facName": "Orange Cogeneration Facility",
      "city": "Bartow",
      "facStreet1Tx": "1901 Clear Springs Road",
      "facStreet2Tx": null,
      "state": "FL",
      "zipCode": "33830",
      "zip4Code": null,
      "county": "POLK",
      "facLatDecMs": "27.870833",
      "facLongDecMs": "-081.824444"
    },
    {
      "facilityId": 1000119247,
      "epaFacId": "100000050623",
      "facName": "Jacksonville-Sunoco LLC",
      "city": "Jacksonville",
      "facStreet1Tx": "5811 Buffalo Avenue",
      "facStreet2Tx": "",
      "state": "FL",
      "zipCode": "32208",
      "zip4Code": "",
      "county": "DUVAL",
      "facLatDecMs": "30.376116",
      "facLongDecMs": "-081.64035"
    },
    {
      "facilityId": 1000118566,
      "epaFacId": "100000050721",
      "facName": "George T. Lohmeyer Wastewater Treatment Plant",
      "city": "Fort Lauderdale",
      "facStreet1Tx": "1765 S.E. 18th Street",
      "facStreet2Tx": "",
      "state": "FL",
      "zipCode": "33316",
      "zip4Code": "",
      "county": "BROWARD",
      "facLatDecMs": "26.098700",
      "facLongDecMs": "-80.125793"
    },
    {
      "facilityId": 1000003300,
      "epaFacId": "100000050945",
      "facName": "United States Cold Storage, Miami 37th Avenue",
      "city": "Miami",
      "facStreet1Tx": "6983 NW 37th Avenue",
      "facStreet2Tx": null,
      "state": "FL",
      "zipCode": "33147",
      "zip4Code": "6513",
      "county": "MIAMI-DADE",
      "facLatDecMs": "25.836944",
      "facLongDecMs": "-080.257500"
    },
    {
      "facilityId": 1000103928,
      "epaFacId": "100000050972",
      "facName": "Rayonier Performance Fibers LLC Fernandina Plant",
      "city": "Fernandina Beach",
      "facStreet1Tx": "10 Gum Street",
      "facStreet2Tx": "",
      "state": "FL",
      "zipCode": "32034",
      "zip4Code": "",
      "county": "NASSAU",
      "facLatDecMs": "30.662500",
      "facLongDecMs": "-081.470000"
    },
    {
      "facilityId": 1000115883,
      "epaFacId": "100000051249",
      "facName": "Jupiter Water Treatment Plant",
      "city": "Jupiter",
      "facStreet1Tx": "17403 Central Blvd.",
      "facStreet2Tx": "",
      "state": "FL",
      "zipCode": "33458",
      "zip4Code": "8814",
      "county": "PALM BEACH",
      "facLatDecMs": "26.932732",
      "facLongDecMs": "-080.132960"
    },
    {
      "facilityId": 32018,
      "epaFacId": "100000051365",
      "facName": "Bay County Water Treatment Plant",
      "city": "Panama City",
      "facStreet1Tx": "3400 Transmitter Road",
      "facStreet2Tx": null,
      "state": "FL",
      "zipCode": "32404",
      "zip4Code": null,
      "county": "BAY",
      "facLatDecMs": "30.209444",
      "facLongDecMs": "-085.607500"
    },
    {
      "facilityId": 24039,
      "epaFacId": "100000051409",
      "facName": "TYSON FOODS, INC. JACKSONVILLE, FL.",
      "city": "JACKSONVILLE",
      "facStreet1Tx": "5421 WEST BEAVER ST.",
      "facStreet2Tx": null,
      "state": "FL",
      "zipCode": "32254",
      "zip4Code": null,
      "county": "DUVAL",
      "facLatDecMs": "30.320417",
      "facLongDecMs": "-81.7495"
    },
    {
      "facilityId": 15018,
      "epaFacId": "100000052514",
      "facName": "Polk County Van Fleet WPF",
      "city": "Davenport",
      "facStreet1Tx": "Waverly Barn Road",
      "facStreet2Tx": null,
      "state": "FL",
      "zipCode": "33837",
      "zip4Code": null,
      "county": "POLK",
      "facLatDecMs": "28.24325",
      "facLongDecMs": "-81.665139"
    },
    {
      "facilityId": 36070,
      "epaFacId": "100000052587",
      "facName": "Polk County Imperialakes WPF",
      "city": "Mulberry",
      "facStreet1Tx": "Old State Road 37",
      "facStreet2Tx": null,
      "state": "FL",
      "zipCode": "33860",
      "zip4Code": null,
      "county": "POLK",
      "facLatDecMs": "27.934611",
      "facLongDecMs": "-081.977750"
    },
    {
      "facilityId": 36060,
      "epaFacId": "100000053087",
      "facName": "Polk County Turner Road WPF",
      "city": "Mulberry",
      "facStreet1Tx": "Meadow Ridge Avenue",
      "facStreet2Tx": null,
      "state": "FL",
      "zipCode": "33860",
      "zip4Code": null,
      "county": "POLK",
      "facLatDecMs": "27.916139",
      "facLongDecMs": "-082.036889"
    },
    {
      "facilityId": 47099,
      "epaFacId": "100000053176",
      "facName": "Polk County Central Regional WWTF",
      "city": "Winter Haven",
      "facStreet1Tx": "Vaughn Road",
      "facStreet2Tx": null,
      "state": "FL",
      "zipCode": "33880",
      "zip4Code": null,
      "county": "POLK",
      "facLatDecMs": "27.972528",
      "facLongDecMs": "-081.792111"
    },
    {
      "facilityId": 1000090099,
      "epaFacId": "100000053229",
      "facName": "Wittkop Park Water Treatment Plant",
      "city": "Homestead",
      "facStreet1Tx": "N.W. 9th Street and 4th Avenue",
      "facStreet2Tx": null,
      "state": "FL",
      "zipCode": "33030",
      "zip4Code": null,
      "county": "MIAMI-DADE",
      "facLatDecMs": "25.478611",
      "facLongDecMs": "-080.485000"
    },
    {
      "facilityId": 17055,
      "epaFacId": "100000053247",
      "facName": "Polk County Southwest Regional WWTF",
      "city": "Mulberry",
      "facStreet1Tx": "4th Street",
      "facStreet2Tx": null,
      "state": "FL",
      "zipCode": "33860",
      "zip4Code": null,
      "county": "POLK",
      "facLatDecMs": "27.910028",
      "facLongDecMs": "-81.993111"
    },
    {
      "facilityId": 30877,
      "epaFacId": "100000053489",
      "facName": "City of Tampa Morris Bridge Water Treatment Plant",
      "city": "Tampa",
      "facStreet1Tx": "17101 Bruce B. Downs Hwy.",
      "facStreet2Tx": null,
      "state": "FL",
      "zipCode": "33647",
      "zip4Code": null,
      "county": "HILLSBOROUGH",
      "facLatDecMs": "28.117222",
      "facLongDecMs": "-082.374444"
    },
    {
      "facilityId": 1000090101,
      "epaFacId": "100000053979",
      "facName": "Harris Field Water Treatment Plant",
      "city": "Homestead",
      "facStreet1Tx": "U.S 1 and S.W. 312 Street",
      "facStreet2Tx": null,
      "state": "FL",
      "zipCode": "33030",
      "zip4Code": null,
      "county": "MIAMI-DADE",
      "facLatDecMs": "25.475556",
      "facLongDecMs": "-080.463889"
    },
    {
      "facilityId": 36059,
      "epaFacId": "100000054629",
      "facName": "Polk County Gordonville WPF",
      "city": "Winter Haven",
      "facStreet1Tx": "Sheffield Road",
      "facStreet2Tx": null,
      "state": "FL",
      "zipCode": "33880",
      "zip4Code": null,
      "county": "POLK",
      "facLatDecMs": "27.960389",
      "facLongDecMs": "-081.797472"
    },
    {
      "facilityId": 19399,
      "epaFacId": "100000054665",
      "facName": "Chem Lab Products, Inc.",
      "city": "Ocala",
      "facStreet1Tx": "6161 S.E. 78th Steet",
      "facStreet2Tx": null,
      "state": "FL",
      "zipCode": "34472",
      "zip4Code": "3408",
      "county": "MARION",
      "facLatDecMs": "29.168611",
      "facLongDecMs": "-82.094194"
    },
    {
      "facilityId": 15182,
      "epaFacId": "100000054736",
      "facName": "R. Dwayne Huffman Reclaimed Water Plant",
      "city": "Port Orange",
      "facStreet1Tx": "817 Oak Street",
      "facStreet2Tx": null,
      "state": "FL",
      "zipCode": "32127",
      "zip4Code": null,
      "county": "VOLUSIA",
      "facLatDecMs": "29.136111",
      "facLongDecMs": "-80.994722"
    },
    {
      "facilityId": 1000098184,
      "epaFacId": "100000054754",
      "facName": "Cheney Brothers Inc. (Riviera Beach)",
      "city": "Riviera Beach",
      "facStreet1Tx": "1 Cheney Way",
      "facStreet2Tx": "",
      "state": "FL",
      "zipCode": "33404",
      "zip4Code": "7000",
      "county": "PALM BEACH",
      "facLatDecMs": "26.767820",
      "facLongDecMs": "-080.092630"
    },
    {
      "facilityId": 1000041841,
      "epaFacId": "100000055003",
      "facName": "Unilever",
      "city": "Clearwater",
      "facStreet1Tx": "5400 118th Avenue North",
      "facStreet2Tx": null,
      "state": "FL",
      "zipCode": "33760",
      "zip4Code": "4315",
      "county": "PINELLAS",
      "facLatDecMs": "27.878333",
      "facLongDecMs": "-082.707222"
    },
    {
      "facilityId": 34187,
      "epaFacId": "100000055101",
      "facName": "South Central Regional Wastewater Treatment Plant",
      "city": "Delray Beach",
      "facStreet1Tx": "1801 North Congress Avenue",
      "facStreet2Tx": null,
      "state": "FL",
      "zipCode": "33445",
      "zip4Code": null,
      "county": "PALM BEACH",
      "facLatDecMs": "26.482778",
      "facLongDecMs": "-080.088889"
    },
    {
      "facilityId": 35244,
      "epaFacId": "100000055842",
      "facName": "Tamarac Water Treatment Plant",
      "city": "Tamarac",
      "facStreet1Tx": "Tamarac Water Treatment Plant",
      "facStreet2Tx": "7803 Northwest 61st Street",
      "state": "FL",
      "zipCode": "33321",
      "zip4Code": null,
      "county": "BROWARD",
      "facLatDecMs": "26.201111",
      "facLongDecMs": "-080.256389"
    },
    {
      "facilityId": 42551,
      "epaFacId": "100000056128",
      "facName": "Leesburg Wastewater Treatment Plant",
      "city": "Leesburg",
      "facStreet1Tx": "608 North Canal Street",
      "facStreet2Tx": null,
      "state": "FL",
      "zipCode": "34749",
      "zip4Code": "0630",
      "county": "LAKE",
      "facLatDecMs": "28.816222",
      "facLongDecMs": "-081.872250"
    },
    {
      "facilityId": 4575,
      "epaFacId": "100000056208",
      "facName": "City Of Cocoa Beach Water Reclamation Facility",
      "city": "Cocoa Beach",
      "facStreet1Tx": "1600 Minuteman Causeway",
      "facStreet2Tx": null,
      "state": "FL",
      "zipCode": "32931",
      "zip4Code": null,
      "county": "BREVARD",
      "facLatDecMs": "28.318056",
      "facLongDecMs": "-80.616667"
    },
    {
      "facilityId": 1000003302,
      "epaFacId": "100000056226",
      "facName": "United States Cold Storage,Sand Lake",
      "city": "Orlando",
      "facStreet1Tx": "2292 Sand Lake Road",
      "facStreet2Tx": null,
      "state": "FL",
      "zipCode": "32809",
      "zip4Code": "7638",
      "county": "ORANGE",
      "facLatDecMs": "28.449722",
      "facLongDecMs": "-081.411667"
    },
    {
      "facilityId": 1000091384,
      "epaFacId": "100000057644",
      "facName": "Fiveash Water Treatment Plant",
      "city": "Fort Lauderdale",
      "facStreet1Tx": "4321 NW 9th Avenue",
      "facStreet2Tx": "",
      "state": "FL",
      "zipCode": "33309",
      "zip4Code": "",
      "county": "BROWARD",
      "facLatDecMs": "26.178036",
      "facLongDecMs": "-080.156114"
    },
    {
      "facilityId": 1000093125,
      "epaFacId": "100000057751",
      "facName": "Florida's Natural Growers, Inc.",
      "city": "Lake Wales",
      "facStreet1Tx": "20205 US HWY 27 N",
      "facStreet2Tx": "",
      "state": "FL",
      "zipCode": "33853",
      "zip4Code": "3025",
      "county": "POLK",
      "facLatDecMs": "27.909614",
      "facLongDecMs": "-081.600433"
    },
    {
      "facilityId": 36469,
      "epaFacId": "100000057902",
      "facName": "Foamex LP",
      "city": "Orlando",
      "facStreet1Tx": "1351 Gemini Blvd",
      "facStreet2Tx": null,
      "state": "FL",
      "zipCode": "32837",
      "zip4Code": null,
      "county": "ORANGE",
      "facLatDecMs": "28.404321",
      "facLongDecMs": "-081.397092"
    },
    {
      "facilityId": 4550,
      "epaFacId": "100000058331",
      "facName": "City of Boca Raton Utility Services",
      "city": "Boca Raton",
      "facStreet1Tx": "1401 Glades Road",
      "facStreet2Tx": null,
      "state": "FL",
      "zipCode": "33431",
      "zip4Code": null,
      "county": "PALM BEACH",
      "facLatDecMs": "26.3675",
      "facLongDecMs": "-80.111778"
    },
    {
      "facilityId": 35737,
      "epaFacId": "100000058938",
      "facName": "Key West Wastewater Treatment Plant",
      "city": "Key West Florida",
      "facStreet1Tx": "OMI Trumbo Point Annex Fleming Key",
      "facStreet2Tx": null,
      "state": "FL",
      "zipCode": "33041",
      "zip4Code": null,
      "county": "MONROE",
      "facLatDecMs": "24.569167",
      "facLongDecMs": "-081.797500"
    },
    {
      "facilityId": 33035,
      "epaFacId": "100000059232",
      "facName": "Cooper City Utilities",
      "city": "Cooper City",
      "facStreet1Tx": "11791 SW 49 Street",
      "facStreet2Tx": null,
      "state": "FL",
      "zipCode": "33330",
      "zip4Code": null,
      "county": "BROWARD",
      "facLatDecMs": "26.061389",
      "facLongDecMs": "-080.305000"
    },
    {
      "facilityId": 1000096625,
      "epaFacId": "100000059848",
      "facName": "David L.Tippin Water Treatment Facility",
      "city": "Tampa",
      "facStreet1Tx": "7125 N. 30th Street",
      "facStreet2Tx": null,
      "state": "FL",
      "zipCode": "33610",
      "zip4Code": null,
      "county": "HILLSBOROUGH",
      "facLatDecMs": "28.015556",
      "facLongDecMs": "-82.424444"
    },
    {
      "facilityId": 1000106971,
      "epaFacId": "100000059946",
      "facName": "FXI, Inc. - Miami",
      "city": "MIAMI",
      "facStreet1Tx": "3225 NW 107TH ST.",
      "facStreet2Tx": "",
      "state": "FL",
      "zipCode": "33167",
      "zip4Code": "",
      "county": "MIAMI-DADE",
      "facLatDecMs": "25.871111",
      "facLongDecMs": "-080.251111"
    },
    {
      "facilityId": 1000105130,
      "epaFacId": "100000060257",
      "facName": "NV Regional Wastewater Treatment facility",
      "city": "Niceville",
      "facStreet1Tx": "507 Highway 85 North",
      "facStreet2Tx": "",
      "state": "FL",
      "zipCode": "32578",
      "zip4Code": "",
      "county": "OKALOOSA",
      "facLatDecMs": "30.531417",
      "facLongDecMs": "-086.493028"
    },
    {
      "facilityId": 40835,
      "epaFacId": "100000061737",
      "facName": "Oviedo Water Plant",
      "city": "Oviedo",
      "facStreet1Tx": "707 South Central Avenue",
      "facStreet2Tx": null,
      "state": "FL",
      "zipCode": "32765",
      "zip4Code": null,
      "county": "SEMINOLE",
      "facLatDecMs": "28.660250",
      "facLongDecMs": "-081.208333"
    },
    {
      "facilityId": 1000111934,
      "epaFacId": "100000062237",
      "facName": "Airgas Specialty Products Inc., Davenport, FL",
      "city": "Davenport",
      "facStreet1Tx": "3600 County Road 547 North",
      "facStreet2Tx": "",
      "state": "FL",
      "zipCode": "33837",
      "zip4Code": "",
      "county": "POLK",
      "facLatDecMs": "28.2165",
      "facLongDecMs": "-081.585205"
    },
    {
      "facilityId": 1000113385,
      "epaFacId": "100000062415",
      "facName": "Peace River Cold Storage, LLC.",
      "city": "Frostproof",
      "facStreet1Tx": "100 East 6th Street",
      "facStreet2Tx": "",
      "state": "FL",
      "zipCode": "33843",
      "zip4Code": "2000",
      "county": "POLK",
      "facLatDecMs": "27.738889",
      "facLongDecMs": "-081.531944"
    },
    {
      "facilityId": 5056,
      "epaFacId": "100000062932",
      "facName": "Wastewater Treatment Plant # 2",
      "city": "Winter Haven",
      "facStreet1Tx": "3190 Lake Conine Drive West",
      "facStreet2Tx": null,
      "state": "FL",
      "zipCode": "33884",
      "zip4Code": null,
      "county": "POLK",
      "facLatDecMs": "28.053611",
      "facLongDecMs": "-81.728889"
    },
    {
      "facilityId": 41944,
      "epaFacId": "100000062996",
      "facName": "System I (North) Water Treatment Plant",
      "city": "Davie",
      "facStreet1Tx": "3790 S.W. 64th Avenue",
      "facStreet2Tx": null,
      "state": "FL",
      "zipCode": "33024",
      "zip4Code": null,
      "county": "BROWARD",
      "facLatDecMs": "26.074667",
      "facLongDecMs": "-080.231667"
    },
    {
      "facilityId": 1000090348,
      "epaFacId": "100000063021",
      "facName": "Banner Apollo Miami Freezer",
      "city": "North Miami Beach",
      "facStreet1Tx": "18770 Northeast 6th Ave.",
      "facStreet2Tx": null,
      "state": "FL",
      "zipCode": "33179",
      "zip4Code": null,
      "county": "MIAMI-DADE",
      "facLatDecMs": "25.948056",
      "facLongDecMs": "-80.190278"
    },
    {
      "facilityId": 41774,
      "epaFacId": "100000063067",
      "facName": "CITY OF ST. AUGUSTINE WWTP 2004",
      "city": "ST. AUGUSTINE",
      "facStreet1Tx": "501 RIBERIA STREET",
      "facStreet2Tx": null,
      "state": "FL",
      "zipCode": "32084",
      "zip4Code": null,
      "county": "ST. JOHNS",
      "facLatDecMs": "29.876300",
      "facLongDecMs": "-081.309700"
    },
    {
      "facilityId": 41984,
      "epaFacId": "100000063076",
      "facName": "System III (South) Water Treatment Plant",
      "city": "Davie",
      "facStreet1Tx": "3500 N.W. 76 Avenue",
      "facStreet2Tx": null,
      "state": "FL",
      "zipCode": "33024",
      "zip4Code": null,
      "county": "BROWARD",
      "facLatDecMs": "26.040944",
      "facLongDecMs": "-080.242361"
    },
    {
      "facilityId": 5057,
      "epaFacId": "100000063129",
      "facName": "Winterset Gardens Water Treatment Plant",
      "city": "Winter Haven",
      "facStreet1Tx": "6501 Eloise Loop Road",
      "facStreet2Tx": null,
      "state": "FL",
      "zipCode": "33884",
      "zip4Code": null,
      "county": "POLK",
      "facLatDecMs": "27.963611",
      "facLongDecMs": "-81.685"
    },
    {
      "facilityId": 5058,
      "epaFacId": "100000063218",
      "facName": "Winterset Water Treatment Plant",
      "city": "Winter Haven",
      "facStreet1Tx": "6041 Cypress Gardens Blvd.",
      "facStreet2Tx": null,
      "state": "FL",
      "zipCode": "33884",
      "zip4Code": null,
      "county": "POLK",
      "facLatDecMs": "27.978889",
      "facLongDecMs": "-81.668889"
    },
    {
      "facilityId": 5059,
      "epaFacId": "100000063263",
      "facName": "Ridge Vo-Tech Water Treatment Plant",
      "city": "Winter Haven",
      "facStreet1Tx": "7700 SR. 544",
      "facStreet2Tx": null,
      "state": "FL",
      "zipCode": "33881",
      "zip4Code": null,
      "county": "POLK",
      "facLatDecMs": "28.078333",
      "facLongDecMs": "-81.655278"
    },
    {
      "facilityId": 5060,
      "epaFacId": "100000063398",
      "facName": "Inwood Water Treatment Plant",
      "city": "Winter Haven",
      "facStreet1Tx": "3401 Ave. T NW.",
      "facStreet2Tx": null,
      "state": "FL",
      "zipCode": "33880",
      "zip4Code": null,
      "county": "POLK",
      "facLatDecMs": "28.044722",
      "facLongDecMs": "-81.768889"
    },
    {
      "facilityId": 5061,
      "epaFacId": "100000063478",
      "facName": "Third Street Water Treatment Plant",
      "city": "Winter Haven",
      "facStreet1Tx": "250 Post Ave. SW.",
      "facStreet2Tx": null,
      "state": "FL",
      "zipCode": "33880",
      "zip4Code": null,
      "county": "POLK",
      "facLatDecMs": "28.005833",
      "facLongDecMs": "-81.73"
    },
    {
      "facilityId": 5062,
      "epaFacId": "100000063539",
      "facName": "Fairfax Water Treatment Plant",
      "city": "Winter Haven",
      "facStreet1Tx": "1334 Fairfax Street NE.",
      "facStreet2Tx": null,
      "state": "FL",
      "zipCode": "33880",
      "zip4Code": null,
      "county": "POLK",
      "facLatDecMs": "28.036667",
      "facLongDecMs": "-81.719444"
    },
    {
      "facilityId": 47672,
      "epaFacId": "100000063548",
      "facName": "East Advanced Pollution Control Facility",
      "city": "Clearwater",
      "facStreet1Tx": "3141 Gulf-to-Bay Boulevard",
      "facStreet2Tx": null,
      "state": "FL",
      "zipCode": "34619",
      "zip4Code": null,
      "county": "PINELLAS",
      "facLatDecMs": "27.960556",
      "facLongDecMs": "-082.706944"
    },
    {
      "facilityId": 5192,
      "epaFacId": "100000063628",
      "facName": "Reservoir 1",
      "city": "Clearwater",
      "facStreet1Tx": "500 North Saturn Avenue",
      "facStreet2Tx": null,
      "state": "FL",
      "zipCode": "34615",
      "zip4Code": null,
      "county": "PINELLAS",
      "facLatDecMs": "27.970556",
      "facLongDecMs": "-82.765278"
    },
    {
      "facilityId": 47670,
      "epaFacId": "100000063646",
      "facName": "Marshall St. Advanced Pollution Control Facility",
      "city": "Clearwater",
      "facStreet1Tx": "1605 Harbor Drive",
      "facStreet2Tx": null,
      "state": "FL",
      "zipCode": "34615",
      "zip4Code": null,
      "county": "PINELLAS",
      "facLatDecMs": "27.981389",
      "facLongDecMs": "-082.788333"
    },
    {
      "facilityId": 5063,
      "epaFacId": "100000063664",
      "facName": "Wastewater Treatment Plant # 3",
      "city": "Winter Haven",
      "facStreet1Tx": "4400 Pollard Road",
      "facStreet2Tx": null,
      "state": "FL",
      "zipCode": "33884",
      "zip4Code": null,
      "county": "POLK",
      "facLatDecMs": "27.953056",
      "facLongDecMs": "-81.710278"
    },
    {
      "facilityId": 5194,
      "epaFacId": "100000063673",
      "facName": "Reservoir 2",
      "city": "Clearwater",
      "facStreet1Tx": "21133 U.S. Highway 19 North",
      "facStreet2Tx": null,
      "state": "FL",
      "zipCode": "34619",
      "zip4Code": null,
      "county": "PINELLAS",
      "facLatDecMs": "27.966944",
      "facLongDecMs": "-82.729444"
    },
    {
      "facilityId": 5200,
      "epaFacId": "100000064173",
      "facName": "Northeast Advanced Pollution Control Facility",
      "city": "Clearwater",
      "facStreet1Tx": "3290 State Road 580",
      "facStreet2Tx": null,
      "state": "FL",
      "zipCode": "34695",
      "zip4Code": null,
      "county": "PINELLAS",
      "facLatDecMs": "28.023056",
      "facLongDecMs": "-82.708611"
    },
    {
      "facilityId": 5201,
      "epaFacId": "100000064217",
      "facName": "Reservoir 3",
      "city": "Clearwater",
      "facStreet1Tx": "2775 State Road 580",
      "facStreet2Tx": null,
      "state": "FL",
      "zipCode": "34621",
      "zip4Code": null,
      "county": "PINELLAS",
      "facLatDecMs": "28.019167",
      "facLongDecMs": "-82.720833"
    },
    {
      "facilityId": 1000011503,
      "epaFacId": "100000064636",
      "facName": "CITY OF ST. AUGUSTINE WTP 2009",
      "city": "ST. AUGUSTINE",
      "facStreet1Tx": "254 WEST KING STREET",
      "facStreet2Tx": null,
      "state": "FL",
      "zipCode": "32084",
      "zip4Code": "4043",
      "county": "ST. JOHNS",
      "facLatDecMs": "29.891100",
      "facLongDecMs": "-081.330010"
    },
    {
      "facilityId": 1000107442,
      "epaFacId": "100000064887",
      "facName": "Palatka Operations",
      "city": "Palatka",
      "facStreet1Tx": "215 County Road 216",
      "facStreet2Tx": "",
      "state": "FL",
      "zipCode": "32177",
      "zip4Code": "",
      "county": "PUTNAM",
      "facLatDecMs": "29.676111",
      "facLongDecMs": "-081.679167"
    },
    {
      "facilityId": 1000117211,
      "epaFacId": "100000065797",
      "facName": "FKAA J. Robert Dean Water Treatment Plant",
      "city": "Florida City",
      "facStreet1Tx": "35400 SW 192 Ave.",
      "facStreet2Tx": "",
      "state": "FL",
      "zipCode": "33034",
      "zip4Code": "",
      "county": "MIAMI-DADE",
      "facLatDecMs": "25.439268",
      "facLongDecMs": "-080.507475"
    },
    {
      "facilityId": 1000101087,
      "epaFacId": "100000065993",
      "facName": "Water Treatment Plant #2",
      "city": "Fernandina Beach",
      "facStreet1Tx": "2203 Ryan Road",
      "facStreet2Tx": null,
      "state": "FL",
      "zipCode": "32034",
      "zip4Code": null,
      "county": "NASSAU",
      "facLatDecMs": "30.638411",
      "facLongDecMs": "-081.445217"
    },
    {
      "facilityId": 1000021296,
      "epaFacId": "100000067036",
      "facName": "Industrial Wastewater Treatment Plant",
      "city": "Port St. Joe",
      "facStreet1Tx": "455 County Road  382",
      "facStreet2Tx": null,
      "state": "FL",
      "zipCode": "32457",
      "zip4Code": null,
      "county": "GULF",
      "facLatDecMs": "29.822389",
      "facLongDecMs": "-085.309306"
    },
    {
      "facilityId": 1000101067,
      "epaFacId": "100000067116",
      "facName": "Water Treatment Plant #1",
      "city": "Fernandina Beach",
      "facStreet1Tx": "20 North 11th Street",
      "facStreet2Tx": null,
      "state": "FL",
      "zipCode": "32034",
      "zip4Code": null,
      "county": "NASSAU",
      "facLatDecMs": "30.671106",
      "facLongDecMs": "-81.456031"
    },
    {
      "facilityId": 45232,
      "epaFacId": "100000067134",
      "facName": "Water Treatment Plant",
      "city": "Port St. Joe",
      "facStreet1Tx": "Water Plant Road",
      "facStreet2Tx": null,
      "state": "FL",
      "zipCode": "32457",
      "zip4Code": null,
      "county": "GULF",
      "facLatDecMs": "29.829333",
      "facLongDecMs": "-085.300139"
    },
    {
      "facilityId": 31368,
      "epaFacId": "100000068017",
      "facName": "Jack M. Berry, Inc.",
      "city": "Alva",
      "facStreet1Tx": "3655 State Road 80 West",
      "facStreet2Tx": null,
      "state": "FL",
      "zipCode": "33920",
      "zip4Code": "9501",
      "county": "HENDRY",
      "facLatDecMs": "26.718333",
      "facLongDecMs": "-081.496667"
    },
    {
      "facilityId": 1000112800,
      "epaFacId": "100000068749",
      "facName": "Lee County Solid Waste Resource Recovery Facility",
      "city": "Fort Myers",
      "facStreet1Tx": "10500 Buckingham Road",
      "facStreet2Tx": "Suite 400",
      "state": "FL",
      "zipCode": "33905",
      "zip4Code": "",
      "county": "LEE",
      "facLatDecMs": "26.631667",
      "facLongDecMs": "-081.755833"
    },
    {
      "facilityId": 1000068481,
      "epaFacId": "100000070996",
      "facName": "Genpak LLC - Sebring",
      "city": "Sebring",
      "facStreet1Tx": "116 Shicane Drive",
      "facStreet2Tx": null,
      "state": "FL",
      "zipCode": "33870",
      "zip4Code": "7530",
      "county": "HIGHLANDS",
      "facLatDecMs": "27.456111",
      "facLongDecMs": "-81.356389"
    },
    {
      "facilityId": 1000110610,
      "epaFacId": "100000071398",
      "facName": "Florida's Natural Growers, Inc. Umatilla",
      "city": "Umatilla",
      "facStreet1Tx": "38851 State Road 19",
      "facStreet2Tx": "",
      "state": "FL",
      "zipCode": "32784",
      "zip4Code": "",
      "county": "LAKE",
      "facLatDecMs": "28.911666",
      "facLongDecMs": "-081.676666"
    },
    {
      "facilityId": 1000088242,
      "epaFacId": "100000071566",
      "facName": "North Beal Extension Site",
      "city": "Fort Walton Beach",
      "facStreet1Tx": "1564 Percy L Coleman Road",
      "facStreet2Tx": null,
      "state": "FL",
      "zipCode": "32547",
      "zip4Code": null,
      "county": "OKALOOSA",
      "facLatDecMs": "30.470470",
      "facLongDecMs": "-086.636039"
    },
    {
      "facilityId": 39411,
      "epaFacId": "100000071959",
      "facName": "City of Wildwood Wastewater Treatment Plant",
      "city": "Wildwood",
      "facStreet1Tx": "1290 Industrial Drive",
      "facStreet2Tx": null,
      "state": "FL",
      "zipCode": "34785",
      "zip4Code": null,
      "county": "SUMTER",
      "facLatDecMs": "28.850000",
      "facLongDecMs": "-082.050000"
    },
    {
      "facilityId": 1000083968,
      "epaFacId": "100000072093",
      "facName": "Peddie Chemical Company, Inc.",
      "city": "Tallahassee",
      "facStreet1Tx": "730 Blountstown Street",
      "facStreet2Tx": null,
      "state": "FL",
      "zipCode": "32304",
      "zip4Code": null,
      "county": "LEON",
      "facLatDecMs": "30.443417",
      "facLongDecMs": "-084.348000"
    },
    {
      "facilityId": 5840,
      "epaFacId": "100000072226",
      "facName": "Jamela Water Plant",
      "city": "Ocoee",
      "facStreet1Tx": "1108 Jamela Drive",
      "facStreet2Tx": null,
      "state": "FL",
      "zipCode": "34761",
      "zip4Code": null,
      "county": "ORANGE",
      "facLatDecMs": "28.586667",
      "facLongDecMs": "81.533056"
    },
    {
      "facilityId": 5969,
      "epaFacId": "100000072235",
      "facName": "Central Water Treatment Plant",
      "city": "Plantation",
      "facStreet1Tx": "700 NW 91 Ave",
      "facStreet2Tx": null,
      "state": "FL",
      "zipCode": "33324",
      "zip4Code": null,
      "county": "BROWARD",
      "facLatDecMs": "26.125",
      "facLongDecMs": "-80.266667"
    },
    {
      "facilityId": 1000092131,
      "epaFacId": "100000072565",
      "facName": "Gordon Food Service Plant City",
      "city": "Plant City",
      "facStreet1Tx": "1410 Gordon Food Service Drive",
      "facStreet2Tx": null,
      "state": "FL",
      "zipCode": "33563",
      "zip4Code": "7000",
      "county": "HILLSBOROUGH",
      "facLatDecMs": "28.003783",
      "facLongDecMs": "-082.110033"
    },
    {
      "facilityId": 1000079901,
      "epaFacId": "100000072574",
      "facName": "City of Tarpon Springs Wastewater Facility",
      "city": "Tarpon Springs",
      "facStreet1Tx": "201 East Pine Street",
      "facStreet2Tx": null,
      "state": "FL",
      "zipCode": "34689",
      "zip4Code": null,
      "county": "PINELLAS",
      "facLatDecMs": "28.090600",
      "facLongDecMs": "-82.7544841"
    },
    {
      "facilityId": 1000111344,
      "epaFacId": "100000073001",
      "facName": "Tropicana Manufacturing Company, Inc.",
      "city": "Bradenton",
      "facStreet1Tx": "1001 13th Avenue East",
      "facStreet2Tx": "",
      "state": "FL",
      "zipCode": "34208",
      "zip4Code": "",
      "county": "MANATEE",
      "facLatDecMs": "27.488056",
      "facLongDecMs": "-082.554722"
    },
    {
      "facilityId": 1000093535,
      "epaFacId": "100000073742",
      "facName": "Black Point Ammonia Terminal",
      "city": "Tampa",
      "facStreet1Tx": "3421 Port Sutton Road",
      "facStreet2Tx": "",
      "state": "FL",
      "zipCode": "33619",
      "zip4Code": "9625",
      "county": "HILLSBOROUGH",
      "facLatDecMs": "27.905300",
      "facLongDecMs": "-082.424200"
    },
    {
      "facilityId": 44219,
      "epaFacId": "100000074402",
      "facName": "Water Treatment Plant #3 (Wymore)",
      "city": "Winter Park",
      "facStreet1Tx": "925 N. Wymore Road",
      "facStreet2Tx": null,
      "state": "FL",
      "zipCode": "32789",
      "zip4Code": "1769",
      "county": "ORANGE",
      "facLatDecMs": "28.606944",
      "facLongDecMs": "-081.384722"
    },
    {
      "facilityId": 6015,
      "epaFacId": "100000074509",
      "facName": "Magnolia Water Treatment Plant (#4 )",
      "city": "Winter Park",
      "facStreet1Tx": "1960 Magnolia Avenue",
      "facStreet2Tx": null,
      "state": "FL",
      "zipCode": "32789",
      "zip4Code": null,
      "county": "ORANGE",
      "facLatDecMs": "28.621111",
      "facLongDecMs": "81.326389"
    },
    {
      "facilityId": 6016,
      "epaFacId": "100000074572",
      "facName": "Winter Park Estates Waste Water Treatment Facility",
      "city": "Winter Park",
      "facStreet1Tx": "6255 Bongart Road",
      "facStreet2Tx": null,
      "state": "FL",
      "zipCode": "32789",
      "zip4Code": null,
      "county": "ORANGE",
      "facLatDecMs": "28.610556",
      "facLongDecMs": "81.315833"
    },
    {
      "facilityId": 6017,
      "epaFacId": "100000074643",
      "facName": "Swoope Water Treatment Plant  ( #1 )",
      "city": "Winter Park",
      "facStreet1Tx": "631 Swoope Avenue",
      "facStreet2Tx": null,
      "state": "FL",
      "zipCode": "32789",
      "zip4Code": null,
      "county": "ORANGE",
      "facLatDecMs": "28.606944",
      "facLongDecMs": "81.355278"
    },
    {
      "facilityId": 44220,
      "epaFacId": "100000074741",
      "facName": "Water Treatment Plant #5 (University)",
      "city": "Winter Park",
      "facStreet1Tx": "3200 University Boulevard",
      "facStreet2Tx": null,
      "state": "FL",
      "zipCode": "32792",
      "zip4Code": "7431",
      "county": "ORANGE",
      "facLatDecMs": "28.596667",
      "facLongDecMs": "-081.303333"
    },
    {
      "facilityId": 1000100970,
      "epaFacId": "100000075508",
      "facName": "Foley Cellulose LLC",
      "city": "Perry",
      "facStreet1Tx": "One Buckeye Drive",
      "facStreet2Tx": "",
      "state": "FL",
      "zipCode": "32348",
      "zip4Code": "7702",
      "county": "TAYLOR",
      "facLatDecMs": "30.066389",
      "facLongDecMs": "-083.553333"
    },
    {
      "facilityId": 1000050642,
      "epaFacId": "100000075615",
      "facName": "Lansing Smith Electric Generating Plant",
      "city": "Southport",
      "facStreet1Tx": "4300 County Road 2300",
      "facStreet2Tx": null,
      "state": "FL",
      "zipCode": "32409",
      "zip4Code": null,
      "county": "BAY",
      "facLatDecMs": "30.2683462",
      "facLongDecMs": "-085.700521"
    },
    {
      "facilityId": 37803,
      "epaFacId": "100000076892",
      "facName": "Lake Bradford Road Waste Water Treatment Facility",
      "city": "Tallahassee",
      "facStreet1Tx": "1815 Lake Bradford Road",
      "facStreet2Tx": null,
      "state": "FL",
      "zipCode": "32310",
      "zip4Code": null,
      "county": "LEON",
      "facLatDecMs": "30.426111",
      "facLongDecMs": "-084.302500"
    },
    {
      "facilityId": 1000041689,
      "epaFacId": "100000076945",
      "facName": "Thomas P. Smith Water Reclamation Facility",
      "city": "Tallahassee",
      "facStreet1Tx": "4505 Springhill Road",
      "facStreet2Tx": null,
      "state": "FL",
      "zipCode": "32305",
      "zip4Code": null,
      "county": "LEON",
      "facLatDecMs": "30.390028",
      "facLongDecMs": "-084.321778"
    },