{
  "_embedded": [
    {
      "facilityId": 10297,
      "epaFacId": "100000022511",
      "facName": "Newton's Gas Company",
      "city": "Colchester",
      "facStreet1Tx": "70 Lee Court",
      "facStreet2Tx": null,
      "state": "VT",
      "zipCode": "05446",
      "zip4Code": null,
      "county": "CHITTENDEN",
      "facLatDecMs": "44.594722",
      "facLongDecMs": "-73.184167"
    },
    {
      "facilityId": 44713,
      "epaFacId": "100000070415",
      "facName": "Newport Wastewater Treatment Facility",
      "city": "Newport",
      "facStreet1Tx": "94 T.P Lane",
      "facStreet2Tx": null,
      "state": "VT",
      "zipCode": "05855",
      "zip4Code": null,
      "county": "ORLEANS",
      "facLatDecMs": "44.939889",
      "facLongDecMs": "-072.199583"
    },
    {
      "facilityId": 33128,
      "epaFacId": "100000074965",
      "facName": "Montpelier Water Pollution Control Facility",
      "city": "Montpelier",
      "facStreet1Tx": "949 Dog River Road",
      "facStreet2Tx": null,
      "state": "VT",
      "zipCode": "05602",
      "zip4Code": null,
      "county": "WASHINGTON",
      "facLatDecMs": "44.255000",
      "facLongDecMs": "-072.599972"
    },
    {
      "facilityId": 1000104688,
      "epaFacId": "100000080912",
      "facName": "St. Albans Plant - Ben & Jerry's",
      "city": "St. Albans",
      "facStreet1Tx": "900 Industrial Park Road",
      "facStreet2Tx": "",
      "state": "VT",
      "zipCode": "05478",
      "zip4Code": "",
      "county": "FRANKLIN",
      "facLatDecMs": "44.795520",
      "facLongDecMs": "-73.099460"
    },
    {
      "facilityId": 27825,
      "epaFacId": "100000081083",
      "facName": "Ellsworth Ice Cream , North Springfield Plant",
      "city": "North Springfield",
      "facStreet1Tx": "Fairbanks Road",
      "facStreet2Tx": null,
      "state": "VT",
      "zipCode": "05676",
      "zip4Code": null,
      "county": "WINDSOR",
      "facLatDecMs": "43.333889",
      "facLongDecMs": "-72.541667"
    },
    {
      "facilityId": 1000114586,
      "epaFacId": "100000088601",
      "facName": "Waterbury Plant - Ben & Jerry's",
      "city": "Waterbury",
      "facStreet1Tx": "1281 Waterbury-Stowe Rd.",
      "facStreet2Tx": "",
      "state": "VT",
      "zipCode": "05676",
      "zip4Code": "",
      "county": "WASHINGTON",
      "facLatDecMs": "44.353484",
      "facLongDecMs": "-072.740374"
    },
    {
      "facilityId": 1000113999,
      "epaFacId": "100000160274",
      "facName": "Agri-Mark",
      "city": "Middlebury",
      "facStreet1Tx": "869 Exchange Street",
      "facStreet2Tx": "",
      "state": "VT",
      "zipCode": "05753",
      "zip4Code": "",
      "county": "ADDISON",
      "facLatDecMs": "44.03145",
      "facLongDecMs": "-073.17261"
    },
    {
      "facilityId": 20860,
      "epaFacId": "100000168294",
      "facName": "City of St. Albans Wastewater Treatment Facility",
      "city": "St. Albans",
      "facStreet1Tx": "Rewes Drive",
      "facStreet2Tx": "Rt. 7 North",
      "state": "VT",
      "zipCode": "05478",
      "zip4Code": null,
      "county": "FRANKLIN",
      "facLatDecMs": "44.829778",
      "facLongDecMs": "-73.086361"
    },
    {
      "facilityId": 23784,
      "epaFacId": "100000175927",
      "facName": "Northeast Cooperatives-Technology Drive",
      "city": "Brattleboro",
      "facStreet1Tx": "90 Technology Drive",
      "facStreet2Tx": null,
      "state": "VT",
      "zipCode": "05304",
      "zip4Code": null,
      "county": "WINDHAM",
      "facLatDecMs": "42.877778",
      "facLongDecMs": "-72.565278"
    },
    {
      "facilityId": 1000096782,
      "epaFacId": "100000177505",
      "facName": "Gas Supply Resources - Berlin Terminal",
      "city": "Berlin",
      "facStreet1Tx": "236 Junction Road",
      "facStreet2Tx": "",
      "state": "VT",
      "zipCode": "05602",
      "zip4Code": "9622",
      "county": "WASHINGTON",
      "facLatDecMs": "44.255038",
      "facLongDecMs": "-072.604566"
    },
    {
      "facilityId": 1000096006,
      "epaFacId": "100000216839",
      "facName": "White River Junction Rail Bulk Plant",
      "city": "White River Junct.",
      "facStreet1Tx": "81 Roundhouse Rd.",
      "facStreet2Tx": null,
      "state": "VT",
      "zipCode": "05001",
      "zip4Code": null,
      "county": "WINDSOR",
      "facLatDecMs": "43.653075",
      "facLongDecMs": "-072.327876"
    },
    {
      "facilityId": 1000080635,
      "epaFacId": "100000225981",
      "facName": "Bellows Falls Bulk",
      "city": "BELLOWS FALLS",
      "facStreet1Tx": "6 BEZANSON ROAD",
      "facStreet2Tx": null,
      "state": "VT",
      "zipCode": "05101",
      "zip4Code": null,
      "county": "WINDHAM",
      "facLatDecMs": "43.1599",
      "facLongDecMs": "-72.4558"
    },
    {
      "facilityId": 1000105214,
      "epaFacId": "100000230412",
      "facName": "S. Wallingford Passing Siding",
      "city": "Wallingford",
      "facStreet1Tx": "Near 3569 Hartsboro Road",
      "facStreet2Tx": "",
      "state": "VT",
      "zipCode": "05773",
      "zip4Code": "",
      "county": "RUTLAND",
      "facLatDecMs": "43.410742",
      "facLongDecMs": "-72.991414"
    },
    {
      "facilityId": 1000119082,
      "epaFacId": "100000230421",
      "facName": "Danby Passing Siding",
      "city": "Mount Tabor",
      "facStreet1Tx": "Along Route 7",
      "facStreet2Tx": "",
      "state": "VT",
      "zipCode": "05739",
      "zip4Code": "",
      "county": "RUTLAND",
      "facLatDecMs": "43.343542",
      "facLongDecMs": "-72.991694"
    },
    {
      "facilityId": 1000105329,
      "epaFacId": "100000230458",
      "facName": "Steel Track",
      "city": "Bellows Falls",
      "facStreet1Tx": "46 Steamtown rd",
      "facStreet2Tx": "",
      "state": "VT",
      "zipCode": "05101",
      "zip4Code": "",
      "county": "WINDHAM",
      "facLatDecMs": "43.164721",
      "facLongDecMs": "-72.562298"
    },
    {
      "facilityId": 1000051542,
      "epaFacId": "100000230467",
      "facName": "Chester Soapstone Track",
      "city": "Chester",
      "facStreet1Tx": "535 Depot St",
      "facStreet2Tx": null,
      "state": "VT",
      "zipCode": "05143",
      "zip4Code": null,
      "county": "WINDSOR",
      "facLatDecMs": "43.265919",
      "facLongDecMs": "-72.587672"
    },
    {
      "facilityId": 1000100646,
      "epaFacId": "100000230476",
      "facName": "Summit Siding",
      "city": "Mount Holly",
      "facStreet1Tx": "Near 1295 Summit Rd",
      "facStreet2Tx": "",
      "state": "VT",
      "zipCode": "05758",
      "zip4Code": "",
      "county": "RUTLAND",
      "facLatDecMs": "43.448753",
      "facLongDecMs": "-72.783322"
    },
    {
      "facilityId": 1000106576,
      "epaFacId": "100000230485",
      "facName": "Bartonsville Passing Siding",
      "city": "Rockingham",
      "facStreet1Tx": "Near 62 lower Bartonsville Rd",
      "facStreet2Tx": "",
      "state": "VT",
      "zipCode": "05143",
      "zip4Code": "",
      "county": "WINDHAM",
      "facLatDecMs": "43.219869",
      "facLongDecMs": "-72.537117"
    },
    {
      "facilityId": 1000051539,
      "epaFacId": "100000230494",
      "facName": "Willoughby Passing Siding",
      "city": "Sutton",
      "facStreet1Tx": "Along route 5, Lynburke Rd",
      "facStreet2Tx": null,
      "state": "VT",
      "zipCode": "05867",
      "zip4Code": null,
      "county": "CALEDONIA",
      "facLatDecMs": "44.688953",
      "facLongDecMs": "-72.055565"
    },
    {
      "facilityId": 1000113955,
      "epaFacId": "100000230519",
      "facName": "Wells River Passing Siding",
      "city": "Wells River",
      "facStreet1Tx": "Along Route 5, Ryegate Rd",
      "facStreet2Tx": "",
      "state": "VT",
      "zipCode": "05081",
      "zip4Code": "",
      "county": "ORANGE",
      "facLatDecMs": "44.155072",
      "facLongDecMs": "-72.044564"
    },
    {
      "facilityId": 1000089715,
      "epaFacId": "100000230528",
      "facName": "Bell Passing Siding",
      "city": "Ryegate",
      "facStreet1Tx": "Along route 5, Ryegate Rd",
      "facStreet2Tx": null,
      "state": "VT",
      "zipCode": "05042",
      "zip4Code": null,
      "county": "CALEDONIA",
      "facLatDecMs": "44.222447",
      "facLongDecMs": "-72.056703"
    },
    {
      "facilityId": 1000100592,
      "epaFacId": "100000230537",
      "facName": "Charlotte Passing Siding",
      "city": "Charlotte",
      "facStreet1Tx": "Near 735 Ferry Rd",
      "facStreet2Tx": "",
      "state": "VT",
      "zipCode": "05445",
      "zip4Code": "",
      "county": "ADDISON",
      "facLatDecMs": "44.302867",
      "facLongDecMs": "-73.259914"
    },
    {
      "facilityId": 1000114056,
      "epaFacId": "100000230797",
      "facName": "Ely Siding",
      "city": "Fairlee",
      "facStreet1Tx": "Near 3 Ely Rd",
      "facStreet2Tx": "",
      "state": "VT",
      "zipCode": "05045",
      "zip4Code": "",
      "county": "ORANGE",
      "facLatDecMs": "43.872736",
      "facLongDecMs": "-72.178744"
    },
    {
      "facilityId": 1000096923,
      "epaFacId": "100000233419",
      "facName": "Bennington Branch",
      "city": "Bennington",
      "facStreet1Tx": "401 Rice Lane",
      "facStreet2Tx": null,
      "state": "VT",
      "zipCode": "05201",
      "zip4Code": null,
      "county": "BENNINGTON",
      "facLatDecMs": "42.9032",
      "facLongDecMs": "-73.2364"
    },
    {
      "facilityId": 1000105285,
      "epaFacId": "100000244309",
      "facName": "Leicester",
      "city": "Leicester",
      "facStreet1Tx": "2567 Leicester-Whiting Road",
      "facStreet2Tx": "",
      "state": "VT",
      "zipCode": "05733",
      "zip4Code": "",
      "county": "ADDISON",
      "facLatDecMs": "43.861268",
      "facLongDecMs": "-73.152590"
    },
    {
      "facilityId": 1000106227,
      "epaFacId": "100000244513",
      "facName": "White River Junction Rail Tank Car",
      "city": "White River JCT",
      "facStreet1Tx": "102 Railroad Row",
      "facStreet2Tx": "",
      "state": "VT",
      "zipCode": "05001",
      "zip4Code": "",
      "county": "WINDSOR",
      "facLatDecMs": "43.653507",
      "facLongDecMs": "-72.328824"
    },
    {
      "facilityId": 1000091664,
      "epaFacId": "100000245282",
      "facName": "Bartonsville Rail Facility",
      "city": "Rockingham",
      "facStreet1Tx": "Near 62 Lower Bartonsville Road",
      "facStreet2Tx": null,
      "state": "VT",
      "zipCode": "05143",
      "zip4Code": null,
      "county": "WINDHAM",
      "facLatDecMs": "43.220186",
      "facLongDecMs": "-72.537122"
    },
    {
      "facilityId": 1000105286,
      "epaFacId": "100000248608",
      "facName": "Leicester-Wye",
      "city": "Leicester",
      "facStreet1Tx": "2567 Leicester-Whiting",
      "facStreet2Tx": "",
      "state": "VT",
      "zipCode": "05733",
      "zip4Code": "",
      "county": "ADDISON",
      "facLatDecMs": "43.856744",
      "facLongDecMs": "-73.150267"
    },
    {
      "facilityId": 1000104363,
      "epaFacId": "100000250211",
      "facName": "Barre, VT Bulk Propane",
      "city": "Barre",
      "facStreet1Tx": "7 Williams Lane",
      "facStreet2Tx": "",
      "state": "VT",
      "zipCode": "05641",
      "zip4Code": "",
      "county": "WASHINGTON",
      "facLatDecMs": "44.198326",
      "facLongDecMs": "-72.506196"
    },
    {
      "facilityId": 1000104735,
      "epaFacId": "100000250499",
      "facName": "Springfield Bulk Plant",
      "city": "Springfield",
      "facStreet1Tx": "14 Missing Link Road",
      "facStreet2Tx": "",
      "state": "VT",
      "zipCode": "05156",
      "zip4Code": "",
      "county": "WINDSOR",
      "facLatDecMs": "43.263870",
      "facLongDecMs": "-72.435172"
    },
    {
      "facilityId": 1000105191,
      "epaFacId": "100000250934",
      "facName": "Rutland Propane Bulk Plant",
      "city": "Rutland",
      "facStreet1Tx": "148 Spruce St.",
      "facStreet2Tx": "",
      "state": "VT",
      "zipCode": "05701",
      "zip4Code": "",
      "county": "RUTLAND",
      "facLatDecMs": "43.600081",
      "facLongDecMs": "-72.977786"
    },
    {
      "facilityId": 1000105543,
      "epaFacId": "100000251176",
      "facName": "South Wallingford Long Siding",
      "city": "Wallingford",
      "facStreet1Tx": "Near 555 Homer Stone Rd.",
      "facStreet2Tx": "",
      "state": "VT",
      "zipCode": "05742",
      "zip4Code": "",
      "county": "RUTLAND",
      "facLatDecMs": "43.402548",
      "facLongDecMs": "-72.993974"
    },
    {
      "facilityId": 1000107784,
      "epaFacId": "100000252291",
      "facName": "Pivotal Partners Propane Bulk Storage Facility",
      "city": "East Dorset",
      "facStreet1Tx": "51 Ford Road",
      "facStreet2Tx": "",
      "state": "VT",
      "zipCode": "05253",
      "zip4Code": "",
      "county": "BENNINGTON",
      "facLatDecMs": "43.303",
      "facLongDecMs": "-72.995"
    }
  ]
}