{
  "_embedded": [
    {
      "facilityId": 18100,
      "epaFacId": "100000020899",
      "facName": "Brewer Environmental Industries, LLC - Port Allen",
      "city": "Liheu",
      "facStreet1Tx": "3-1480 Kaymualee Hwy.",
      "facStreet2Tx": null,
      "state": "HI",
      "zipCode": "96766",
      "zip4Code": null,
      "county": "KAUAI",
      "facLatDecMs": "21.1625",
      "facLongDecMs": "159.597222"
    },
    {
      "facilityId": 1000105064,
      "epaFacId": "100000021317",
      "facName": "BEI Hawaii -  Barbers Point Facility, Oahu",
      "city": "Kapolei",
      "facStreet1Tx": "91-150 Kaomi Loop",
      "facStreet2Tx": "",
      "state": "HI",
      "zipCode": "96707",
      "zip4Code": "",
      "county": "HONOLULU",
      "facLatDecMs": "21.305174",
      "facLongDecMs": "-158.112842"
    },
    {
      "facilityId": 1000043329,
      "epaFacId": "100000021656",
      "facName": "BEI Hawaii - Wailuku Facility, Maui",
      "city": "Wailuku",
      "facStreet1Tx": "300 Pakana Street",
      "facStreet2Tx": null,
      "state": "HI",
      "zipCode": "96793",
      "zip4Code": null,
      "county": "MAUI",
      "facLatDecMs": "20.852222",
      "facLongDecMs": "-156.497222"
    },
    {
      "facilityId": 1000000842,
      "epaFacId": "100000022183",
      "facName": "BEI Hawaii -  Hilo Facility, Hawaii",
      "city": "Hilo",
      "facStreet1Tx": "60 Kukio Road",
      "facStreet2Tx": null,
      "state": "HI",
      "zipCode": "96720",
      "zip4Code": null,
      "county": "HAWAII",
      "facLatDecMs": "19.728611",
      "facLongDecMs": "-155.054167"
    },
    {
      "facilityId": 24896,
      "epaFacId": "100000022245",
      "facName": "BEI Hawaii -  Puhi Facility, Kauai",
      "city": "Luhue",
      "facStreet1Tx": "3-1480 Kaumualii Highway",
      "facStreet2Tx": null,
      "state": "HI",
      "zipCode": "96766",
      "zip4Code": null,
      "county": "KAUAI",
      "facLatDecMs": "21.962417",
      "facLongDecMs": "-159.460278"
    },
    {
      "facilityId": 1738,
      "epaFacId": "100000022469",
      "facName": "Brewer Environmental Industries, LLC - Kahului",
      "city": "Kahului",
      "facStreet1Tx": "Hobron Avenue",
      "facStreet2Tx": null,
      "state": "HI",
      "zipCode": "96732",
      "zip4Code": null,
      "county": "MAUI",
      "facLatDecMs": "20.919444",
      "facLongDecMs": "156.590278"
    },
    {
      "facilityId": 14220,
      "epaFacId": "100000029569",
      "facName": "Pi`iholo Water Treatment Facility",
      "city": "Makawao",
      "facStreet1Tx": "Kahakapao Road",
      "facStreet2Tx": null,
      "state": "HI",
      "zipCode": "96768",
      "zip4Code": null,
      "county": "MAUI",
      "facLatDecMs": "20.498028",
      "facLongDecMs": "156.164222"
    },
    {
      "facilityId": 14905,
      "epaFacId": "100000030263",
      "facName": "Olinda Water Treatment Facility",
      "city": "Makawao",
      "facStreet1Tx": "End of Olinda Road",
      "facStreet2Tx": null,
      "state": "HI",
      "zipCode": "96768",
      "zip4Code": null,
      "county": "MAUI",
      "facLatDecMs": "20.799139",
      "facLongDecMs": "156.279944"
    },
    {
      "facilityId": 1000114214,
      "epaFacId": "100000032458",
      "facName": "Unicold Corporation",
      "city": "Honolulu",
      "facStreet1Tx": "3140 Ualena Street",
      "facStreet2Tx": "",
      "state": "HI",
      "zipCode": "96819",
      "zip4Code": "1916",
      "county": "HONOLULU",
      "facLatDecMs": "21.3343571",
      "facLongDecMs": "-157.911683"
    },
    {
      "facilityId": 1000109905,
      "epaFacId": "100000034107",
      "facName": "Par East Refinery",
      "city": "Kapolei",
      "facStreet1Tx": "91-325 Komohana Street",
      "facStreet2Tx": "",
      "state": "HI",
      "zipCode": "96707",
      "zip4Code": "1713",
      "county": "HONOLULU",
      "facLatDecMs": "21.353",
      "facLongDecMs": "-158.1447"
    },
    {
      "facilityId": 11623,
      "epaFacId": "100000035277",
      "facName": "Kamole Water Treatment Facility",
      "city": "Makawao",
      "facStreet1Tx": "#1 Pineapple Field",
      "facStreet2Tx": null,
      "state": "HI",
      "zipCode": "96768",
      "zip4Code": null,
      "county": "MAUI",
      "facLatDecMs": "20.877778",
      "facLongDecMs": "156.335222"
    },
    {
      "facilityId": 5928,
      "epaFacId": "100000035339",
      "facName": "Lahaina Water Treatment Facility",
      "city": "Lahaina",
      "facStreet1Tx": "Obove Lahaina Luna High School",
      "facStreet2Tx": null,
      "state": "HI",
      "zipCode": "96761",
      "zip4Code": null,
      "county": "MAUI",
      "facLatDecMs": "20.895806",
      "facLongDecMs": "156.665222"
    },
    {
      "facilityId": 14904,
      "epaFacId": "100000035507",
      "facName": "Mahinahina Water Treatment Facility",
      "city": "Lahaina",
      "facStreet1Tx": "Above West Maui Mahinahina Airport",
      "facStreet2Tx": null,
      "state": "HI",
      "zipCode": "96761",
      "zip4Code": null,
      "county": "MAUI",
      "facLatDecMs": "20.963389",
      "facLongDecMs": "156.666694"
    },
    {
      "facilityId": 8004,
      "epaFacId": "100000035838",
      "facName": "Mokuhau Deepwells Pump Station",
      "city": "Wailuku",
      "facStreet1Tx": "Mokuhau Road",
      "facStreet2Tx": null,
      "state": "HI",
      "zipCode": "96793",
      "zip4Code": null,
      "county": "MAUI",
      "facLatDecMs": "20.887278",
      "facLongDecMs": "156.545833"
    },
    {
      "facilityId": 11636,
      "epaFacId": "100000035847",
      "facName": "Wailuku Shaft 33 Pump Station",
      "city": "Wailuku",
      "facStreet1Tx": "West Main Street",
      "facStreet2Tx": null,
      "state": "HI",
      "zipCode": "96793",
      "zip4Code": null,
      "county": "MAUI",
      "facLatDecMs": "20.884083",
      "facLongDecMs": "156.512944"
    },
    {
      "facilityId": 1000055338,
      "epaFacId": "100000035954",
      "facName": "Waihee Deepwells Pump Station",
      "city": "Wailuku",
      "facStreet1Tx": "Malaihi Road",
      "facStreet2Tx": null,
      "state": "HI",
      "zipCode": "96793",
      "zip4Code": null,
      "county": "MAUI",
      "facLatDecMs": "20.9093477",
      "facLongDecMs": "-156.51420"
    },
    {
      "facilityId": 1000048961,
      "epaFacId": "100000075161",
      "facName": "Wailuku / Kahului WWRF",
      "city": "Kahului",
      "facStreet1Tx": "281 Amala Place",
      "facStreet2Tx": null,
      "state": "HI",
      "zipCode": "96732",
      "zip4Code": null,
      "county": "MAUI",
      "facLatDecMs": "20.898889",
      "facLongDecMs": "-156.459167"
    },
    {
      "facilityId": 1000049987,
      "epaFacId": "100000075269",
      "facName": "Kihei WWTP",
      "city": "Kihei",
      "facStreet1Tx": "480 Welakahao Street",
      "facStreet2Tx": null,
      "state": "HI",
      "zipCode": "96753",
      "zip4Code": null,
      "county": "MAUI",
      "facLatDecMs": "20.738611",
      "facLongDecMs": "-156.446944"
    },
    {
      "facilityId": 1000049988,
      "epaFacId": "100000075349",
      "facName": "Lahaina WWRF",
      "city": "Lahaina",
      "facStreet1Tx": "3300 Honoapiilani Highway",
      "facStreet2Tx": null,
      "state": "HI",
      "zipCode": "96761",
      "zip4Code": null,
      "county": "MAUI",
      "facLatDecMs": "20.948889",
      "facLongDecMs": "-156.690000"
    },
    {
      "facilityId": 18031,
      "epaFacId": "100000075401",
      "facName": "Kaunakakai WWRF",
      "city": "Kaunakakai",
      "facStreet1Tx": "Maunaloa Hwy",
      "facStreet2Tx": null,
      "state": "HI",
      "zipCode": "96748",
      "zip4Code": null,
      "county": "MAUI",
      "facLatDecMs": "21.094444",
      "facLongDecMs": "157.030556"
    },
    {
      "facilityId": 5753,
      "epaFacId": "100000076302",
      "facName": "Waimea Water Treatment Plant",
      "city": "Kamuela",
      "facStreet1Tx": "Spencer Road",
      "facStreet2Tx": null,
      "state": "HI",
      "zipCode": "96743",
      "zip4Code": null,
      "county": "HAWAII",
      "facLatDecMs": "20.041667",
      "facLongDecMs": "155.666667"
    },
    {
      "facilityId": 1000104059,
      "epaFacId": "100000077757",
      "facName": "The Gas Company SNG Plant",
      "city": "Kapolei",
      "facStreet1Tx": "91-390 Kauhi Street",
      "facStreet2Tx": "",
      "state": "HI",
      "zipCode": "96707",
      "zip4Code": "",
      "county": "HONOLULU",
      "facLatDecMs": "21.308889",
      "facLongDecMs": "-158.090556"
    },
    {
      "facilityId": 1000075281,
      "epaFacId": "100000084936",
      "facName": "IES Downstream, LLC - Kapolei Refinery",
      "city": "KAPOLEI",
      "facStreet1Tx": "91-480 MALAKOLE STREET",
      "facStreet2Tx": null,
      "state": "HI",
      "zipCode": "96707",
      "zip4Code": null,
      "county": "HONOLULU",
      "facLatDecMs": "21.313495",
      "facLongDecMs": "-158.113794"
    },
    {
      "facilityId": 1000116745,
      "epaFacId": "100000091599",
      "facName": "Puna Geothermal Venture",
      "city": "Pahoa",
      "facStreet1Tx": "14-3860 Kapoho Pahoa Road",
      "facStreet2Tx": "",
      "state": "HI",
      "zipCode": "96778",
      "zip4Code": "",
      "county": "HAWAII",
      "facLatDecMs": "19.481667",
      "facLongDecMs": "-154.891667"
    },
    {
      "facilityId": 7536,
      "epaFacId": "100000094462",
      "facName": "U.S. Army Garrison, Hawaii",
      "city": "Schofield Barracks",
      "facStreet1Tx": "Schofield Barracks WWTP, Bldg 1578",
      "facStreet2Tx": "Airdrome Road",
      "state": "HI",
      "zipCode": "96857",
      "zip4Code": "5013",
      "county": "HONOLULU",
      "facLatDecMs": "21.479167",
      "facLongDecMs": "158.047222"
    },
    {
      "facilityId": 1000044303,
      "epaFacId": "100000103942",
      "facName": "East Honolulu WWTP",
      "city": "Honolulu",
      "facStreet1Tx": "8480 Kalanianaole Hwy.",
      "facStreet2Tx": null,
      "state": "HI",
      "zipCode": "96825",
      "zip4Code": null,
      "county": "HONOLULU",
      "facLatDecMs": "21.291667",
      "facLongDecMs": "-157.675000"
    },
    {
      "facilityId": 1000076700,
      "epaFacId": "100000108787",
      "facName": "AES Hawaii, LLC",
      "city": "Kapolei",
      "facStreet1Tx": "91-086 Kaomi Loop",
      "facStreet2Tx": null,
      "state": "HI",
      "zipCode": "96707",
      "zip4Code": "1710",
      "county": "HONOLULU",
      "facLatDecMs": "21.306111",
      "facLongDecMs": "-158.108056"
    },
    {
      "facilityId": 11794,
      "epaFacId": "100000124108",
      "facName": "Meadow Gold Dairies-Honolulu",
      "city": "Honolulu",
      "facStreet1Tx": "1418 Young Street",
      "facStreet2Tx": null,
      "state": "HI",
      "zipCode": "96814",
      "zip4Code": "1816",
      "county": "HONOLULU",
      "facLatDecMs": "21.299222",
      "facLongDecMs": "-157.839194"
    },
    {
      "facilityId": 46765,
      "epaFacId": "100000150276",
      "facName": "Waikoloa Beach Resort Water Reclamation Plant",
      "city": "Waikoloa",
      "facStreet1Tx": "150 Waikoloa Beach Dr.",
      "facStreet2Tx": "P.O. Box 384809",
      "state": "HI",
      "zipCode": "96738",
      "zip4Code": "4809",
      "county": "HAWAII",
      "facLatDecMs": "19.909722",
      "facLongDecMs": "-155.875000"
    },
    {
      "facilityId": 1000091825,
      "epaFacId": "100000172546",
      "facName": "Hamakua Energy, LLC",
      "city": "Honokaa",
      "facStreet1Tx": "P.O. Box 40",
      "facStreet2Tx": "45-300 Lehua Street",
      "state": "HI",
      "zipCode": "96727",
      "zip4Code": "0040",
      "county": "HAWAII",
      "facLatDecMs": "20.094083",
      "facLongDecMs": "-155.471028"
    },
    {
      "facilityId": 1000043469,
      "epaFacId": "100000180145",
      "facName": "BEI Hawaii -  Puhi Facility, Kauai",
      "city": "Lihue",
      "facStreet1Tx": "1875 Haleukana Street",
      "facStreet2Tx": null,
      "state": "HI",
      "zipCode": "96766",
      "zip4Code": null,
      "county": "KAUAI",
      "facLatDecMs": "21.956667",
      "facLongDecMs": "-159.391944"
    },
    {
      "facilityId": 1000114024,
      "epaFacId": "100000199313",
      "facName": "Advanced Silicon Carbide Materials",
      "city": "Lihue",
      "facStreet1Tx": "3038 Aukele St.",
      "facStreet2Tx": "",
      "state": "HI",
      "zipCode": "96766",
      "zip4Code": "1464",
      "county": "KAUAI",
      "facLatDecMs": "21.970500",
      "facLongDecMs": "-159.358800"
    },
    {
      "facilityId": 1000067921,
      "epaFacId": "100000219925",
      "facName": "BEI Hawaii - Hilo Main Facility",
      "city": "Hilo",
      "facStreet1Tx": "430 Kekuanaoa Street",
      "facStreet2Tx": null,
      "state": "HI",
      "zipCode": "96720",
      "zip4Code": "4319",
      "county": "HAWAII",
      "facLatDecMs": "19.711374",
      "facLongDecMs": "-155.072354"
    },
    {
      "facilityId": 1000093283,
      "epaFacId": "100000232081",
      "facName": "Kauai Coffee Company, LLC",
      "city": "Kalaheo",
      "facStreet1Tx": "1 Numila Rd.",
      "facStreet2Tx": null,
      "state": "HI",
      "zipCode": "96741",
      "zip4Code": null,
      "county": "KAUAI",
      "facLatDecMs": "21.899391",
      "facLongDecMs": "-159.560822"
    },
    {
      "facilityId": 1000077128,
      "epaFacId": "100000241605",
      "facName": "Par West Refinery",
      "city": "Kapolei",
      "facStreet1Tx": "91-480 Malakole St",
      "facStreet2Tx": "CCB Building",
      "state": "HI",
      "zipCode": "96707",
      "zip4Code": null,
      "county": "HONOLULU",
      "facLatDecMs": "21.311018",
      "facLongDecMs": "-158.112909"
    }
  ]
}