{
  "_embedded": [
    {
      "facilityId": 1000097646,
      "epaFacId": "100000002481",
      "facName": "Finley Farmers Grain and Elevator Company",
      "city": "Finley",
      "facStreet1Tx": "503 Broadway Ave South",
      "facStreet2Tx": null,
      "state": "ND",
      "zipCode": "58230",
      "zip4Code": "0477",
      "county": "STEELE",
      "facLatDecMs": "47.507879",
      "facLongDecMs": "-97.836512"
    },
    {
      "facilityId": 1000118732,
      "epaFacId": "100000002668",
      "facName": "NEW CENTURY AG. OF FORTUNA",
      "city": "FORTUNA",
      "facStreet1Tx": "100 MAIN STREET",
      "facStreet2Tx": "PO BOX 125",
      "state": "ND",
      "zipCode": "58844",
      "zip4Code": "0125",
      "county": "DIVIDE",
      "facLatDecMs": "48.920778",
      "facLongDecMs": "-103.793972"
    },
    {
      "facilityId": 1000118733,
      "epaFacId": "100000002686",
      "facName": "NEW CENTURY AG.  AMBROSE STATION",
      "city": "AMBROSE",
      "facStreet1Tx": "50 Main St.",
      "facStreet2Tx": "PO BOX B",
      "state": "ND",
      "zipCode": "58833",
      "zip4Code": "0186",
      "county": "DIVIDE",
      "facLatDecMs": "48.957778",
      "facLongDecMs": "-103.490333"
    },
    {
      "facilityId": 1000085303,
      "epaFacId": "100000003391",
      "facName": "CenDak  Co-op - Sheyenne NH3 Location",
      "city": "Sheyenne",
      "facStreet1Tx": "6786 29th Street Northeast",
      "facStreet2Tx": null,
      "state": "ND",
      "zipCode": "58374",
      "zip4Code": null,
      "county": "EDDY",
      "facLatDecMs": "47.846167",
      "facLongDecMs": "-099.141333"
    },
    {
      "facilityId": 52767,
      "epaFacId": "100000003417",
      "facName": "Maple River Grain and Agronomy, LLC Leonard",
      "city": "Leonard",
      "facStreet1Tx": "15312 52 1/2 St. SE",
      "facStreet2Tx": null,
      "state": "ND",
      "zipCode": "58052",
      "zip4Code": null,
      "county": "CASS",
      "facLatDecMs": "46.640000",
      "facLongDecMs": "-097.250000"
    },
    {
      "facilityId": 1000012876,
      "epaFacId": "100000003435",
      "facName": "Velva Propane Site",
      "city": "Velva",
      "facStreet1Tx": "#1 - 1st Ave East",
      "facStreet2Tx": null,
      "state": "ND",
      "zipCode": "58790",
      "zip4Code": null,
      "county": "MCHENRY",
      "facLatDecMs": "48.099972",
      "facLongDecMs": "-100.89742"
    },
    {
      "facilityId": 1000088905,
      "epaFacId": "100000004354",
      "facName": "Dakota Agronomy Partners - Bottineau",
      "city": "Bottineau",
      "facStreet1Tx": "106 Main St.",
      "facStreet2Tx": "",
      "state": "ND",
      "zipCode": "58318",
      "zip4Code": "",
      "county": "BOTTINEAU",
      "facLatDecMs": "48.83479",
      "facLongDecMs": "-100.4491"
    },
    {
      "facilityId": 1000118918,
      "epaFacId": "100000004416",
      "facName": "Ever Green Cooperative",
      "city": "Tower City",
      "facStreet1Tx": "2730 130 Ave. Se.",
      "facStreet2Tx": "",
      "state": "ND",
      "zipCode": "58071",
      "zip4Code": "9310",
      "county": "BARNES",
      "facLatDecMs": "47.019444",
      "facLongDecMs": "-097.747222"
    },
    {
      "facilityId": 1000115305,
      "epaFacId": "100000006735",
      "facName": "Farmers Union Oil Company Agronomy Plant",
      "city": "Beulah",
      "facStreet1Tx": "5949 HWY 200",
      "facStreet2Tx": "",
      "state": "ND",
      "zipCode": "58523",
      "zip4Code": "",
      "county": "MERCER",
      "facLatDecMs": "47.30135",
      "facLongDecMs": "-101.75336"
    },
    {
      "facilityId": 16123,
      "epaFacId": "100000006762",
      "facName": "FARMERS UNION OIL COf",
      "city": "BEULAH",
      "facStreet1Tx": "1600 HWY 49 N",
      "facStreet2Tx": null,
      "state": "ND",
      "zipCode": "58523",
      "zip4Code": null,
      "county": "MERCER",
      "facLatDecMs": "47.292722",
      "facLongDecMs": "101.790556"
    },
    {
      "facilityId": 1000115304,
      "epaFacId": "100000006815",
      "facName": "Farmers Union Oil Co.  Halliday Anhydrous Plant",
      "city": "Halliday",
      "facStreet1Tx": "Intersection of Hwy 8 and Hwy 200",
      "facStreet2Tx": "",
      "state": "ND",
      "zipCode": "58636",
      "zip4Code": "",
      "county": "DUNN",
      "facLatDecMs": "47.344501",
      "facLongDecMs": "-102.334419"
    },
    {
      "facilityId": 37008,
      "epaFacId": "100000007155",
      "facName": "ADM-Benson Quinn-Rogers",
      "city": "Rogers",
      "facStreet1Tx": "100 Rail Road Avenue",
      "facStreet2Tx": "Main Street",
      "state": "ND",
      "zipCode": "58479",
      "zip4Code": null,
      "county": "BARNES",
      "facLatDecMs": "47.070556",
      "facLongDecMs": "-098.195000"
    },
    {
      "facilityId": 1000101605,
      "epaFacId": "100000007663",
      "facName": "makoti elevator",
      "city": "makoti",
      "facStreet1Tx": "south main street",
      "facStreet2Tx": "po box 56",
      "state": "ND",
      "zipCode": "58756",
      "zip4Code": null,
      "county": "WARD",
      "facLatDecMs": "47.959167",
      "facLongDecMs": "-101.804444"
    },
    {
      "facilityId": 1000100920,
      "epaFacId": "100000007672",
      "facName": "plaza  elevator",
      "city": "plaza",
      "facStreet1Tx": "101railroad ave.",
      "facStreet2Tx": null,
      "state": "ND",
      "zipCode": "58771",
      "zip4Code": null,
      "county": "MOUNTRAIL",
      "facLatDecMs": "48.026667",
      "facLongDecMs": "-101.957500"
    },
    {
      "facilityId": 10072,
      "epaFacId": "100000008546",
      "facName": "Cenex Farm Center",
      "city": "Oakes",
      "facStreet1Tx": "524 Nectarine Ave",
      "facStreet2Tx": null,
      "state": "ND",
      "zipCode": "58474",
      "zip4Code": "1998",
      "county": "DICKEY",
      "facLatDecMs": "46.132667",
      "facLongDecMs": "-98.091583"
    },
    {
      "facilityId": 1000080404,
      "epaFacId": "100000008699",
      "facName": "Modern Grain, Inc.",
      "city": "Hebron",
      "facStreet1Tx": "510 MAIN AVE.",
      "facStreet2Tx": null,
      "state": "ND",
      "zipCode": "58638",
      "zip4Code": null,
      "county": "MORTON",
      "facLatDecMs": "46.87251",
      "facLongDecMs": "-102.05664"
    },
    {
      "facilityId": 1000120076,
      "epaFacId": "100000008742",
      "facName": "Dakota Agronomy Partners - Underwood",
      "city": "Underwood",
      "facStreet1Tx": "96 Carter Street",
      "facStreet2Tx": "",
      "state": "ND",
      "zipCode": "58576",
      "zip4Code": "",
      "county": "MCLEAN",
      "facLatDecMs": "47.459086",
      "facLongDecMs": "-101.129056"
    },
    {
      "facilityId": 1000014340,
      "epaFacId": "100000009509",
      "facName": "Hunter Grain Co.",
      "city": "Hunter",
      "facStreet1Tx": "201 Main St.",
      "facStreet2Tx": null,
      "state": "ND",
      "zipCode": "58048",
      "zip4Code": "0097",
      "county": "CASS",
      "facLatDecMs": "47.184444",
      "facLongDecMs": "-097.217778"
    },
    {
      "facilityId": 843,
      "epaFacId": "100000009527",
      "facName": "HUNTER GRAIN CO., BLANCHARD",
      "city": "BLANCHARD",
      "facStreet1Tx": "Main St.",
      "facStreet2Tx": null,
      "state": "ND",
      "zipCode": "58009",
      "zip4Code": null,
      "county": "TRAILL",
      "facLatDecMs": "47.346694",
      "facLongDecMs": "-97.219"
    },
    {
      "facilityId": 1000092257,
      "epaFacId": "100000010793",
      "facName": "BOWMAN GRAIN, INC.",
      "city": "BOWMAN",
      "facStreet1Tx": "11438 86th Street SW",
      "facStreet2Tx": "P.O. BOX 91",
      "state": "ND",
      "zipCode": "58623",
      "zip4Code": "0091",
      "county": "BOWMAN",
      "facLatDecMs": "46.180534",
      "facLongDecMs": "-103.376987"
    },
    {
      "facilityId": 1000116725,
      "epaFacId": "100000010917",
      "facName": "Dakota Agronomy Partners, LLC - Roseglen NH3",
      "city": "Roseglen",
      "facStreet1Tx": "5925 23rd St NW",
      "facStreet2Tx": "",
      "state": "ND",
      "zipCode": "58775",
      "zip4Code": "",
      "county": "MCLEAN",
      "facLatDecMs": "47.747103",
      "facLongDecMs": "-101.859435"
    },
    {
      "facilityId": 1000048707,
      "epaFacId": "100000010926",
      "facName": "Central Plains Ag Services, LLC - Luverne",
      "city": "Luverne",
      "facStreet1Tx": "12219 Elevator Road",
      "facStreet2Tx": null,
      "state": "ND",
      "zipCode": "58056",
      "zip4Code": "9020",
      "county": "STEELE",
      "facLatDecMs": "47.250175",
      "facLongDecMs": "-97.934444"
    },
    {
      "facilityId": 1000045947,
      "epaFacId": "100000010944",
      "facName": "FARMERS UNION OIL COMPANY - MEDINA",
      "city": "MEDINA",
      "facStreet1Tx": "401 1ST AVE S",
      "facStreet2Tx": null,
      "state": "ND",
      "zipCode": "58467",
      "zip4Code": null,
      "county": "STUTSMAN",
      "facLatDecMs": "46.888444",
      "facLongDecMs": "-099.300611"
    },
    {
      "facilityId": 1000069371,
      "epaFacId": "100000010953",
      "facName": "Arrowwood Prairie Coop Ammonia Facility Carrington",
      "city": "Carrington",
      "facStreet1Tx": "760 4th Ave S",
      "facStreet2Tx": null,
      "state": "ND",
      "zipCode": "58421",
      "zip4Code": null,
      "county": "FOSTER",
      "facLatDecMs": "47.439002",
      "facLongDecMs": "-099.118409"
    },
    {
      "facilityId": 1000110780,
      "epaFacId": "100000010962",
      "facName": "FARMERS UNION OIL COMPANY - JAMESTOWN",
      "city": "JAMESTOWN",
      "facStreet1Tx": "800 15TH AVE SE",
      "facStreet2Tx": "",
      "state": "ND",
      "zipCode": "58402",
      "zip4Code": "1557",
      "county": "STUTSMAN",
      "facLatDecMs": "46.630394",
      "facLongDecMs": "-099.481361"
    },
    {
      "facilityId": 1000049344,
      "epaFacId": "100000010971",
      "facName": "CenDak Farmers Union Co-op - Oberon NH3 Facility",
      "city": "Oberon",
      "facStreet1Tx": "Street A North",
      "facStreet2Tx": null,
      "state": "ND",
      "zipCode": "58357",
      "zip4Code": null,
      "county": "BENSON",
      "facLatDecMs": "47.927778",
      "facLongDecMs": "-099.204722"
    },
    {
      "facilityId": 10117,
      "epaFacId": "100000010999",
      "facName": "Farmers Union Oil Company - Propane Facility",
      "city": "New Town",
      "facStreet1Tx": "101 West Main Street",
      "facStreet2Tx": null,
      "state": "ND",
      "zipCode": "58763",
      "zip4Code": null,
      "county": "MOUNTRAIL",
      "facLatDecMs": "47.979556",
      "facLongDecMs": "-102.496111"
    },
    {
      "facilityId": 983,
      "epaFacId": "100000011015",
      "facName": "FUOC of  Valley City Litchville - South #1",
      "city": "Valley City",
      "facStreet1Tx": "Hwy 1 South",
      "facStreet2Tx": null,
      "state": "ND",
      "zipCode": "58072",
      "zip4Code": null,
      "county": "BARNES",
      "facLatDecMs": "46.778667",
      "facLongDecMs": "-98.0785"
    },
    {
      "facilityId": 10121,
      "epaFacId": "100000011024",
      "facName": "FUOC - Valley City Propane Plant",
      "city": "Valley City",
      "facStreet1Tx": "722 Main Street West",
      "facStreet2Tx": null,
      "state": "ND",
      "zipCode": "58072",
      "zip4Code": null,
      "county": "BARNES",
      "facLatDecMs": "46.923056",
      "facLongDecMs": "-98.012778"
    },
    {
      "facilityId": 1000097662,
      "epaFacId": "100000011079",
      "facName": "Dennis Haugen Farm",
      "city": "Hannaford",
      "facStreet1Tx": "930 - 115th Avenue SE",
      "facStreet2Tx": null,
      "state": "ND",
      "zipCode": "58448",
      "zip4Code": "9400",
      "county": "GRIGGS",
      "facLatDecMs": "47.279278",
      "facLongDecMs": "-098.064639"
    },
    {
      "facilityId": 994,
      "epaFacId": "100000011104",
      "facName": "Farmers Union Oil Company-Eldrige Ammonia Facility",
      "city": "Eldridge",
      "facStreet1Tx": "Main Street",
      "facStreet2Tx": null,
      "state": "ND",
      "zipCode": "58401",
      "zip4Code": null,
      "county": "STUTSMAN",
      "facLatDecMs": "46.901611",
      "facLongDecMs": "-98.857972"
    },
    {
      "facilityId": 1000049345,
      "epaFacId": "100000011131",
      "facName": "CenDak Farmers Union Co-op - Esmond NH3 Facility",
      "city": "Esmond",
      "facStreet1Tx": "3rd Ave. N & North Pacific Ave. W",
      "facStreet2Tx": null,
      "state": "ND",
      "zipCode": "58332",
      "zip4Code": null,
      "county": "BENSON",
      "facLatDecMs": "48.034722",
      "facLongDecMs": "-099.766111"
    },
    {
      "facilityId": 1000006436,
      "epaFacId": "100000011177",
      "facName": "Dakota Plains Cooperative- Peak Location",
      "city": "Valley City",
      "facStreet1Tx": "3310 121st Avenue South East",
      "facStreet2Tx": null,
      "state": "ND",
      "zipCode": "58072",
      "zip4Code": null,
      "county": "BARNES",
      "facLatDecMs": "46.931389",
      "facLongDecMs": "-097.910556"
    },
    {
      "facilityId": 10120,
      "epaFacId": "100000011186",
      "facName": "Farmers Union Oil Co.- Jamestown Propane Facility",
      "city": "Jamestown",
      "facStreet1Tx": "1205 7th Street Southeast",
      "facStreet2Tx": null,
      "state": "ND",
      "zipCode": "58401",
      "zip4Code": null,
      "county": "STUTSMAN",
      "facLatDecMs": "46.902444",
      "facLongDecMs": "-98.691417"
    },
    {
      "facilityId": 10122,
      "epaFacId": "100000011202",
      "facName": "FUOC - Maddock Propane Facility",
      "city": "Maddock",
      "facStreet1Tx": "Highway 30 South",
      "facStreet2Tx": null,
      "state": "ND",
      "zipCode": "58348",
      "zip4Code": null,
      "county": "BENSON",
      "facLatDecMs": "47.95375",
      "facLongDecMs": "-99.534583"
    },
    {
      "facilityId": 10125,
      "epaFacId": "100000011284",
      "facName": "Farmers Union Oil Company - Propane Facility",
      "city": "Carrington",
      "facStreet1Tx": "1331 3rd Street North",
      "facStreet2Tx": null,
      "state": "ND",
      "zipCode": "58421",
      "zip4Code": null,
      "county": "FOSTER",
      "facLatDecMs": "47.452861",
      "facLongDecMs": "-99.116694"
    },
    {
      "facilityId": 1000119095,
      "epaFacId": "100000011293",
      "facName": "CenDak  Co-op - Maddock NH3 Facility",
      "city": "Maddock",
      "facStreet1Tx": "Railroad Avenue West",
      "facStreet2Tx": "",
      "state": "ND",
      "zipCode": "58348",
      "zip4Code": "",
      "county": "BENSON",
      "facLatDecMs": "47.964167",
      "facLongDecMs": "-099.531944"
    },
    {
      "facilityId": 1000116822,
      "epaFacId": "100000011373",
      "facName": "Dakota Agronomy Partners Ryder NH3",
      "city": "Ryder",
      "facStreet1Tx": "361 Central Ave East",
      "facStreet2Tx": "",
      "state": "ND",
      "zipCode": "58779",
      "zip4Code": "",
      "county": "WARD",
      "facLatDecMs": "47.912046",
      "facLongDecMs": "-101.667369"
    },
    {
      "facilityId": 1000088906,
      "epaFacId": "100000011989",
      "facName": "Dakota Agronomy Partners - Gardena",
      "city": "Gardena",
      "facStreet1Tx": "99 Main Avenue",
      "facStreet2Tx": "",
      "state": "ND",
      "zipCode": "58748",
      "zip4Code": "",
      "county": "BOTTINEAU",
      "facLatDecMs": "48.70150",
      "facLongDecMs": " -100.4971"
    },
    {
      "facilityId": 1000113958,
      "epaFacId": "100000012265",
      "facName": "Coal Creek Station",
      "city": "Underwood",
      "facStreet1Tx": "2875 3rd Street SW",
      "facStreet2Tx": "",
      "state": "ND",
      "zipCode": "58576",
      "zip4Code": "",
      "county": "MCLEAN",
      "facLatDecMs": "47.221749",
      "facLongDecMs": "-101.093185"
    },
    {
      "facilityId": 1000014857,
      "epaFacId": "100000012363",
      "facName": "Southam Elevator Co.",
      "city": "Southam",
      "facStreet1Tx": "110 Summer dr.",
      "facStreet2Tx": null,
      "state": "ND",
      "zipCode": "58327",
      "zip4Code": "7602",
      "county": "RAMSEY",
      "facLatDecMs": "48.100000",
      "facLongDecMs": "-098.330000"
    },
    {
      "facilityId": 17133,
      "epaFacId": "100000012728",
      "facName": "Modern Grain, Inc.",
      "city": "New Salem",
      "facStreet1Tx": "10 miles North Hwy 31",
      "facStreet2Tx": null,
      "state": "ND",
      "zipCode": "58563",
      "zip4Code": null,
      "county": "OLIVER",
      "facLatDecMs": "17.005556",
      "facLongDecMs": "-101.426944"
    },
    {
      "facilityId": 1000081268,
      "epaFacId": "100000012835",
      "facName": "Allied Agronomy  Bremen",
      "city": "Bremen",
      "facStreet1Tx": "310 Railway Right of Way",
      "facStreet2Tx": null,
      "state": "ND",
      "zipCode": "58356",
      "zip4Code": null,
      "county": "WELLS",
      "facLatDecMs": "47.749703",
      "facLongDecMs": "-099.391540"
    },
    {
      "facilityId": 1000119702,
      "epaFacId": "100000013068",
      "facName": "Allied Agronomy, LLC - Edgeley",
      "city": "Edgeley",
      "facStreet1Tx": "502 - 1st Street",
      "facStreet2Tx": "",
      "state": "ND",
      "zipCode": "58433",
      "zip4Code": "",
      "county": "LAMOURE",
      "facLatDecMs": "46.359592",
      "facLongDecMs": "-098.709194"
    },
    {
      "facilityId": 1066,
      "epaFacId": "100000013111",
      "facName": "Farmers Union Oil Company - Ammonia Facility",
      "city": "Kulm",
      "facStreet1Tx": "2nd Avenue NW & 2nd Street NW",
      "facStreet2Tx": null,
      "state": "ND",
      "zipCode": "58456",
      "zip4Code": "0250",
      "county": "LAMOURE",
      "facLatDecMs": "46.304722",
      "facLongDecMs": "-98.952167"
    },
    {
      "facilityId": 1000077468,
      "epaFacId": "100000013273",
      "facName": "Fullerton Farmers Elevator",
      "city": "Fullerton",
      "facStreet1Tx": "202 Minneapolis Avenue",
      "facStreet2Tx": null,
      "state": "ND",
      "zipCode": "58441",
      "zip4Code": null,
      "county": "DICKEY",
      "facLatDecMs": "46.161288",
      "facLongDecMs": "-098.426409"
    },
    {
      "facilityId": 1000104624,
      "epaFacId": "100000013852",
      "facName": "Legacy Cooperative  Rolette Plant",
      "city": "Rolette",
      "facStreet1Tx": "60 Main Street",
      "facStreet2Tx": "",
      "state": "ND",
      "zipCode": "58366",
      "zip4Code": "0188",
      "county": "ROLETTE",
      "facLatDecMs": "48.659622",
      "facLongDecMs": "-099.845113"
    },
    {
      "facilityId": 1000119822,
      "epaFacId": "100000014021",
      "facName": "Legacy Cooperative - Rock Lake NH3 Plant",
      "city": "Rock Lake",
      "facStreet1Tx": "26 Elevator Road",
      "facStreet2Tx": "",
      "state": "ND",
      "zipCode": "58365",
      "zip4Code": "0186",
      "county": "TOWNER",
      "facLatDecMs": "48.790003",
      "facLongDecMs": "-99.241428"
    },
    {
      "facilityId": 1000037622,
      "epaFacId": "100000014094",
      "facName": "Maple River Grain and Agronomy, LLC Lynchburg",
      "city": "Durbin",
      "facStreet1Tx": "4406 153rd Ave SE",
      "facStreet2Tx": null,
      "state": "ND",
      "zipCode": "58059",
      "zip4Code": null,
      "county": "CASS",
      "facLatDecMs": "46.770000",
      "facLongDecMs": "-097.260000"
    },
    {
      "facilityId": 38836,
      "epaFacId": "100000014101",
      "facName": "Woods plant",
      "city": "Leonard",
      "facStreet1Tx": "5048 156 1/2 ave SE",
      "facStreet2Tx": null,
      "state": "ND",
      "zipCode": "58052",
      "zip4Code": null,
      "county": "CASS",
      "facLatDecMs": "46.679300",
      "facLongDecMs": "-097.188710"
    },
    {
      "facilityId": 1000110864,
      "epaFacId": "100000014227",
      "facName": "Max Farm Services - Ammonia Facility",
      "city": "Max",
      "facStreet1Tx": "101 3rd Avenue SE",
      "facStreet2Tx": "",
      "state": "ND",
      "zipCode": "58759",
      "zip4Code": "",
      "county": "MCLEAN",
      "facLatDecMs": "47.818281",
      "facLongDecMs": "-101.295753"
    },
    {
      "facilityId": 1000092566,
      "epaFacId": "100000014254",
      "facName": "Farmers Union Oil Company",
      "city": "Willow City",
      "facStreet1Tx": "Prairie Street South",
      "facStreet2Tx": "",
      "state": "ND",
      "zipCode": "58384",
      "zip4Code": "",
      "county": "BOTTINEAU",
      "facLatDecMs": "48.602528",
      "facLongDecMs": "-100.298972"
    },
    {
      "facilityId": 1000085387,
      "epaFacId": "100000014637",
      "facName": "Farmers Union Oil; Lankin Facility",
      "city": "Lankin",
      "facStreet1Tx": "209 Main Street",
      "facStreet2Tx": null,
      "state": "ND",
      "zipCode": "58250",
      "zip4Code": null,
      "county": "WALSH",
      "facLatDecMs": "48.310373",
      "facLongDecMs": "-097.922276"
    },
    {
      "facilityId": 1000044347,
      "epaFacId": "100000014664",
      "facName": "CHS Inc. - Litchville",
      "city": "Litchville",
      "facStreet1Tx": "601 3rd Avenue",
      "facStreet2Tx": null,
      "state": "ND",
      "zipCode": "58461",
      "zip4Code": null,
      "county": "BARNES",
      "facLatDecMs": "46.652094",
      "facLongDecMs": "-098.192837"
    },
    {
      "facilityId": 1000111447,
      "epaFacId": "100000014691",
      "facName": "CHS Inc. - Adams Facility",
      "city": "Adams",
      "facStreet1Tx": "11865 Highway 17",
      "facStreet2Tx": "",
      "state": "ND",
      "zipCode": "58210",
      "zip4Code": "0056",
      "county": "WALSH",
      "facLatDecMs": "48.413443",
      "facLongDecMs": "-098.087568"
    },
    {
      "facilityId": 1000049197,
      "epaFacId": "100000015342",
      "facName": "CenDak Farmers Union Co-op - New Rockford Location",
      "city": "New Rockford",
      "facStreet1Tx": "6790 20th Street Northeast",
      "facStreet2Tx": null,
      "state": "ND",
      "zipCode": "58356",
      "zip4Code": null,
      "county": "EDDY",
      "facLatDecMs": "47.701000",
      "facLongDecMs": "-099.131667"
    },
    {
      "facilityId": 1000012700,
      "epaFacId": "100000015654",
      "facName": "DQGC Palermo",
      "city": "Palermo",
      "facStreet1Tx": "681 Rail Road Ave",
      "facStreet2Tx": "Po Box 69",
      "state": "ND",
      "zipCode": "58769",
      "zip4Code": null,
      "county": "MOUNTRAIL",
      "facLatDecMs": "48.336944",
      "facLongDecMs": "-102.233333"
    },
    {
      "facilityId": 1000104366,
      "epaFacId": "100000015725",
      "facName": "Newtown NH3",
      "city": "New Town",
      "facStreet1Tx": "222 3rd St S",
      "facStreet2Tx": "PO Box 968",
      "state": "ND",
      "zipCode": "58763",
      "zip4Code": "0968",
      "county": "MOUNTRAIL",
      "facLatDecMs": "47.975755",
      "facLongDecMs": "-102.493231"
    },
    {
      "facilityId": 40199,
      "epaFacId": "100000015832",
      "facName": "DQGC Ross",
      "city": "Ross",
      "facStreet1Tx": "306 Rail Road Ave",
      "facStreet2Tx": null,
      "state": "ND",
      "zipCode": "58776",
      "zip4Code": null,
      "county": "MOUNTRAIL",
      "facLatDecMs": "48.313333",
      "facLongDecMs": "-102.366667"
    },
    {
      "facilityId": 1000104416,
      "epaFacId": "100000015878",
      "facName": "Parshall NH3",
      "city": "Parshall",
      "facStreet1Tx": "7181 38th Street NW",
      "facStreet2Tx": "",
      "state": "ND",
      "zipCode": "58770",
      "zip4Code": "",
      "county": "MOUNTRAIL",
      "facLatDecMs": "47.963382",
      "facLongDecMs": "-102.126683"
    },
    {
      "facilityId": 10235,
      "epaFacId": "100000015896",
      "facName": "Farmers Union Oil Company",
      "city": "Drayton",
      "facStreet1Tx": "Hwy 66 & Hwy 44",
      "facStreet2Tx": null,
      "state": "ND",
      "zipCode": "58224",
      "zip4Code": null,
      "county": "PEMBINA",
      "facLatDecMs": "48.566722",
      "facLongDecMs": "-97.166778"
    },
    {
      "facilityId": 1298,
      "epaFacId": "100000015912",
      "facName": "Nash Grain and Trading Co.",
      "city": "Grafton",
      "facStreet1Tx": "211 Nash Place",
      "facStreet2Tx": null,
      "state": "ND",
      "zipCode": "58237",
      "zip4Code": null,
      "county": "WALSH",
      "facLatDecMs": "48.475917",
      "facLongDecMs": "-97.523028"
    },
    {
      "facilityId": 39305,
      "epaFacId": "100000016163",
      "facName": "Sharon Farmers Coop Elevator",
      "city": "Sharon",
      "facStreet1Tx": "500 Elevator Road",
      "facStreet2Tx": null,
      "state": "ND",
      "zipCode": "58277",
      "zip4Code": null,
      "county": "STEELE",
      "facLatDecMs": "47.600472",
      "facLongDecMs": "-097.896028"
    },
    {
      "facilityId": 1000071316,
      "epaFacId": "100000019393",
      "facName": "Larson Grain Company Fredonia Ammonia Facility",
      "city": "Fredonia",
      "facStreet1Tx": "Highway 56",
      "facStreet2Tx": null,
      "state": "ND",
      "zipCode": "58440",
      "zip4Code": "0035",
      "county": "LOGAN",
      "facLatDecMs": "46.336492",
      "facLongDecMs": "-099.118915"
    },
    {
      "facilityId": 1000044845,
      "epaFacId": "100000019437",
      "facName": "Alsen Farmers Elevator Company - Ammonia Plant",
      "city": "Alsen",
      "facStreet1Tx": "Hwy 66 West",
      "facStreet2Tx": null,
      "state": "ND",
      "zipCode": "58311",
      "zip4Code": null,
      "county": "CAVALIER",
      "facLatDecMs": "48.630256",
      "facLongDecMs": "-098.700743"
    },
    {
      "facilityId": 54092,
      "epaFacId": "100000020005",
      "facName": "Starkweather NH3 Facility",
      "city": "Starkweather",
      "facStreet1Tx": "11 1st Ave",
      "facStreet2Tx": null,
      "state": "ND",
      "zipCode": "58377",
      "zip4Code": null,
      "county": "RAMSEY",
      "facLatDecMs": "48.452222",
      "facLongDecMs": "-098.883333"
    },
    {
      "facilityId": 10271,
      "epaFacId": "100000020032",
      "facName": "Farmers Union Oil Company",
      "city": "Michigan",
      "facStreet1Tx": "Hwy 2",
      "facStreet2Tx": null,
      "state": "ND",
      "zipCode": "58259",
      "zip4Code": "0047",
      "county": "NELSON",
      "facLatDecMs": "48.020417",
      "facLongDecMs": "-98.121028"
    },
    {
      "facilityId": 1000112509,
      "epaFacId": "100000020121",
      "facName": "Mott Equity Exchange  Anhydrous Plant",
      "city": "Mott",
      "facStreet1Tx": "7121 Highway 8",
      "facStreet2Tx": "",
      "state": "ND",
      "zipCode": "58646",
      "zip4Code": "0309",
      "county": "HETTINGER",
      "facLatDecMs": "46.381480",
      "facLongDecMs": "-102.319093"
    },
    {
      "facilityId": 1000109385,
      "epaFacId": "100000020318",
      "facName": "North Prairie Ag",
      "city": "Hampden",
      "facStreet1Tx": "103 RR Ave. N",
      "facStreet2Tx": "",
      "state": "ND",
      "zipCode": "58338",
      "zip4Code": "",
      "county": "RAMSEY",
      "facLatDecMs": "48.541746",
      "facLongDecMs": "-98.653649"
    },
    {
      "facilityId": 1000087802,
      "epaFacId": "100000020407",
      "facName": "Central Dakota Frontier Coop. Wishek North Plant",
      "city": "Wishek",
      "facStreet1Tx": "7936 41st Ave SE",
      "facStreet2Tx": "",
      "state": "ND",
      "zipCode": "58495",
      "zip4Code": "",
      "county": "MCINTOSH",
      "facLatDecMs": "46.28122",
      "facLongDecMs": "-099.675068"
    },
    {
      "facilityId": 1000074966,
      "epaFacId": "100000021031",
      "facName": "Maple River Grain & Agronomy, LLC Prosper",
      "city": "Harwood",
      "facStreet1Tx": "100 Railroad Avenue",
      "facStreet2Tx": "County Hwy 22",
      "state": "ND",
      "zipCode": "58042",
      "zip4Code": null,
      "county": "CASS",
      "facLatDecMs": "46.962194",
      "facLongDecMs": "-097.020361"
    },
    {
      "facilityId": 1000099262,
      "epaFacId": "100000021353",
      "facName": "Baker Boy, Inc.",
      "city": "Dickinson",
      "facStreet1Tx": "170 GTA Drive",
      "facStreet2Tx": "West Industrial Park",
      "state": "ND",
      "zipCode": "58601",
      "zip4Code": "7200",
      "county": "STARK",
      "facLatDecMs": "46.8726802",
      "facLongDecMs": "-102.847080"
    },
    {
      "facilityId": 1000090556,
      "epaFacId": "100000021442",
      "facName": "Farmers Union Oil of Southern Valley, Fairmount",
      "city": "Fairmount",
      "facStreet1Tx": "18148 Highway 11",
      "facStreet2Tx": null,
      "state": "ND",
      "zipCode": "58030",
      "zip4Code": null,
      "county": "RICHLAND",
      "facLatDecMs": "46.030100",
      "facLongDecMs": "-096.602"
    },
    {
      "facilityId": 1000115270,
      "epaFacId": "100000021558",
      "facName": "Central Dakota Frontier Cooperative Hettinger",
      "city": "Hettinger",
      "facStreet1Tx": "110 Hwy 12 West",
      "facStreet2Tx": "",
      "state": "ND",
      "zipCode": "58639",
      "zip4Code": "",
      "county": "ADAMS",
      "facLatDecMs": "46.006356",
      "facLongDecMs": "-102.657451"
    },
    {
      "facilityId": 1000000156,
      "epaFacId": "100000021683",
      "facName": "Red Wing Gas Plant",
      "city": "Watford City",
      "facStreet1Tx": "NW 1/4 NE 1/4, Sec. 27, T148N,R101W",
      "facStreet2Tx": "20 miles S. of Arnegard,ND on CR 27",
      "state": "ND",
      "zipCode": "58854",
      "zip4Code": null,
      "county": "MCKENZIE",
      "facLatDecMs": "47.612611",
      "facLongDecMs": "-103.533139"
    },
    {
      "facilityId": 1000113043,
      "epaFacId": "100000021914",
      "facName": "CHS Inc. - Milnor NH3 Plant",
      "city": "Milnor",
      "facStreet1Tx": "13995 80th ST",
      "facStreet2Tx": "",
      "state": "ND",
      "zipCode": "58060",
      "zip4Code": "",
      "county": "SARGENT",
      "facLatDecMs": "46.261534",
      "facLongDecMs": "-97.472238"
    },
    {
      "facilityId": 1798,
      "epaFacId": "100000022021",
      "facName": "Wheatland Grain Inc.",
      "city": "Wheatland",
      "facStreet1Tx": "County Hwy 5",
      "facStreet2Tx": "Interstate 94",
      "state": "ND",
      "zipCode": "58058",
      "zip4Code": null,
      "county": "CASS",
      "facLatDecMs": "46.907278",
      "facLongDecMs": "-97.345861"
    },
    {
      "facilityId": 1000078098,
      "epaFacId": "100000022343",
      "facName": "CHS Inc. - Lisbon NH3 Plant",
      "city": "Lisbon",
      "facStreet1Tx": "411 Jackson Street",
      "facStreet2Tx": null,
      "state": "ND",
      "zipCode": "58054",
      "zip4Code": null,
      "county": "RANSOM",
      "facLatDecMs": "46.432544",
      "facLongDecMs": "-97.688811"
    },
    {
      "facilityId": 1000119910,
      "epaFacId": "100000022566",
      "facName": "Cavendish Farms",
      "city": "Jamestown",
      "facStreet1Tx": "5855 Third Street Southeast",
      "facStreet2Tx": "",
      "state": "ND",
      "zipCode": "58401",
      "zip4Code": "1980",
      "county": "STUTSMAN",
      "facLatDecMs": "46.907769 ",
      "facLongDecMs": "-98.623924 "
    },
    {
      "facilityId": 33675,
      "epaFacId": "100000023592",
      "facName": "Hoople Farmers Grain Co",
      "city": "Hoople",
      "facStreet1Tx": "Hwy 18 South",
      "facStreet2Tx": null,
      "state": "ND",
      "zipCode": "58243",
      "zip4Code": null,
      "county": "WALSH",
      "facLatDecMs": "48.513750",
      "facLongDecMs": "-097.621639"
    },
    {
      "facilityId": 1000010440,
      "epaFacId": "100000024662",
      "facName": "FESSENDEN COOP ASS'N., HEIMDAL STATION",
      "city": "HEIMDAL",
      "facStreet1Tx": "15 MAIN STREET",
      "facStreet2Tx": null,
      "state": "ND",
      "zipCode": "58341",
      "zip4Code": "0000",
      "county": "WELLS",
      "facLatDecMs": "47.793611",
      "facLongDecMs": "-099.642500"
    },
    {
      "facilityId": 1000088986,
      "epaFacId": "100000024724",
      "facName": "CENDAK COOPERATIVE, CHEMICAL PLANT",
      "city": "FESSENDEN",
      "facStreet1Tx": "COUNTY HWY 52 WEST",
      "facStreet2Tx": "",
      "state": "ND",
      "zipCode": "58438",
      "zip4Code": "0126",
      "county": "WELLS",
      "facLatDecMs": "47.645278",
      "facLongDecMs": "-099.642778"
    },
    {
      "facilityId": 1000088987,
      "epaFacId": "100000025117",
      "facName": "CENDAK COOPERATIVE, ESMOND STATION",
      "city": "ESMOND",
      "facStreet1Tx": "22 FIRST SW",
      "facStreet2Tx": "",
      "state": "ND",
      "zipCode": "58332",
      "zip4Code": "0098",
      "county": "BENSON",
      "facLatDecMs": "48.034722",
      "facLongDecMs": "-099.766111"
    },
    {
      "facilityId": 1000100289,
      "epaFacId": "100000025581",
      "facName": "Legacy Cooperative - Wales NH3 Facility",
      "city": "Wales",
      "facStreet1Tx": "221 Great Northern St.",
      "facStreet2Tx": null,
      "state": "ND",
      "zipCode": "58581",
      "zip4Code": null,
      "county": "CAVALIER",
      "facLatDecMs": "48.896770",
      "facLongDecMs": "-98.603292"
    },
    {
      "facilityId": 16230,
      "epaFacId": "100000026973",
      "facName": "AGP GRAIN LTD",
      "city": "ARVILLA",
      "facStreet1Tx": "216 WARDWELL STREET",
      "facStreet2Tx": null,
      "state": "ND",
      "zipCode": "58214",
      "zip4Code": null,
      "county": "GRAND FORKS",
      "facLatDecMs": "47.916667",
      "facLongDecMs": "-97.5"
    },
    {
      "facilityId": 2256,
      "epaFacId": "100000027348",
      "facName": "Farmers Union Grain Co. of Edgeley",
      "city": "Monango",
      "facStreet1Tx": "8676  Highway 281",
      "facStreet2Tx": null,
      "state": "ND",
      "zipCode": "58471",
      "zip4Code": null,
      "county": "DICKEY",
      "facLatDecMs": "46.155556",
      "facLongDecMs": "-98.584083"
    },
    {
      "facilityId": 1000001242,
      "epaFacId": "100000029694",
      "facName": "CHS INC - Wyndmere",
      "city": "Wyndmere",
      "facStreet1Tx": "Highway 13",
      "facStreet2Tx": null,
      "state": "ND",
      "zipCode": "58081",
      "zip4Code": null,
      "county": "RICHLAND",
      "facLatDecMs": "46.261333",
      "facLongDecMs": "-097.125194"
    },
    {
      "facilityId": 1000112590,
      "epaFacId": "100000030058",
      "facName": "North Prairie Ag - Edmore",
      "city": "Edmore",
      "facStreet1Tx": "6850 102nd Ave NE",
      "facStreet2Tx": "",
      "state": "ND",
      "zipCode": "58330",
      "zip4Code": "0157",
      "county": "RAMSEY",
      "facLatDecMs": "48.406335",
      "facLongDecMs": "-98.453225"
    },
    {
      "facilityId": 1000113005,
      "epaFacId": "100000030272",
      "facName": "CHS Inc. - Mantador",
      "city": "Mantador",
      "facStreet1Tx": "101 Mills St.",
      "facStreet2Tx": "",
      "state": "ND",
      "zipCode": "58058",
      "zip4Code": "0085",
      "county": "RICHLAND",
      "facLatDecMs": "46.163463",
      "facLongDecMs": "-096.979490"
    },
    {
      "facilityId": 1000047019,
      "epaFacId": "100000030735",
      "facName": "NEW CENTURY AG, NOONAN STATION",
      "city": "NOONAN",
      "facStreet1Tx": "HIGHWAY 5 & Highway 40",
      "facStreet2Tx": null,
      "state": "ND",
      "zipCode": "58765",
      "zip4Code": "0099",
      "county": "DIVIDE",
      "facLatDecMs": "48.883361",
      "facLongDecMs": "-103.031000"
    },
    {
      "facilityId": 1000047196,
      "epaFacId": "100000030986",
      "facName": "The Arthur Companies, Inc. Buffalo",
      "city": "Buffalo",
      "facStreet1Tx": "80 West Main",
      "facStreet2Tx": null,
      "state": "ND",
      "zipCode": "58011",
      "zip4Code": null,
      "county": "CASS",
      "facLatDecMs": "46.920488",
      "facLongDecMs": "-097.563136"
    },
    {
      "facilityId": 1000115297,
      "epaFacId": "100000031057",
      "facName": "Central Dakota Frontier Coop. New Salem Bulk Plant",
      "city": "New Salem",
      "facStreet1Tx": "3748 Highway 31",
      "facStreet2Tx": "",
      "state": "ND",
      "zipCode": "58563",
      "zip4Code": "",
      "county": "MORTON",
      "facLatDecMs": "46.87036",
      "facLongDecMs": "-101.417000"
    },
    {
      "facilityId": 1000014747,
      "epaFacId": "100000031155",
      "facName": "The Arthur Companies, Inc. Tower City",
      "city": "Tower City",
      "facStreet1Tx": "706 Main St",
      "facStreet2Tx": null,
      "state": "ND",
      "zipCode": "58071",
      "zip4Code": null,
      "county": "CASS",
      "facLatDecMs": "46.926111",
      "facLongDecMs": "-097.673333"
    },
    {
      "facilityId": 1000086902,
      "epaFacId": "100000031208",
      "facName": "Williston Water Treatment Plant",
      "city": "Williston",
      "facStreet1Tx": "4806 Highway 85",
      "facStreet2Tx": null,
      "state": "ND",
      "zipCode": "58802",
      "zip4Code": "4806",
      "county": "WILLIAMS",
      "facLatDecMs": "48.064600",
      "facLongDecMs": "-103.430300"
    },
    {
      "facilityId": 2593,
      "epaFacId": "100000031752",
      "facName": "Kindred Grain & Oil Anhydrous Ammonia Site",
      "city": "Kindred",
      "facStreet1Tx": "470 Linden Street",
      "facStreet2Tx": "PO Box 400",
      "state": "ND",
      "zipCode": "58051",
      "zip4Code": "0400",
      "county": "CASS",
      "facLatDecMs": "46.646667",
      "facLongDecMs": "-97.019444"
    },
    {
      "facilityId": 2596,
      "epaFacId": "100000031798",
      "facName": "Kindred Grain & Oil Nansen Anhydrous Ammonia Site",
      "city": "Barney",
      "facStreet1Tx": "16220 County Road 8",
      "facStreet2Tx": null,
      "state": "ND",
      "zipCode": "58008",
      "zip4Code": null,
      "county": "RICHLAND",
      "facLatDecMs": "46.382778",
      "facLongDecMs": "-97.010278"
    },
    {
      "facilityId": 1000100407,
      "epaFacId": "100000032412",
      "facName": "Legacy Cooperative - Cando Location",
      "city": "Cando",
      "facStreet1Tx": "7398 70th Avenue NE",
      "facStreet2Tx": null,
      "state": "ND",
      "zipCode": "58324",
      "zip4Code": "9501",
      "county": "TOWNER",
      "facLatDecMs": "48.6050",
      "facLongDecMs": "-099.143676"
    },
    {
      "facilityId": 1000109387,
      "epaFacId": "100000032494",
      "facName": "Farmers Union Oil - Lawton NH3",
      "city": "Lawton",
      "facStreet1Tx": "6139 Hwy #1",
      "facStreet2Tx": "",
      "state": "ND",
      "zipCode": "58345",
      "zip4Code": "",
      "county": "RAMSEY",
      "facLatDecMs": "48.302861",
      "facLongDecMs": "-098.358880"
    },
    {
      "facilityId": 1000100408,
      "epaFacId": "100000032546",
      "facName": "Legacy Cooperative - West Plant",
      "city": "Cando",
      "facStreet1Tx": "5421 74th Street NE",
      "facStreet2Tx": null,
      "state": "ND",
      "zipCode": "58324",
      "zip4Code": "9501",
      "county": "TOWNER",
      "facLatDecMs": "48.487545",
      "facLongDecMs": "-099.488445"
    },
    {
      "facilityId": 2698,
      "epaFacId": "100000032733",
      "facName": "Mon-Kota, Inc.",
      "city": "Fairview",
      "facStreet1Tx": "Hwy 200",
      "facStreet2Tx": "State Street",
      "state": "ND",
      "zipCode": "59221",
      "zip4Code": null,
      "county": "MCKENZIE",
      "facLatDecMs": "47.857639",
      "facLongDecMs": "-104.040222"
    },
    {
      "facilityId": 1000114039,
      "epaFacId": "100000034401",
      "facName": "City of Fargo Water Treatment Plant",
      "city": "Fargo",
      "facStreet1Tx": "435 14th Avenue South",
      "facStreet2Tx": "",
      "state": "ND",
      "zipCode": "58103",
      "zip4Code": "",
      "county": "CASS",
      "facLatDecMs": "46.859806",
      "facLongDecMs": "-096.786528"
    },
    {
      "facilityId": 54914,
      "epaFacId": "100000034517",
      "facName": "Cando Farmers Grain & Oil Coop - Maza Location",
      "city": "Cando",
      "facStreet1Tx": "6753 66th Street NE",
      "facStreet2Tx": null,
      "state": "ND",
      "zipCode": "58324",
      "zip4Code": "0000",
      "county": "TOWNER",
      "facLatDecMs": "48.374180",
      "facLongDecMs": "-099.199258"
    },
    {
      "facilityId": 1000100409,
      "epaFacId": "100000034535",
      "facName": "Legacy Cooperative - Egeland Location",
      "city": "Egeland",
      "facStreet1Tx": "7151 84th Street NE",
      "facStreet2Tx": null,
      "state": "ND",
      "zipCode": "58331",
      "zip4Code": "0000",
      "county": "TOWNER",
      "facLatDecMs": "48.637857",
      "facLongDecMs": "-099.121709"
    },
    {
      "facilityId": 1000093206,
      "epaFacId": "100000034571",
      "facName": "Farmers Union Oil Co-Alice NH3 Plant",
      "city": "Alice",
      "facStreet1Tx": "225 2nd Street SE",
      "facStreet2Tx": null,
      "state": "ND",
      "zipCode": "58031",
      "zip4Code": null,
      "county": "CASS",
      "facLatDecMs": "46.767111",
      "facLongDecMs": "-097.555583"
    },
    {
      "facilityId": 1000080653,
      "epaFacId": "100000035348",
      "facName": "Central Dakota Frontier Coop.  Bismarck Plant",
      "city": "Bismarck",
      "facStreet1Tx": "1505 Yegen Road South",
      "facStreet2Tx": null,
      "state": "ND",
      "zipCode": "58502",
      "zip4Code": "0996",
      "county": "BURLEIGH",
      "facLatDecMs": "46.788576",
      "facLongDecMs": "-100.729297"
    },
    {
      "facilityId": 38140,
      "epaFacId": "100000035641",
      "facName": "Agriliance LLC - Hatton",
      "city": "Hatton",
      "facStreet1Tx": "Highway 18",
      "facStreet2Tx": null,
      "state": "ND",
      "zipCode": "58240",
      "zip4Code": "0309",
      "county": "TRAILL",
      "facLatDecMs": "47.631389",
      "facLongDecMs": "-097.453139"
    },
    {
      "facilityId": 1000041232,
      "epaFacId": "100000035963",
      "facName": "CHS Inc.  - Lidgerwood",
      "city": "Lidgerwood",
      "facStreet1Tx": "15605 Highway 11 East",
      "facStreet2Tx": null,
      "state": "ND",
      "zipCode": "58053",
      "zip4Code": null,
      "county": "RICHLAND",
      "facLatDecMs": "46.078287",
      "facLongDecMs": "-097.150131"
    },
    {
      "facilityId": 2857,
      "epaFacId": "100000036267",
      "facName": "Tronson Grain",
      "city": "Hamer",
      "facStreet1Tx": "314 3rd Avenue",
      "facStreet2Tx": null,
      "state": "ND",
      "zipCode": "58380",
      "zip4Code": null,
      "county": "EDDY",
      "facLatDecMs": "47.8445",
      "facLongDecMs": "-98.571"
    },
    {
      "facilityId": 1000079569,
      "epaFacId": "100000036445",
      "facName": "Central Dakota Frontier Cooperative Mandan Plant",
      "city": "Mandan",
      "facStreet1Tx": "County Road 138 West",
      "facStreet2Tx": null,
      "state": "ND",
      "zipCode": "58554",
      "zip4Code": null,
      "county": "MORTON",
      "facLatDecMs": "46.762200",
      "facLongDecMs": "-100.956688"
    },
    {
      "facilityId": 3002,
      "epaFacId": "100000036891",
      "facName": "Farmers Union Grain Company",
      "city": "Binford",
      "facStreet1Tx": "Main Street",
      "facStreet2Tx": "PO Box 165",
      "state": "ND",
      "zipCode": "58416",
      "zip4Code": null,
      "county": "GRIGGS",
      "facLatDecMs": "47.558056",
      "facLongDecMs": "-98.351111"
    },
    {
      "facilityId": 1000120202,
      "epaFacId": "100000038069",
      "facName": "Dakota Agronomy Partners - Falkirk",
      "city": "Falkirk",
      "facStreet1Tx": "101 Main St",
      "facStreet2Tx": "",
      "state": "ND",
      "zipCode": "58576",
      "zip4Code": "4501",
      "county": "MCLEAN",
      "facLatDecMs": "47.362130",
      "facLongDecMs": "-101.095180"
    },
    {
      "facilityId": 1000047020,
      "epaFacId": "100000038096",
      "facName": "NEW CENTURY AG.  CROSBY STATION",
      "city": "CROSBY",
      "facStreet1Tx": "303 2nd St. SW",
      "facStreet2Tx": null,
      "state": "ND",
      "zipCode": "58730",
      "zip4Code": null,
      "county": "DIVIDE",
      "facLatDecMs": "48.914333",
      "facLongDecMs": "-103.276139"
    },
    {
      "facilityId": 1000077541,
      "epaFacId": "100000038522",
      "facName": "Dakota Midland Grain, LLC",
      "city": "Minot",
      "facStreet1Tx": "12801 Hwy. 83 S.",
      "facStreet2Tx": null,
      "state": "ND",
      "zipCode": "58701",
      "zip4Code": null,
      "county": "WARD",
      "facLatDecMs": "48.103333",
      "facLongDecMs": "-101.294722"
    },
    {
      "facilityId": 1000113525,
      "epaFacId": "100000038808",
      "facName": "Dakota Midland Grain, LLC",
      "city": "Velva",
      "facStreet1Tx": "4196 13th Ave. N.",
      "facStreet2Tx": "",
      "state": "ND",
      "zipCode": "58790",
      "zip4Code": "",
      "county": "MCHENRY",
      "facLatDecMs": "48.021944",
      "facLongDecMs": "-100.864167"
    },
    {
      "facilityId": 1000113526,
      "epaFacId": "100000038826",
      "facName": "Dakota Midland Grain, LLC",
      "city": "Norwich",
      "facStreet1Tx": "5758 Norwich Road",
      "facStreet2Tx": "",
      "state": "ND",
      "zipCode": "58768",
      "zip4Code": "",
      "county": "MCHENRY",
      "facLatDecMs": "48.248333",
      "facLongDecMs": "-100.985000"
    },
    {
      "facilityId": 1000091162,
      "epaFacId": "100000038844",
      "facName": "AgriTec, Inc.",
      "city": "Deering",
      "facStreet1Tx": "117 Railroad Ave. S.",
      "facStreet2Tx": null,
      "state": "ND",
      "zipCode": "58731",
      "zip4Code": "4035",
      "county": "MCHENRY",
      "facLatDecMs": "48.394444",
      "facLongDecMs": "-101.045556"
    },
    {
      "facilityId": 1000090025,
      "epaFacId": "100000038899",
      "facName": "Schmalenberger Farm",
      "city": "Hebron",
      "facStreet1Tx": "ND Highway #10, 3 Miles W of Hebron",
      "facStreet2Tx": null,
      "state": "ND",
      "zipCode": "58638",
      "zip4Code": "7112",
      "county": "STARK",
      "facLatDecMs": "46.894722",
      "facLongDecMs": "-102.111389"
    },
    {
      "facilityId": 1000112722,
      "epaFacId": "100000039442",
      "facName": "Farmers Union Oil Company Of Glen Ullin",
      "city": "Glen Ullin",
      "facStreet1Tx": "6410 Highway 49",
      "facStreet2Tx": "",
      "state": "ND",
      "zipCode": "58631",
      "zip4Code": "0635",
      "county": "MORTON",
      "facLatDecMs": "46.817336",
      "facLongDecMs": "-101.802971"
    },
    {
      "facilityId": 1000094043,
      "epaFacId": "100000040564",
      "facName": "Grasslands Complex",
      "city": "Alexander",
      "facStreet1Tx": "16001 Bennie Pierre Road",
      "facStreet2Tx": null,
      "state": "ND",
      "zipCode": "58831",
      "zip4Code": null,
      "county": "MCKENZIE",
      "facLatDecMs": "47.590556",
      "facLongDecMs": "-103.998889"
    },
    {
      "facilityId": 1000115956,
      "epaFacId": "100000040895",
      "facName": "Lignite Gas Plant",
      "city": "Lignite",
      "facStreet1Tx": "10050 84th Ave. NW",
      "facStreet2Tx": "",
      "state": "ND",
      "zipCode": "58752",
      "zip4Code": "",
      "county": "BURKE",
      "facLatDecMs": "48.873333",
      "facLongDecMs": "-102.545833"
    },
    {
      "facilityId": 3348,
      "epaFacId": "100000041206",
      "facName": "FARMERS UNION OIL CO. CAVALIER - NECHE",
      "city": "CAVALIER",
      "facStreet1Tx": "306 INDUSTRIAL PARK",
      "facStreet2Tx": null,
      "state": "ND",
      "zipCode": "58220",
      "zip4Code": null,
      "county": "PEMBINA",
      "facLatDecMs": "48.792722",
      "facLongDecMs": "-97.627139"
    },
    {
      "facilityId": 19122,
      "epaFacId": "100000041215",
      "facName": "MAYPORT FARMERS COOP-PORTLAND JUNCTION",
      "city": "PORTLAND",
      "facStreet1Tx": "4 Mile North on Hwy 200",
      "facStreet2Tx": null,
      "state": "ND",
      "zipCode": "58274",
      "zip4Code": null,
      "county": "TRAILL",
      "facLatDecMs": "47.562472",
      "facLongDecMs": "-97.370889"
    },
    {
      "facilityId": 1000105706,
      "epaFacId": "100000041224",
      "facName": "Central Dakota Frontier Coop. Regent South Plant",
      "city": "Regent",
      "facStreet1Tx": "1 Railway Street",
      "facStreet2Tx": "",
      "state": "ND",
      "zipCode": "58650",
      "zip4Code": "",
      "county": "HETTINGER",
      "facLatDecMs": "46.421944",
      "facLongDecMs": "-102.552778"
    },
    {
      "facilityId": 1000043743,
      "epaFacId": "100000041554",
      "facName": "Marmarth Gas Plant",
      "city": "Marmarth",
      "facStreet1Tx": "77-06 172 Avenue SW",
      "facStreet2Tx": null,
      "state": "ND",
      "zipCode": "58643",
      "zip4Code": null,
      "county": "SLOPE",
      "facLatDecMs": "46.383333",
      "facLongDecMs": "-103.256667"
    },
    {
      "facilityId": 1000106908,
      "epaFacId": "100000041992",
      "facName": "Arthur Companies, Arthur",
      "city": "Arthur",
      "facStreet1Tx": "429 Main Street",
      "facStreet2Tx": "",
      "state": "ND",
      "zipCode": "58006",
      "zip4Code": "0145",
      "county": "CASS",
      "facLatDecMs": "47.100521",
      "facLongDecMs": "-097.218929"
    },
    {
      "facilityId": 3353,
      "epaFacId": "100000042125",
      "facName": "Mayport Farmers coop Portland station",
      "city": "Portland",
      "facStreet1Tx": "117 Morrison ave",
      "facStreet2Tx": null,
      "state": "ND",
      "zipCode": "58274",
      "zip4Code": null,
      "county": "TRAILL",
      "facLatDecMs": "47.494167",
      "facLongDecMs": "-97.369722"
    },
    {
      "facilityId": 1000079220,
      "epaFacId": "100000042161",
      "facName": "Crystal Simplot Grower Solutions",
      "city": "Crystal",
      "facStreet1Tx": "750 North St.",
      "facStreet2Tx": null,
      "state": "ND",
      "zipCode": "58222",
      "zip4Code": null,
      "county": "PEMBINA",
      "facLatDecMs": "48.605732",
      "facLongDecMs": "-097.668647"
    },
    {
      "facilityId": 1000119096,
      "epaFacId": "100000042287",
      "facName": "CenDak Co-op - Harvey Location",
      "city": "Harvey",
      "facStreet1Tx": "501 North Street West",
      "facStreet2Tx": "",
      "state": "ND",
      "zipCode": "58341",
      "zip4Code": "0124",
      "county": "WELLS",
      "facLatDecMs": "47.775000",
      "facLongDecMs": "-099.939778"
    },
    {
      "facilityId": 1000113906,
      "epaFacId": "100000042376",
      "facName": "SWA Water Treatment Plant",
      "city": "Dickinson",
      "facStreet1Tx": "811 West Broadway",
      "facStreet2Tx": "",
      "state": "ND",
      "zipCode": "58601",
      "zip4Code": "",
      "county": "STARK",
      "facLatDecMs": "46.875718",
      "facLongDecMs": "-102.802708"
    },
    {
      "facilityId": 10462,
      "epaFacId": "100000042394",
      "facName": "FARMERS UNION OIL CO. CAVALIER - NECHE",
      "city": "CAVALIER",
      "facStreet1Tx": "406 AIRPORT ROAD",
      "facStreet2Tx": null,
      "state": "ND",
      "zipCode": "58220",
      "zip4Code": null,
      "county": "PEMBINA",
      "facLatDecMs": "48.792722",
      "facLongDecMs": "-97.627139"
    },
    {
      "facilityId": 17191,
      "epaFacId": "100000042633",
      "facName": "Mayport Farmers Coop- Mayville Elevator",
      "city": "Mayville",
      "facStreet1Tx": "151 2nd ave SE",
      "facStreet2Tx": null,
      "state": "ND",
      "zipCode": "58257",
      "zip4Code": null,
      "county": "TRAILL",
      "facLatDecMs": "47.506389",
      "facLongDecMs": "-97.326667"
    },
    {
      "facilityId": 1000050081,
      "epaFacId": "100000044141",
      "facName": "YPSILANTI EQUITY ELEVATOR",
      "city": "YPSILANTI",
      "facStreet1Tx": "204 FRONT AVE N.",
      "facStreet2Tx": null,
      "state": "ND",
      "zipCode": "58497",
      "zip4Code": "0287",
      "county": "STUTSMAN",
      "facLatDecMs": "46.783389",
      "facLongDecMs": "-098.567028"
    },
    {
      "facilityId": 17675,
      "epaFacId": "100000044276",
      "facName": "Miller Elevator Company",
      "city": "Pillsbury",
      "facStreet1Tx": "330 Railroad Avenue",
      "facStreet2Tx": null,
      "state": "ND",
      "zipCode": "58065",
      "zip4Code": "0037",
      "county": "BARNES",
      "facLatDecMs": "47.203667",
      "facLongDecMs": "-97.7925"
    },
    {
      "facilityId": 18790,
      "epaFacId": "100000044579",
      "facName": "FARMERS UNION OIL CO. CAVALIER - NECHE",
      "city": "NECHE",
      "facStreet1Tx": "448 Main Street",
      "facStreet2Tx": null,
      "state": "ND",
      "zipCode": "58265",
      "zip4Code": null,
      "county": "PEMBINA",
      "facLatDecMs": "48.964056",
      "facLongDecMs": "-97.567056"
    },
    {
      "facilityId": 1000036061,
      "epaFacId": "100000044864",
      "facName": "United Prairie Cooperative",
      "city": "KEENE",
      "facStreet1Tx": "212 2nd Ave",
      "facStreet2Tx": null,
      "state": "ND",
      "zipCode": "58847",
      "zip4Code": null,
      "county": "MCKENZIE",
      "facLatDecMs": "47.92833",
      "facLongDecMs": "-102.94211"
    },
    {
      "facilityId": 1000005241,
      "epaFacId": "100000045612",
      "facName": "Farmers Elevator Co. (McCanna Station)",
      "city": "McCanna",
      "facStreet1Tx": "2284 McCanna Street",
      "facStreet2Tx": null,
      "state": "ND",
      "zipCode": "58251",
      "zip4Code": "5100",
      "county": "GRAND FORKS",
      "facLatDecMs": "48.000556",
      "facLongDecMs": "-097.703889"
    },
    {
      "facilityId": 1000069909,
      "epaFacId": "100000045658",
      "facName": "FARMERS ELEV. CO. (Niagara Station)",
      "city": "Niagara",
      "facStreet1Tx": "2291 Niagara St",
      "facStreet2Tx": null,
      "state": "ND",
      "zipCode": "58266",
      "zip4Code": null,
      "county": "GRAND FORKS",
      "facLatDecMs": "48.003664",
      "facLongDecMs": "-097.872788"
    },
    {
      "facilityId": 1000077297,
      "epaFacId": "100000045729",
      "facName": "City of Minot Water Treatment Plant",
      "city": "Minot",
      "facStreet1Tx": "900 16th Street SW",
      "facStreet2Tx": "",
      "state": "ND",
      "zipCode": "58701",
      "zip4Code": "",
      "county": "WARD",
      "facLatDecMs": "48.277111",
      "facLongDecMs": "-101.304139"
    },
    {
      "facilityId": 46950,
      "epaFacId": "100000046452",
      "facName": "CF Industries, Inc. - Devils Lake Terminal",
      "city": "Devils Lake",
      "facStreet1Tx": "4107 14st West",
      "facStreet2Tx": null,
      "state": "ND",
      "zipCode": "58301",
      "zip4Code": "9608",
      "county": "RAMSEY",
      "facLatDecMs": "48.140000",
      "facLongDecMs": "-098.915833"
    },
    {
      "facilityId": 1000079025,
      "epaFacId": "100000047031",
      "facName": "Grand Forks Water Treatment",
      "city": "Grand Forks",
      "facStreet1Tx": "503 South 4th Street",
      "facStreet2Tx": null,
      "state": "ND",
      "zipCode": "58206",
      "zip4Code": "5200",
      "county": "GRAND FORKS",
      "facLatDecMs": "47.921000",
      "facLongDecMs": "-097.024778"
    },
    {
      "facilityId": 38016,
      "epaFacId": "100000050455",
      "facName": "Cargill - Team Wahpeton",
      "city": "Wahpeton",
      "facStreet1Tx": "18049 County Road 8 East",
      "facStreet2Tx": null,
      "state": "ND",
      "zipCode": "58075",
      "zip4Code": "9700",
      "county": "RICHLAND",
      "facLatDecMs": "46.345208",
      "facLongDecMs": "-096.637788"
    },
    {
      "facilityId": 1000079587,
      "epaFacId": "100000053577",
      "facName": "Langdon Simplot Grower Solutions",
      "city": "Langdon",
      "facStreet1Tx": "Rail Road Track East",
      "facStreet2Tx": null,
      "state": "ND",
      "zipCode": "58249",
      "zip4Code": "0109",
      "county": "CAVALIER",
      "facLatDecMs": "48.752875",
      "facLongDecMs": "-098.357389"
    },
    {
      "facilityId": 1000105574,
      "epaFacId": "100000053666",
      "facName": "Dakota Yeast LLC",
      "city": "Wahpeton",
      "facStreet1Tx": "18175 Red River Road West",
      "facStreet2Tx": "",
      "state": "ND",
      "zipCode": "58075",
      "zip4Code": "",
      "county": "RICHLAND",
      "facLatDecMs": "46.326667",
      "facLongDecMs": "-096.617778"
    },
    {
      "facilityId": 32121,
      "epaFacId": "100000053853",
      "facName": "Munich Simplot Grower Solution",
      "city": "Munich",
      "facStreet1Tx": "Pacific Avenue",
      "facStreet2Tx": null,
      "state": "ND",
      "zipCode": "58352",
      "zip4Code": null,
      "county": "CAVALIER",
      "facLatDecMs": "48.671495",
      "facLongDecMs": "-098.834625"
    },
    {
      "facilityId": 1000043833,
      "epaFacId": "100000054102",
      "facName": "Hannah Simplot Grower Solutions",
      "city": "Hannah",
      "facStreet1Tx": "213 Railroad Street",
      "facStreet2Tx": null,
      "state": "ND",
      "zipCode": "58239",
      "zip4Code": null,
      "county": "CAVALIER",
      "facLatDecMs": "48.975164",
      "facLongDecMs": "-098.689759"
    },
    {
      "facilityId": 1000079244,
      "epaFacId": "100000054148",
      "facName": "Vang Simplot Grower Solutions",
      "city": "Vang",
      "facStreet1Tx": "County Road 55 East",
      "facStreet2Tx": null,
      "state": "ND",
      "zipCode": "58249",
      "zip4Code": null,
      "county": "CAVALIER",
      "facLatDecMs": "48.905439",
      "facLongDecMs": "-098.203585"
    },
    {
      "facilityId": 1000043994,
      "epaFacId": "100000055557",
      "facName": "Grafton Simplot Grower Solutions",
      "city": "Grafton",
      "facStreet1Tx": "723 Detweiler Drive",
      "facStreet2Tx": null,
      "state": "ND",
      "zipCode": "58237",
      "zip4Code": null,
      "county": "WALSH",
      "facLatDecMs": "48.431043",
      "facLongDecMs": "-097.398798"
    },
    {
      "facilityId": 4250,
      "epaFacId": "100000055888",
      "facName": "Hoople Simplot Soilbuilders",
      "city": "Hoople",
      "facStreet1Tx": "Main Street",
      "facStreet2Tx": null,
      "state": "ND",
      "zipCode": "58243",
      "zip4Code": "0190",
      "county": "WALSH",
      "facLatDecMs": "48.506833",
      "facLongDecMs": "-97.623333"
    },
    {
      "facilityId": 4251,
      "epaFacId": "100000055922",
      "facName": "Bathgate Simplot Soilbuilders",
      "city": "Bathgate",
      "facStreet1Tx": "Bathgate",
      "facStreet2Tx": null,
      "state": "ND",
      "zipCode": "28216",
      "zip4Code": null,
      "county": "PEMBINA",
      "facLatDecMs": "48.879667",
      "facLongDecMs": "-97.473667"
    },
    {
      "facilityId": 1000006720,
      "epaFacId": "100000056002",
      "facName": "Cavalier Simplot Grower Solutions",
      "city": "Cavalier",
      "facStreet1Tx": "310 Industrial Park",
      "facStreet2Tx": null,
      "state": "ND",
      "zipCode": "58220",
      "zip4Code": "0059",
      "county": "PEMBINA",
      "facLatDecMs": "48.784500",
      "facLongDecMs": "-097.626000"
    },
    {
      "facilityId": 4253,
      "epaFacId": "100000056075",
      "facName": "Hensel Simplot Soilbuilders",
      "city": "Hensel",
      "facStreet1Tx": "330 S. Burlington Avenue",
      "facStreet2Tx": null,
      "state": "ND",
      "zipCode": "58241",
      "zip4Code": null,
      "county": "PEMBINA",
      "facLatDecMs": "48.683833",
      "facLongDecMs": "-97.6685"
    },
    {
      "facilityId": 1000046325,
      "epaFacId": "100000056887",
      "facName": "Donnybrook Plant",
      "city": "Donnybrook",
      "facStreet1Tx": "3 Main Street South",
      "facStreet2Tx": null,
      "state": "ND",
      "zipCode": "58734",
      "zip4Code": null,
      "county": "WARD",
      "facLatDecMs": "48.306260",
      "facLongDecMs": "-101.530220"
    },
    {
      "facilityId": 1000104424,
      "epaFacId": "100000057332",
      "facName": "Carpio North",
      "city": "Carpio",
      "facStreet1Tx": "7295 Highway 28",
      "facStreet2Tx": "",
      "state": "ND",
      "zipCode": "58725",
      "zip4Code": "0099",
      "county": "RENVILLE",
      "facLatDecMs": "48.473402",
      "facLongDecMs": "-101.713302"
    },
    {
      "facilityId": 1000113850,
      "epaFacId": "100000061327",
      "facName": "CHS Inc.-Coteau",
      "city": "Coteau",
      "facStreet1Tx": "201 Railroad St.",
      "facStreet2Tx": "",
      "state": "ND",
      "zipCode": "58721",
      "zip4Code": "0134",
      "county": "BURKE",
      "facLatDecMs": "48.756097",
      "facLongDecMs": "-102.321350"
    },
    {
      "facilityId": 1000001749,
      "epaFacId": "100000061425",
      "facName": "CHS, Inc.-West Fargo",
      "city": "West Fargo",
      "facStreet1Tx": "12 Ave. N & Center St.",
      "facStreet2Tx": null,
      "state": "ND",
      "zipCode": "58078",
      "zip4Code": "0367",
      "county": "CASS",
      "facLatDecMs": "46.941667",
      "facLongDecMs": "-096.896667"
    },
    {
      "facilityId": 1000041239,
      "epaFacId": "100000061452",
      "facName": "CHS Inc.- Horace",
      "city": "Horace",
      "facStreet1Tx": "301 Main St.",
      "facStreet2Tx": null,
      "state": "ND",
      "zipCode": "58047",
      "zip4Code": "0009",
      "county": "CASS",
      "facLatDecMs": "46.753006",
      "facLongDecMs": "-96.903149"
    },
    {
      "facilityId": 1000042584,
      "epaFacId": "100000061826",
      "facName": "CHS Inc.-Rohrville",
      "city": "Devils Lake",
      "facStreet1Tx": "5037 91st Ave. NE",
      "facStreet2Tx": null,
      "state": "ND",
      "zipCode": "58301",
      "zip4Code": null,
      "county": "RAMSEY",
      "facLatDecMs": "48.142283",
      "facLongDecMs": "-098.661645"
    },
    {
      "facilityId": 1000104687,
      "epaFacId": "100000062031",
      "facName": "CHS Inc. - Sanborn Facility",
      "city": "Sanborn",
      "facStreet1Tx": "610 7th Street",
      "facStreet2Tx": "",
      "state": "ND",
      "zipCode": "58480",
      "zip4Code": "0036",
      "county": "BARNES",
      "facLatDecMs": "46.939722",
      "facLongDecMs": "-098.225000"
    },
    {
      "facilityId": 1000042751,
      "epaFacId": "100000062479",
      "facName": "WATFORD CITY STORAGE",
      "city": "WATFORD CITY",
      "facStreet1Tx": "3605 4th AVE. NE",
      "facStreet2Tx": null,
      "state": "ND",
      "zipCode": "58854",
      "zip4Code": null,
      "county": "MCKENZIE",
      "facLatDecMs": "47.800028",
      "facLongDecMs": "-103.226472"
    },
    {
      "facilityId": 1000042119,
      "epaFacId": "100000062683",
      "facName": "CHS Inc.-Loma",
      "city": "Loma",
      "facStreet1Tx": "9841 HWY 66",
      "facStreet2Tx": null,
      "state": "ND",
      "zipCode": "58249",
      "zip4Code": null,
      "county": "CAVALIER",
      "facLatDecMs": "48.630573",
      "facLongDecMs": "-98.530683"
    },
    {
      "facilityId": 1000113011,
      "epaFacId": "100000062781",
      "facName": "CHS Inc.-Killdeer",
      "city": "Killdeer",
      "facStreet1Tx": "1924 High St. NE",
      "facStreet2Tx": "",
      "state": "ND",
      "zipCode": "58640",
      "zip4Code": "0120",
      "county": "DUNN",
      "facLatDecMs": "47.371501",
      "facLongDecMs": "-102.729351"
    },
    {
      "facilityId": 1000087004,
      "epaFacId": "100000063897",
      "facName": "ProPoint Cooperative Bulk Plant",
      "city": "Bowman",
      "facStreet1Tx": "8605 146th Ave. SW",
      "facStreet2Tx": null,
      "state": "ND",
      "zipCode": "58623",
      "zip4Code": null,
      "county": "BOWMAN",
      "facLatDecMs": "46.169153",
      "facLongDecMs": "-103.41041"
    },
    {
      "facilityId": 1000086218,
      "epaFacId": "100000064244",
      "facName": "ProPoint Cooperative Midway Plant",
      "city": "Amidon",
      "facStreet1Tx": "6104  136th Ave SW",
      "facStreet2Tx": null,
      "state": "ND",
      "zipCode": "58620",
      "zip4Code": null,
      "county": "SLOPE",
      "facLatDecMs": "46.520571",
      "facLongDecMs": "-103.197829"
    },
    {
      "facilityId": 1000049241,
      "epaFacId": "100000065387",
      "facName": "Allied Agronomy, LLC - County Line",
      "city": "Jud",
      "facStreet1Tx": "5417 Hwy 281",
      "facStreet2Tx": null,
      "state": "ND",
      "zipCode": "58454",
      "zip4Code": null,
      "county": "LAMOURE",
      "facLatDecMs": "46.629444",
      "facLongDecMs": "-098.705833"
    },
    {
      "facilityId": 1000051307,
      "epaFacId": "100000065591",
      "facName": "Larson Grain Company",
      "city": "LaMoure",
      "facStreet1Tx": "320 7th St. North",
      "facStreet2Tx": null,
      "state": "ND",
      "zipCode": "58458",
      "zip4Code": null,
      "county": "LAMOURE",
      "facLatDecMs": "46.444056",
      "facLongDecMs": "-098.374194"
    },
    {
      "facilityId": 4903,
      "epaFacId": "100000066055",
      "facName": "Midwest Ag Development",
      "city": "Jamestown",
      "facStreet1Tx": "3674 81st Street",
      "facStreet2Tx": "R Avenue Southeast",
      "state": "ND",
      "zipCode": "58401",
      "zip4Code": null,
      "county": "STUTSMAN",
      "facLatDecMs": "46.882",
      "facLongDecMs": "-98.754333"
    },
    {
      "facilityId": 38102,
      "epaFacId": "100000067508",
      "facName": "Cenex Harvest States-Webster",
      "city": "Webster",
      "facStreet1Tx": "Hwy. 20",
      "facStreet2Tx": null,
      "state": "ND",
      "zipCode": "58382",
      "zip4Code": null,
      "county": "RAMSEY",
      "facLatDecMs": "48.283611",
      "facLongDecMs": "-098.940556"
    },
    {
      "facilityId": 5310,
      "epaFacId": "100000067562",
      "facName": "Agri Valley-Manvel",
      "city": "Manvel",
      "facStreet1Tx": "406 Manvel Ave.",
      "facStreet2Tx": null,
      "state": "ND",
      "zipCode": "58256",
      "zip4Code": null,
      "county": "GRAND FORKS",
      "facLatDecMs": "48.0775",
      "facLongDecMs": "-97.176667"
    },
    {
      "facilityId": 1000077644,
      "epaFacId": "100000067768",
      "facName": "CENTRAL PLAINS AG SERVICES- MCVILLE",
      "city": "McVille",
      "facStreet1Tx": "100 Southwest Hwy. 15",
      "facStreet2Tx": null,
      "state": "ND",
      "zipCode": "58254",
      "zip4Code": null,
      "county": "NELSON",
      "facLatDecMs": "47.762328",
      "facLongDecMs": "-098.182053"
    },
    {
      "facilityId": 1000107340,
      "epaFacId": "100000067802",
      "facName": "CHS Inc.-Mooreton",
      "city": "Mooreton",
      "facStreet1Tx": "405 Front St.",
      "facStreet2Tx": "",
      "state": "ND",
      "zipCode": "58061",
      "zip4Code": "0678",
      "county": "RICHLAND",
      "facLatDecMs": "46.269419",
      "facLongDecMs": "-96.870035"
    },
    {
      "facilityId": 5319,
      "epaFacId": "100000068197",
      "facName": "Agri Valley-Grand Forks",
      "city": "Grand Forks",
      "facStreet1Tx": "1550 S. 48th St.",
      "facStreet2Tx": null,
      "state": "ND",
      "zipCode": "58201",
      "zip4Code": null,
      "county": "GRAND FORKS",
      "facLatDecMs": "47.920278",
      "facLongDecMs": "-97.170556"
    },
    {
      "facilityId": 37167,
      "epaFacId": "100000068259",
      "facName": "Farmers Elevator-Glasston",
      "city": "Glasston",
      "facStreet1Tx": "Hwy. 81",
      "facStreet2Tx": null,
      "state": "ND",
      "zipCode": "58236",
      "zip4Code": "0377",
      "county": "PEMBINA",
      "facLatDecMs": "48.694167",
      "facLongDecMs": "-097.446111"
    },
    {
      "facilityId": 5323,
      "epaFacId": "100000068437",
      "facName": "South Central Grain-Hague",
      "city": "Hague",
      "facStreet1Tx": "1545 91st St. SE",
      "facStreet2Tx": null,
      "state": "ND",
      "zipCode": "58542",
      "zip4Code": null,
      "county": "EMMONS",
      "facLatDecMs": "46.029167",
      "facLongDecMs": "-99.996667"
    },
    {
      "facilityId": 1000040057,
      "epaFacId": "100000068491",
      "facName": "CHS Inc.-Kintyre",
      "city": "Kintyre",
      "facStreet1Tx": "391 main Avenue S.",
      "facStreet2Tx": null,
      "state": "ND",
      "zipCode": "58549",
      "zip4Code": null,
      "county": "EMMONS",
      "facLatDecMs": "46.544591",
      "facLongDecMs": "-099.952180"
    },
    {
      "facilityId": 1000114448,
      "epaFacId": "100000068561",
      "facName": "Dakota Agronomy Partners, LLC -Lignite NH3 Plant",
      "city": "Lignite",
      "facStreet1Tx": "109 Railroad Dr.",
      "facStreet2Tx": "",
      "state": "ND",
      "zipCode": "58752",
      "zip4Code": "0094",
      "county": "BURKE",
      "facLatDecMs": "48.879294",
      "facLongDecMs": "-102.564424"
    },
    {
      "facilityId": 1000111449,
      "epaFacId": "100000068687",
      "facName": "CHS Inc.-Milton",
      "city": "Milton",
      "facStreet1Tx": "117 E. Montrose Avenue",
      "facStreet2Tx": "",
      "state": "ND",
      "zipCode": "58260",
      "zip4Code": "0613",
      "county": "CAVALIER",
      "facLatDecMs": "48.623877",
      "facLongDecMs": "-98.040750"
    },
    {
      "facilityId": 1000111448,
      "epaFacId": "100000069061",
      "facName": "CHS Inc. - Calvin Facility",
      "city": "Calvin",
      "facStreet1Tx": "401 Railroad Avenue",
      "facStreet2Tx": "",
      "state": "ND",
      "zipCode": "58323",
      "zip4Code": "",
      "county": "CAVALIER",
      "facLatDecMs": "48.853538",
      "facLongDecMs": "-098.940598"
    },
    {
      "facilityId": 1000042131,
      "epaFacId": "100000069267",
      "facName": "CHS Inc.-Sarles",
      "city": "Sarles",
      "facStreet1Tx": "333 Railroad St.",
      "facStreet2Tx": null,
      "state": "ND",
      "zipCode": "58372",
      "zip4Code": "0038",
      "county": "CAVALIER",
      "facLatDecMs": "48.946336",
      "facLongDecMs": "-98.993069"
    },
    {
      "facilityId": 1000113012,
      "epaFacId": "100000069338",
      "facName": "CHS Inc.-Reeder",
      "city": "Reeder",
      "facStreet1Tx": "RR Ave.",
      "facStreet2Tx": "",
      "state": "ND",
      "zipCode": "58649",
      "zip4Code": "",
      "county": "ADAMS",
      "facLatDecMs": "46.101866",
      "facLongDecMs": "-102.955281"
    },
    {
      "facilityId": 1000114392,
      "epaFacId": "100000069454",
      "facName": "CHS Inc.-Starkweather",
      "city": "Starkweather",
      "facStreet1Tx": "8276 72nd St. NE",
      "facStreet2Tx": "",
      "state": "ND",
      "zipCode": "58377",
      "zip4Code": "",
      "county": "RAMSEY",
      "facLatDecMs": "48.456389",
      "facLongDecMs": "-98.873557"
    },
    {
      "facilityId": 37166,
      "epaFacId": "100000069579",
      "facName": "CHS, Inc.-Osnabrock",
      "city": "Osnabrock",
      "facStreet1Tx": "Harvest Rd.",
      "facStreet2Tx": null,
      "state": "ND",
      "zipCode": "58269",
      "zip4Code": null,
      "county": "CAVALIER",
      "facLatDecMs": "48.668056",
      "facLongDecMs": "-098.149722"
    },
    {
      "facilityId": 1000002311,
      "epaFacId": "100000070111",
      "facName": "CHS INC - Galchutt",
      "city": "Galchutt",
      "facStreet1Tx": "125 Galchutt Dr.",
      "facStreet2Tx": null,
      "state": "ND",
      "zipCode": "58075",
      "zip4Code": "9768",
      "county": "RICHLAND",
      "facLatDecMs": "46.384444",
      "facLongDecMs": "-096.807222"
    },
    {
      "facilityId": 1000043335,
      "epaFacId": "100000070166",
      "facName": "CHS Inc.-Devils Lake",
      "city": "Devils Lake",
      "facStreet1Tx": "4215 14th Street NW",
      "facStreet2Tx": null,
      "state": "ND",
      "zipCode": "58301",
      "zip4Code": null,
      "county": "RAMSEY",
      "facLatDecMs": "48.136994",
      "facLongDecMs": "-098.910776"
    },
    {
      "facilityId": 5575,
      "epaFacId": "100000070184",
      "facName": "Cenex Harvest States-Crary",
      "city": "Crary",
      "facStreet1Tx": "215 Main St. W",
      "facStreet2Tx": null,
      "state": "ND",
      "zipCode": "58327",
      "zip4Code": null,
      "county": "RAMSEY",
      "facLatDecMs": "48.071111",
      "facLongDecMs": "-98.642222"
    },
    {
      "facilityId": 1000077812,
      "epaFacId": "100000070264",
      "facName": "CHS River Plains -Ashley",
      "city": "Ashley",
      "facStreet1Tx": "5th Ave NW",
      "facStreet2Tx": null,
      "state": "ND",
      "zipCode": "58413",
      "zip4Code": "0432",
      "county": "MCINTOSH",
      "facLatDecMs": "46.037831",
      "facLongDecMs": "-99.379618"
    },
    {
      "facilityId": 1000114447,
      "epaFacId": "100000070291",
      "facName": "Dakota Agronomy Partners - Bowbells NH3",
      "city": "Bowbells",
      "facStreet1Tx": "10192 71st Ave NW",
      "facStreet2Tx": "",
      "state": "ND",
      "zipCode": "58721",
      "zip4Code": "0309",
      "county": "BURKE",
      "facLatDecMs": "48.893295",
      "facLongDecMs": "-102.261158"
    },
    {
      "facilityId": 1000040482,
      "epaFacId": "100000070317",
      "facName": "CENTRAL PLAINS AG SERVICES- COURTENAY",
      "city": "Courtenay",
      "facStreet1Tx": "221 1st Ave N",
      "facStreet2Tx": null,
      "state": "ND",
      "zipCode": "58426",
      "zip4Code": "0127",
      "county": "STUTSMAN",
      "facLatDecMs": "47.224667",
      "facLongDecMs": "-98.568233"
    },
    {
      "facilityId": 1000040454,
      "epaFacId": "100000070335",
      "facName": "CENTRAL PLAINS AG SERVICES- ANETA",
      "city": "Aneta",
      "facStreet1Tx": "223 BN Drive",
      "facStreet2Tx": null,
      "state": "ND",
      "zipCode": "58212",
      "zip4Code": "0256",
      "county": "NELSON",
      "facLatDecMs": "47.677830",
      "facLongDecMs": "-097.982917"
    },
    {
      "facilityId": 1000076805,
      "epaFacId": "100000070488",
      "facName": "CHS Inc.-Napoleon",
      "city": "Napoleon",
      "facStreet1Tx": "3150 Hwy 34 E",
      "facStreet2Tx": null,
      "state": "ND",
      "zipCode": "58561",
      "zip4Code": "0023",
      "county": "LOGAN",
      "facLatDecMs": "46.514829",
      "facLongDecMs": "-099.758911"
    },
    {
      "facilityId": 1000114391,
      "epaFacId": "100000070503",
      "facName": "CHS Inc.- Lakota",
      "city": "Lakota",
      "facStreet1Tx": "301 1st Ave SW",
      "facStreet2Tx": "",
      "state": "ND",
      "zipCode": "58344",
      "zip4Code": "",
      "county": "NELSON",
      "facLatDecMs": "48.039758",
      "facLongDecMs": "-98.351779"
    },
    {
      "facilityId": 1000116523,
      "epaFacId": "100000072002",
      "facName": "Williston Anhydrous Ammonia Plant",
      "city": "Williston",
      "facStreet1Tx": "13804 W Front St",
      "facStreet2Tx": "",
      "state": "ND",
      "zipCode": "58801",
      "zip4Code": "",
      "county": "WILLIAMS",
      "facLatDecMs": "48.139275",
      "facLongDecMs": "-103.670335"
    },
    {
      "facilityId": 1000086815,
      "epaFacId": "100000072949",
      "facName": "Gwinner NH3 Plant",
      "city": "Gwinner",
      "facStreet1Tx": "12983 Hwy 13",
      "facStreet2Tx": null,
      "state": "ND",
      "zipCode": "58040",
      "zip4Code": null,
      "county": "SARGENT",
      "facLatDecMs": "46.226243",
      "facLongDecMs": "-097.679042"
    },
    {
      "facilityId": 1000097485,
      "epaFacId": "100000073074",
      "facName": "Cloverdale Foods Company",
      "city": "Mandan",
      "facStreet1Tx": "3015 34th Street N.W.",
      "facStreet2Tx": null,
      "state": "ND",
      "zipCode": "58554",
      "zip4Code": null,
      "county": "MORTON",
      "facLatDecMs": "46.5856692",
      "facLongDecMs": "-100.593095"
    },
    {
      "facilityId": 1000077914,
      "epaFacId": "100000073626",
      "facName": "North Prairie Ag",
      "city": "Osnabrock",
      "facStreet1Tx": "434 Yellow Brick Road",
      "facStreet2Tx": null,
      "state": "ND",
      "zipCode": "58269",
      "zip4Code": "0105",
      "county": "CAVALIER",
      "facLatDecMs": "48.670234",
      "facLongDecMs": "-098.154750"
    },
    {
      "facilityId": 1000119724,
      "epaFacId": "100000073939",
      "facName": "Allied Agronomy, LLC - Gackle",
      "city": "Gackle",
      "facStreet1Tx": "302 East Front Street",
      "facStreet2Tx": "",
      "state": "ND",
      "zipCode": "58442",
      "zip4Code": "0216",
      "county": "LOGAN",
      "facLatDecMs": "46.628426",
      "facLongDecMs": "-099.135855"
    },
    {
      "facilityId": 5653,
      "epaFacId": "100000075278",
      "facName": "Minto Simplot Soilbuilders",
      "city": "Minto",
      "facStreet1Tx": "100 Kilowatt Drive",
      "facStreet2Tx": null,
      "state": "ND",
      "zipCode": "58261",
      "zip4Code": "0339",
      "county": "WALSH",
      "facLatDecMs": "48.295333",
      "facLongDecMs": "-97.403"
    },
    {
      "facilityId": 1000079182,
      "epaFacId": "100000075624",
      "facName": "Walhalla Simplot Grower Solutions",
      "city": "Walhalla",
      "facStreet1Tx": "Hwy. 32 North",
      "facStreet2Tx": null,
      "state": "ND",
      "zipCode": "58282",
      "zip4Code": "0526",
      "county": "PEMBINA",
      "facLatDecMs": "48.9293440",
      "facLongDecMs": "-097.912529"
    },
    {
      "facilityId": 1000110429,
      "epaFacId": "100000076393",
      "facName": "Farmers Union Oil Co.  Wilton Bulk Plant",
      "city": "Wilton",
      "facStreet1Tx": "1713 14th Ave SW",
      "facStreet2Tx": "",
      "state": "ND",
      "zipCode": "58579",
      "zip4Code": "0126",
      "county": "MCLEAN",
      "facLatDecMs": "47.16984",
      "facLongDecMs": "-100.79324"
    },
    {
      "facilityId": 1000114151,
      "epaFacId": "100000076605",
      "facName": "American Crystal Sugar Company - Hillsboro",
      "city": "Hillsboro",
      "facStreet1Tx": "121 Highway 81 NE",
      "facStreet2Tx": "",
      "state": "ND",
      "zipCode": "58045",
      "zip4Code": "",
      "county": "TRAILL",
      "facLatDecMs": "47.435833",
      "facLongDecMs": "-097.062500"
    },
    {
      "facilityId": 37938,
      "epaFacId": "100000077766",
      "facName": "Guelph Facility",
      "city": "Guelph",
      "facStreet1Tx": "Railroad Ave",
      "facStreet2Tx": null,
      "state": "ND",
      "zipCode": "57445",
      "zip4Code": null,
      "county": "DICKEY",
      "facLatDecMs": "46.011800",
      "facLongDecMs": "-098.140200"
    },
    {
      "facilityId": 1000107676,
      "epaFacId": "100000078827",
      "facName": "Mohall NH3 Plant",
      "city": "Mohall",
      "facStreet1Tx": "520 Hwy 5 W",
      "facStreet2Tx": "",
      "state": "ND",
      "zipCode": "58761",
      "zip4Code": "4102",
      "county": "RENVILLE",
      "facLatDecMs": "48.763916",
      "facLongDecMs": "-101.521236"
    },
    {
      "facilityId": 1000102527,
      "epaFacId": "100000080486",
      "facName": "HWTG - Fargo",
      "city": "Fargo",
      "facStreet1Tx": "2001 Great Northern Drive",
      "facStreet2Tx": "",
      "state": "ND",
      "zipCode": "58102",
      "zip4Code": "",
      "county": "CASS",
      "facLatDecMs": "46.886010",
      "facLongDecMs": "-96.811927"
    },
    {
      "facilityId": 1000119568,
      "epaFacId": "100000084357",
      "facName": "Farmers Union Oil ( WESTHOPE )",
      "city": "Westhope",
      "facStreet1Tx": "10257",
      "facStreet2Tx": "Hwy 83",
      "state": "ND",
      "zipCode": "58793",
      "zip4Code": "4013",
      "county": "BOTTINEAU",
      "facLatDecMs": "48.903213",
      "facLongDecMs": "-101.017050"
    },
    {
      "facilityId": 1000046064,
      "epaFacId": "100000086042",
      "facName": "City of Fargo Wastewater Treatment Plant",
      "city": "FARGO",
      "facStreet1Tx": "3400 NORTH BR0ADWAY",
      "facStreet2Tx": null,
      "state": "ND",
      "zipCode": "58102",
      "zip4Code": null,
      "county": "CASS",
      "facLatDecMs": "46.924806",
      "facLongDecMs": "-096.787361"
    },
    {
      "facilityId": 1000109646,
      "epaFacId": "100000086881",
      "facName": "CF Industries Dist. Facilities, LLC - Velva",
      "city": "Velva",
      "facStreet1Tx": "1304 US Highway 52 West",
      "facStreet2Tx": "",
      "state": "ND",
      "zipCode": "58790",
      "zip4Code": "",
      "county": "MCHENRY",
      "facLatDecMs": "48.019167",
      "facLongDecMs": "-100.867222"
    },
    {
      "facilityId": 1000089942,
      "epaFacId": "100000090563",
      "facName": "Raub Ag Service LLC",
      "city": "Ryder",
      "facStreet1Tx": "2298 69th Ave NW",
      "facStreet2Tx": null,
      "state": "ND",
      "zipCode": "58779",
      "zip4Code": "9205",
      "county": "MCLEAN",
      "facLatDecMs": "47.745917",
      "facLongDecMs": "-102.063361"
    },
    {
      "facilityId": 1000071343,
      "epaFacId": "100000092838",
      "facName": "Colgate NH3 Company,LLC",
      "city": "Colgate",
      "facStreet1Tx": "202 Front Ave",
      "facStreet2Tx": null,
      "state": "ND",
      "zipCode": "58046",
      "zip4Code": "9514",
      "county": "STEELE",
      "facLatDecMs": "47.243333",
      "facLongDecMs": "-097.655556"
    },
    {
      "facilityId": 1000092423,
      "epaFacId": "100000092856",
      "facName": "Clifford Coop Elevator-Galesburg",
      "city": "Galesburg",
      "facStreet1Tx": "105 Dakota Ave",
      "facStreet2Tx": null,
      "state": "ND",
      "zipCode": "58035",
      "zip4Code": "0115",
      "county": "TRAILL",
      "facLatDecMs": "47.271451",
      "facLongDecMs": "-097.409369"
    },
    {
      "facilityId": 46597,
      "epaFacId": "100000093659",
      "facName": "AGP Grain Ltd-Shelly,  AGP Grain Ltd., Shelly, MN",
      "city": "Cummings",
      "facStreet1Tx": "S County Rd 7",
      "facStreet2Tx": null,
      "state": "ND",
      "zipCode": "56581",
      "zip4Code": null,
      "county": "TRAILL",
      "facLatDecMs": "47.511111",
      "facLongDecMs": "-097.078333"
    },
    {
      "facilityId": 1000057650,
      "epaFacId": "100000094587",
      "facName": "Glenfield, ND 6523 Satellite",
      "city": "Glenfield",
      "facStreet1Tx": "306 Railroad Avenue",
      "facStreet2Tx": null,
      "state": "ND",
      "zipCode": "58443",
      "zip4Code": null,
      "county": "FOSTER",
      "facLatDecMs": "47.453333",
      "facLongDecMs": "-098.568889"
    },
    {
      "facilityId": 1000111552,
      "epaFacId": "100000094649",
      "facName": "Grace City, ND 6523",
      "city": "Grace City",
      "facStreet1Tx": "410 Railroad Avenue",
      "facStreet2Tx": "",
      "state": "ND",
      "zipCode": "58445",
      "zip4Code": "",
      "county": "FOSTER",
      "facLatDecMs": "47.548611",
      "facLongDecMs": "-098.802778"
    },
    {
      "facilityId": 1000095902,
      "epaFacId": "100000096843",
      "facName": "CF Industries Dist. Facilities, LLC - Grand Forks",
      "city": "Grand Forks",
      "facStreet1Tx": "4975 N. Washington St.",
      "facStreet2Tx": null,
      "state": "ND",
      "zipCode": "58203",
      "zip4Code": "3801",
      "county": "GRAND FORKS",
      "facLatDecMs": "47.970556",
      "facLongDecMs": "-097.084444"
    },
    {
      "facilityId": 7819,
      "epaFacId": "100000098459",
      "facName": "Lake Region Grain Coop-Rohrville Station",
      "city": "Devils Lake",
      "facStreet1Tx": "5037 91st Ave NE",
      "facStreet2Tx": null,
      "state": "ND",
      "zipCode": "58301",
      "zip4Code": null,
      "county": "RAMSEY",
      "facLatDecMs": "48.142972",
      "facLongDecMs": "-98.660444"
    },
    {
      "facilityId": 7820,
      "epaFacId": "100000098672",
      "facName": "Lake Region Grain Cooperative - Crary Station",
      "city": "Crary",
      "facStreet1Tx": "215 Main St",
      "facStreet2Tx": null,
      "state": "ND",
      "zipCode": "58324",
      "zip4Code": null,
      "county": "RAMSEY",
      "facLatDecMs": "48.0135",
      "facLongDecMs": "-98.631139"
    },
    {
      "facilityId": 7821,
      "epaFacId": "100000098716",
      "facName": "Lake Region Grain Coop - Starkweather Plant",
      "city": "Starkweather",
      "facStreet1Tx": "Hwy 20",
      "facStreet2Tx": null,
      "state": "ND",
      "zipCode": "58377",
      "zip4Code": null,
      "county": "RAMSEY",
      "facLatDecMs": "48.451861",
      "facLongDecMs": "-98.873111"
    },
    {
      "facilityId": 1000088612,
      "epaFacId": "100000098832",
      "facName": "Allied Agronomy - Cathay Location",
      "city": "Cathay",
      "facStreet1Tx": "196 Elevator Street",
      "facStreet2Tx": null,
      "state": "ND",
      "zipCode": "58422",
      "zip4Code": null,
      "county": "WELLS",
      "facLatDecMs": "47.554694",
      "facLongDecMs": "-099.407185"
    },
    {
      "facilityId": 1000009021,
      "epaFacId": "100000099859",
      "facName": "Oakes Facility",
      "city": "Oakes",
      "facStreet1Tx": "524 Nectarin Ave",
      "facStreet2Tx": "PO Box 207",
      "state": "ND",
      "zipCode": "58474",
      "zip4Code": null,
      "county": "DICKEY",
      "facLatDecMs": "46.1324",
      "facLongDecMs": "-98.0919"
    },
    {
      "facilityId": 8020,
      "epaFacId": "100000100936",
      "facName": "Lake Region Grain Coop-Webster Plant",
      "city": "Webster",
      "facStreet1Tx": "Hwy 20",
      "facStreet2Tx": null,
      "state": "ND",
      "zipCode": "58382",
      "zip4Code": null,
      "county": "RAMSEY",
      "facLatDecMs": "48.322083",
      "facLongDecMs": "-98.88375"
    },
    {
      "facilityId": 1000041270,
      "epaFacId": "100000101114",
      "facName": "CHS Inc.- Larimore",
      "city": "Larimore",
      "facStreet1Tx": "40 Barrett Ave",
      "facStreet2Tx": null,
      "state": "ND",
      "zipCode": "58251",
      "zip4Code": null,
      "county": "GRAND FORKS",
      "facLatDecMs": "47.904639",
      "facLongDecMs": "-97.635752"
    },
    {
      "facilityId": 1000113403,
      "epaFacId": "100000102756",
      "facName": "Little Knife Gas Plant",
      "city": "Killdeer",
      "facStreet1Tx": "813-123rd Avenue, SW",
      "facStreet2Tx": "",
      "state": "ND",
      "zipCode": "58640",
      "zip4Code": "9001",
      "county": "BILLINGS",
      "facLatDecMs": "47.296944",
      "facLongDecMs": "-103.098000"
    },
    {
      "facilityId": 1000100287,
      "epaFacId": "100000103773",
      "facName": "Legacy Cooperative - Bisbee NH3 Plant",
      "city": "Bisbee",
      "facStreet1Tx": "6118 84th Street",
      "facStreet2Tx": null,
      "state": "ND",
      "zipCode": "58317",
      "zip4Code": "0008",
      "county": "TOWNER",
      "facLatDecMs": "48.630159",
      "facLongDecMs": "-99.336842"
    },
    {
      "facilityId": 1000119778,
      "epaFacId": "100000103826",
      "facName": "Legacy Cooperative - Rolla NH3 Plant",
      "city": "Rolla",
      "facStreet1Tx": "9934 Hwy 30",
      "facStreet2Tx": "",
      "state": "ND",
      "zipCode": "58367",
      "zip4Code": "0728",
      "county": "ROLETTE",
      "facLatDecMs": "48.853389",
      "facLongDecMs": "-099.611917"
    },
    {
      "facilityId": 29973,
      "epaFacId": "100000104068",
      "facName": "UAP Northern Plains Jamestown ND",
      "city": "Jamestown",
      "facStreet1Tx": "3469 80 R Ave SE",
      "facStreet2Tx": null,
      "state": "ND",
      "zipCode": "58421",
      "zip4Code": null,
      "county": "STUTSMAN",
      "facLatDecMs": "46.912778",
      "facLongDecMs": "-098.778611"
    },
    {
      "facilityId": 1000103069,
      "epaFacId": "100000104834",
      "facName": "Great Plains Synfuels Plant",
      "city": "Beulah",
      "facStreet1Tx": "420 County Road 26",
      "facStreet2Tx": "",
      "state": "ND",
      "zipCode": "58523",
      "zip4Code": "9400",
      "county": "MERCER",
      "facLatDecMs": "47.358",
      "facLongDecMs": "-101.838"
    },
    {
      "facilityId": 1000105162,
      "epaFacId": "100000105762",
      "facName": "American Crystal Sugar Company - Drayton",
      "city": "Drayton",
      "facStreet1Tx": "8152 Old Highway 44 North",
      "facStreet2Tx": "",
      "state": "ND",
      "zipCode": "58225",
      "zip4Code": "",
      "county": "PEMBINA",
      "facLatDecMs": "48.591667",
      "facLongDecMs": "-097.175000"
    },
    {
      "facilityId": 55719,
      "epaFacId": "100000106315",
      "facName": "HERMAN OIL BULK STORAGE",
      "city": "Williston",
      "facStreet1Tx": "403 47th Street West",
      "facStreet2Tx": null,
      "state": "ND",
      "zipCode": "58801",
      "zip4Code": "7202",
      "county": "WILLIAMS",
      "facLatDecMs": "48.188611",
      "facLongDecMs": "-103.628889"
    },
    {
      "facilityId": 1000095162,
      "epaFacId": "100000106832",
      "facName": "Farmers Union Oil Company of York",
      "city": "York",
      "facStreet1Tx": "107 York Street West",
      "facStreet2Tx": "",
      "state": "ND",
      "zipCode": "58386",
      "zip4Code": "0243",
      "county": "BENSON",
      "facLatDecMs": "48.310076",
      "facLongDecMs": "-99.573862"
    },
    {
      "facilityId": 1000105034,
      "epaFacId": "100000107715",
      "facName": "The Arthur Companies - Page",
      "city": "Page",
      "facStreet1Tx": "109 Young Avenue",
      "facStreet2Tx": "",
      "state": "ND",
      "zipCode": "58064",
      "zip4Code": "",
      "county": "CASS",
      "facLatDecMs": "47.156735",
      "facLongDecMs": "-097.572565"
    },
    {
      "facilityId": 1000049436,
      "epaFacId": "100000108581",
      "facName": "EMERADO FARMERS ELEVATOR",
      "city": "EMERADO",
      "facStreet1Tx": "106 EMERY AVENUE",
      "facStreet2Tx": null,
      "state": "ND",
      "zipCode": "58228",
      "zip4Code": "0100",
      "county": "GRAND FORKS",
      "facLatDecMs": "47.932556",
      "facLongDecMs": "-097.383500"
    },
    {
      "facilityId": 1000092844,
      "epaFacId": "100000110836",
      "facName": "Farmer's Elevator of Honeyford Dahlen",
      "city": "Dahlen",
      "facStreet1Tx": "218 Main St. N.",
      "facStreet2Tx": null,
      "state": "ND",
      "zipCode": "58224",
      "zip4Code": "2400",
      "county": "NELSON",
      "facLatDecMs": "48.159389",
      "facLongDecMs": "-097.930056"
    },
    {
      "facilityId": 1000118432,
      "epaFacId": "100000111434",
      "facName": "J.R. Simplot Company",
      "city": "Grand Forks",
      "facStreet1Tx": "3630 Gateway Drive",
      "facStreet2Tx": "",
      "state": "ND",
      "zipCode": "58203",
      "zip4Code": "",
      "county": "GRAND FORKS",
      "facLatDecMs": "47.933611",
      "facLongDecMs": "-097.082500"
    },
    {
      "facilityId": 1000115689,
      "epaFacId": "100000111595",
      "facName": "Central Dakota Frontier Coop. Wishek West Plant",
      "city": "Wishek",
      "facStreet1Tx": "8015 36th Ave. SE",
      "facStreet2Tx": "1/8 mile E. of highway 3",
      "state": "ND",
      "zipCode": "58495",
      "zip4Code": "0095",
      "county": "MCINTOSH",
      "facLatDecMs": "46.258026",
      "facLongDecMs": "-099.629422"
    },
    {
      "facilityId": 9138,
      "epaFacId": "100000112326",
      "facName": "Reynolds United Co-op",
      "city": "Reynolds",
      "facStreet1Tx": "Railway Street and 7th Ave",
      "facStreet2Tx": null,
      "state": "ND",
      "zipCode": "58275",
      "zip4Code": null,
      "county": "GRAND FORKS",
      "facLatDecMs": "47.683056",
      "facLongDecMs": "-97.116111"
    },
    {
      "facilityId": 1000119184,
      "epaFacId": "100000112834",
      "facName": "Dakota Agronomy Partners - Washburn",
      "city": "Washburn",
      "facStreet1Tx": "1306 Northgate Road",
      "facStreet2Tx": "",
      "state": "ND",
      "zipCode": "58577",
      "zip4Code": "",
      "county": "MCLEAN",
      "facLatDecMs": "47.302227",
      "facLongDecMs": "-101.035713"
    },
    {
      "facilityId": 1000068309,
      "epaFacId": "100000113272",
      "facName": "North Prairie Ag - Nekoma Station",
      "city": "Nekoma",
      "facStreet1Tx": "103 Dakota Street",
      "facStreet2Tx": null,
      "state": "ND",
      "zipCode": "58355",
      "zip4Code": null,
      "county": "CAVALIER",
      "facLatDecMs": "48.574024",
      "facLongDecMs": "-098.373468"
    },
    {
      "facilityId": 9164,
      "epaFacId": "100000114271",
      "facName": "Terra International,Inc-(Minot, ND)",
      "city": "Lansford",
      "facStreet1Tx": "1015 Cypress",
      "facStreet2Tx": null,
      "state": "ND",
      "zipCode": "58750",
      "zip4Code": "0128",
      "county": "BOTTINEAU",
      "facLatDecMs": "48.631667",
      "facLongDecMs": "-101.384167"
    },
    {
      "facilityId": 1000116462,
      "epaFacId": "100000116698",
      "facName": "Farmers Union Oil",
      "city": "Langdon",
      "facStreet1Tx": "9245 Hwy 1",
      "facStreet2Tx": "",
      "state": "ND",
      "zipCode": "58249",
      "zip4Code": "2619",
      "county": "CAVALIER",
      "facLatDecMs": "48.751077",
      "facLongDecMs": "-098.366031"
    },
    {
      "facilityId": 9490,
      "epaFacId": "100000117447",
      "facName": "Joliette Simplot Soilbuilders",
      "city": "Joliette",
      "facStreet1Tx": "Main Street",
      "facStreet2Tx": null,
      "state": "ND",
      "zipCode": "58271",
      "zip4Code": "9715",
      "county": "PEMBINA",
      "facLatDecMs": "48.819667",
      "facLongDecMs": "-97.227778"
    },
    {
      "facilityId": 1000098226,
      "epaFacId": "100000117679",
      "facName": "S & S Agri Services, Inc.",
      "city": "Petersburg",
      "facStreet1Tx": "419 1st Avenue North",
      "facStreet2Tx": null,
      "state": "ND",
      "zipCode": "58272",
      "zip4Code": null,
      "county": "NELSON",
      "facLatDecMs": "48.010000",
      "facLongDecMs": "-097.990000"
    },
    {
      "facilityId": 9499,
      "epaFacId": "100000117697",
      "facName": "Minn-Dak Farmers Cooperative",
      "city": "Wahpeton",
      "facStreet1Tx": "7525 Red River Road",
      "facStreet2Tx": null,
      "state": "ND",
      "zipCode": "58075",
      "zip4Code": "9698",
      "county": "RICHLAND",
      "facLatDecMs": "46.3375",
      "facLongDecMs": "-96.634722"
    },
    {
      "facilityId": 1000113887,
      "epaFacId": "100000119944",
      "facName": "Mandan Water Treatment Plant",
      "city": "Mandan",
      "facStreet1Tx": "1994 38th Street",
      "facStreet2Tx": "",
      "state": "ND",
      "zipCode": "58554",
      "zip4Code": "",
      "county": "MORTON",
      "facLatDecMs": "46.861972",
      "facLongDecMs": "-100.878716"
    },
    {
      "facilityId": 1000003698,
      "epaFacId": "100000120228",
      "facName": "Grafton Water Department",
      "city": "Grafton",
      "facStreet1Tx": "630 NP Avenue",
      "facStreet2Tx": null,
      "state": "ND",
      "zipCode": "58237",
      "zip4Code": null,
      "county": "WALSH",
      "facLatDecMs": "48.427500",
      "facLongDecMs": "-097.396670"
    },
    {
      "facilityId": 16829,
      "epaFacId": "100000124652",
      "facName": "Industrial Plating Corporation",
      "city": "Wahpeton",
      "facStreet1Tx": "514 So. 5th Street",
      "facStreet2Tx": "P.O. Box 776",
      "state": "ND",
      "zipCode": "58074",
      "zip4Code": "0776",
      "county": "RICHLAND",
      "facLatDecMs": "46.259583",
      "facLongDecMs": "-96.606833"
    },
    {
      "facilityId": 1000012931,
      "epaFacId": "100000124769",
      "facName": "Drayton Foods LLC",
      "city": "FARGO",
      "facStreet1Tx": "1307 39TH STREET NW",
      "facStreet2Tx": null,
      "state": "ND",
      "zipCode": "58102",
      "zip4Code": null,
      "county": "CASS",
      "facLatDecMs": "46.895444",
      "facLongDecMs": "-096.844222"
    },
    {
      "facilityId": 1000116437,
      "epaFacId": "100000125296",
      "facName": "Marathon Mandan Refinery",
      "city": "Mandan",
      "facStreet1Tx": "500 Old Red Trail",
      "facStreet2Tx": "",
      "state": "ND",
      "zipCode": "58554",
      "zip4Code": "",
      "county": "MORTON",
      "facLatDecMs": "46.846390",
      "facLongDecMs": "-100.879468"
    },
    {
      "facilityId": 1000012450,
      "epaFacId": "100000125562",
      "facName": "Carpio BFE Plant South",
      "city": "Carpio",
      "facStreet1Tx": "20700 - 268th Atreet NW",
      "facStreet2Tx": null,
      "state": "ND",
      "zipCode": "58725",
      "zip4Code": null,
      "county": "WARD",
      "facLatDecMs": "48.270260",
      "facLongDecMs": "-101.429780"
    },
    {
      "facilityId": 1000061303,
      "epaFacId": "100000125571",
      "facName": "North Star Coop-Park River-Anhydrous Ammonia",
      "city": "Park River",
      "facStreet1Tx": "6865 County Road 12",
      "facStreet2Tx": null,
      "state": "ND",
      "zipCode": "58270",
      "zip4Code": null,
      "county": "WALSH",
      "facLatDecMs": "48.407730",
      "facLongDecMs": "-97.744566"
    },
    {
      "facilityId": 1000117507,
      "epaFacId": "100000126384",
      "facName": "Bacon Road Simplot Grower Solutions",
      "city": "Grand Forks",
      "facStreet1Tx": "2215 Bacon Road",
      "facStreet2Tx": "",
      "state": "ND",
      "zipCode": "58203",
      "zip4Code": "",
      "county": "GRAND FORKS",
      "facLatDecMs": "47.941684",
      "facLongDecMs": "-097.058756"
    },
    {
      "facilityId": 29974,
      "epaFacId": "100000126838",
      "facName": "UAP Northern Plains - Carrington ND",
      "city": "Carrington",
      "facStreet1Tx": "90 70th Ave. NE",
      "facStreet2Tx": null,
      "state": "ND",
      "zipCode": "58421",
      "zip4Code": null,
      "county": "FOSTER",
      "facLatDecMs": "47.425556",
      "facLongDecMs": "-099.051111"
    },
    {
      "facilityId": 1000104426,
      "epaFacId": "100000128747",
      "facName": "Berthold FE Plant West",
      "city": "Berthold",
      "facStreet1Tx": "125 1st Ave SE",
      "facStreet2Tx": "",
      "state": "ND",
      "zipCode": "58718",
      "zip4Code": "",
      "county": "WARD",
      "facLatDecMs": "48.187180",
      "facLongDecMs": "-101.440760"
    },
    {
      "facilityId": 1000009304,
      "epaFacId": "100000129354",
      "facName": "Triebold Elevator Inc.",
      "city": "Oriska",
      "facStreet1Tx": "3336 123 Ave SE",
      "facStreet2Tx": null,
      "state": "ND",
      "zipCode": "58063",
      "zip4Code": "9753",
      "county": "BARNES",
      "facLatDecMs": "46.927500",
      "facLongDecMs": "-097.868139"
    },
    {
      "facilityId": 1000088243,
      "epaFacId": "100000135793",
      "facName": "Dakota Agronomy Partners - Antler NH3 Plant",
      "city": "Antler",
      "facStreet1Tx": "101 Main St.",
      "facStreet2Tx": "",
      "state": "ND",
      "zipCode": "58711",
      "zip4Code": "0086",
      "county": "BOTTINEAU",
      "facLatDecMs": "48.969438",
      "facLongDecMs": "-101.285174"
    },
    {
      "facilityId": 1000001527,
      "epaFacId": "100000135828",
      "facName": "CENTRAL PLAINS AG SERVICES- COOPERSTOWN",
      "city": "Cooperstown",
      "facStreet1Tx": "130 Baker Street",
      "facStreet2Tx": null,
      "state": "ND",
      "zipCode": "58425",
      "zip4Code": "0649",
      "county": "GRIGGS",
      "facLatDecMs": "47.445944",
      "facLongDecMs": "-098.133056"
    },
    {
      "facilityId": 1000088263,
      "epaFacId": "100000136854",
      "facName": "Clifford Farmers Co-Op Elevator",
      "city": "Hope",
      "facStreet1Tx": "PO Box 65",
      "facStreet2Tx": "88 1st Street NW",
      "state": "ND",
      "zipCode": "58046",
      "zip4Code": "0065",
      "county": "STEELE",
      "facLatDecMs": "47.323056",
      "facLongDecMs": "-097.726111"
    },
    {
      "facilityId": 1000100023,
      "epaFacId": "100000139352",
      "facName": "Wimbledon NH3 Site",
      "city": "Wimbledon",
      "facStreet1Tx": "802 Railway Street",
      "facStreet2Tx": null,
      "state": "ND",
      "zipCode": "58492",
      "zip4Code": "0197",
      "county": "BARNES",
      "facLatDecMs": "47.166685",
      "facLongDecMs": "-098.454076"
    },