{
  "_embedded": [
    {
      "facilityId": 1000104405,
      "epaFacId": "100000011943",
      "facName": "Simmons Foods, VB Main",
      "city": "Van Buren",
      "facStreet1Tx": "5 Main Street",
      "facStreet2Tx": "",
      "state": "AR",
      "zipCode": "72956",
      "zip4Code": "",
      "county": "CRAWFORD",
      "facLatDecMs": "35.433056",
      "facLongDecMs": "-094.357500"
    },
    {
      "facilityId": 1000104308,
      "epaFacId": "100000012023",
      "facName": "Simmons Foods, SSFP",
      "city": "Siloam Springs",
      "facStreet1Tx": "1001 East Main",
      "facStreet2Tx": "",
      "state": "AR",
      "zipCode": "72761",
      "zip4Code": "",
      "county": "BENTON",
      "facLatDecMs": "36.188091",
      "facLongDecMs": "-94.533826"
    },
    {
      "facilityId": 1000090345,
      "epaFacId": "100000012194",
      "facName": "Conway County Regional Water Distribution District",
      "city": "Plumerville",
      "facStreet1Tx": "#30 H20 Drive",
      "facStreet2Tx": null,
      "state": "AR",
      "zipCode": "72127",
      "zip4Code": null,
      "county": "CONWAY",
      "facLatDecMs": "35.178889",
      "facLongDecMs": "-092.647222"
    },
    {
      "facilityId": 1000104432,
      "epaFacId": "100000012247",
      "facName": "Simmons Foods, VB Cook & DC",
      "city": "Van Buren",
      "facStreet1Tx": "2101 Twin Circle Drive",
      "facStreet2Tx": "",
      "state": "AR",
      "zipCode": "72956",
      "zip4Code": "",
      "county": "CRAWFORD",
      "facLatDecMs": "35.427589",
      "facLongDecMs": "-094.336993"
    },
    {
      "facilityId": 1185,
      "epaFacId": "100000013923",
      "facName": "Lawhorn Farm Services, Inc.",
      "city": "Mc Crory",
      "facStreet1Tx": "Poplar St. (Hwy 64b)",
      "facStreet2Tx": "South Lawhorn St.",
      "state": "AR",
      "zipCode": "72101",
      "zip4Code": "0970",
      "county": "WOODRUFF",
      "facLatDecMs": "35.250056",
      "facLongDecMs": "-91.200056"
    },
    {
      "facilityId": 1000077908,
      "epaFacId": "100000014003",
      "facName": "Stuttgart, AR",
      "city": "Stuttgart",
      "facStreet1Tx": "502 North Grand Avenue",
      "facStreet2Tx": null,
      "state": "AR",
      "zipCode": "72160",
      "zip4Code": null,
      "county": "ARKANSAS",
      "facLatDecMs": "34.505500",
      "facLongDecMs": "-091.549496"
    },
    {
      "facilityId": 1000096363,
      "epaFacId": "100000019464",
      "facName": "Simmons Foods, SSP1",
      "city": "Siloam Springs",
      "facStreet1Tx": "316 N. Hico",
      "facStreet2Tx": null,
      "state": "AR",
      "zipCode": "72761",
      "zip4Code": null,
      "county": "BENTON",
      "facLatDecMs": "36.187500",
      "facLongDecMs": "-094.533889"
    },
    {
      "facilityId": 1566,
      "epaFacId": "100000019883",
      "facName": "Farmers Liquid Fertilizer",
      "city": "Patterson",
      "facStreet1Tx": "Hwy 17 South",
      "facStreet2Tx": "Hwy 64b",
      "state": "AR",
      "zipCode": "72123",
      "zip4Code": null,
      "county": "WOODRUFF",
      "facLatDecMs": "35.257778",
      "facLongDecMs": "-91.233611"
    },
    {
      "facilityId": 32387,
      "epaFacId": "100000027641",
      "facName": "Cypress Chemical Company",
      "city": "Helena",
      "facStreet1Tx": "1305 Hwy 20 South",
      "facStreet2Tx": "P.O. Box 589",
      "state": "AR",
      "zipCode": "72342",
      "zip4Code": null,
      "county": "PHILLIPS",
      "facLatDecMs": "34.476667",
      "facLongDecMs": "-090.607500"
    },
    {
      "facilityId": 1000111083,
      "epaFacId": "100000028472",
      "facName": "Benton Water Treatment Plant",
      "city": "Benton",
      "facStreet1Tx": "1314 Venturi Dr.",
      "facStreet2Tx": "",
      "state": "AR",
      "zipCode": "72019",
      "zip4Code": "",
      "county": "SALINE",
      "facLatDecMs": "34.567937",
      "facLongDecMs": "-092.601577"
    },
    {
      "facilityId": 47874,
      "epaFacId": "100000028668",
      "facName": "Hitco Carbon Composites, Inc.",
      "city": "Arkadelphia",
      "facStreet1Tx": "201 Technology Drive",
      "facStreet2Tx": null,
      "state": "AR",
      "zipCode": "71923",
      "zip4Code": null,
      "county": "CLARK",
      "facLatDecMs": "34.048889",
      "facLongDecMs": "-093.094167"
    },
    {
      "facilityId": 1000005997,
      "epaFacId": "100000028917",
      "facName": "Hazel Street Wastewater Treatment Plant",
      "city": "Benton",
      "facStreet1Tx": "616 West Hazel Street",
      "facStreet2Tx": null,
      "state": "AR",
      "zipCode": "72015",
      "zip4Code": null,
      "county": "SALINE",
      "facLatDecMs": "34.555278",
      "facLongDecMs": "-092.594167"
    },
    {
      "facilityId": 1000063002,
      "epaFacId": "100000030316",
      "facName": "Simmons Decatur Processing North",
      "city": "Decatur",
      "facStreet1Tx": "186 Roller Ave.",
      "facStreet2Tx": null,
      "state": "AR",
      "zipCode": "72722",
      "zip4Code": null,
      "county": "BENTON",
      "facLatDecMs": "36.336226",
      "facLongDecMs": "-94.461889"
    },
    {
      "facilityId": 1000104174,
      "epaFacId": "100000030496",
      "facName": "Boars Head Provisions Co., Inc. - Forrest City, AR",
      "city": "Forrest City",
      "facStreet1Tx": "2530 West Broadway Street",
      "facStreet2Tx": "",
      "state": "AR",
      "zipCode": "72336",
      "zip4Code": "",
      "county": "ST. FRANCIS",
      "facLatDecMs": "34.996528",
      "facLongDecMs": "-090.813694"
    },
    {
      "facilityId": 1000074320,
      "epaFacId": "100000030806",
      "facName": "Daniels Water Treatment Plant",
      "city": "Siloam Springs",
      "facStreet1Tx": "2600 S. Carl Street",
      "facStreet2Tx": null,
      "state": "AR",
      "zipCode": "72761",
      "zip4Code": null,
      "county": "BENTON",
      "facLatDecMs": "36.162776",
      "facLongDecMs": "-094.553055"
    },
    {
      "facilityId": 43032,
      "epaFacId": "100000031182",
      "facName": "City of Van Buren Main Plant",
      "city": "Van Buren",
      "facStreet1Tx": "1401 Port Road",
      "facStreet2Tx": null,
      "state": "AR",
      "zipCode": "72956",
      "zip4Code": null,
      "county": "CRAWFORD",
      "facLatDecMs": "35.424444",
      "facLongDecMs": "-094.334444"
    },
    {
      "facilityId": 1000002878,
      "epaFacId": "100000032779",
      "facName": "Kraft Foods Global, Inc.",
      "city": "Bentonville",
      "facStreet1Tx": "507 S.E. \"E\" Street",
      "facStreet2Tx": null,
      "state": "AR",
      "zipCode": "72712",
      "zip4Code": null,
      "county": "BENTON",
      "facLatDecMs": "36.369444",
      "facLongDecMs": "-094.196111"
    },
    {
      "facilityId": 1000019938,
      "epaFacId": "100000033171",
      "facName": "ALLIED UNIVERSAL CORPORATION",
      "city": "W. MEMPHIS",
      "facStreet1Tx": "2100 PORT ROAD",
      "facStreet2Tx": null,
      "state": "AR",
      "zipCode": "72301",
      "zip4Code": null,
      "county": "CRITTENDEN",
      "facLatDecMs": "35.109228",
      "facLongDecMs": "-090.192250"
    },
    {
      "facilityId": 1000063048,
      "epaFacId": "100000035776",
      "facName": "Simmons Decatur Processing South",
      "city": "Decatur",
      "facStreet1Tx": "185 Roller Ave.",
      "facStreet2Tx": null,
      "state": "AR",
      "zipCode": "72722",
      "zip4Code": null,
      "county": "BENTON",
      "facLatDecMs": "36.335353",
      "facLongDecMs": "-94.461741"
    },
    {
      "facilityId": 44499,
      "epaFacId": "100000036052",
      "facName": "Water Pollution Control Facility",
      "city": "Siloam Springs",
      "facStreet1Tx": "975 Anderson Avenue",
      "facStreet2Tx": null,
      "state": "AR",
      "zipCode": "72761",
      "zip4Code": null,
      "county": "BENTON",
      "facLatDecMs": "36.193972",
      "facLongDecMs": "-094.564028"
    },
    {
      "facilityId": 1000105238,
      "epaFacId": "100000036873",
      "facName": "Harcros Chemicals Inc. - Little Rock",
      "city": "Little Rock",
      "facStreet1Tx": "3100 West 65th St.",
      "facStreet2Tx": "",
      "state": "AR",
      "zipCode": "72209",
      "zip4Code": "",
      "county": "PULASKI",
      "facLatDecMs": "34.6903",
      "facLongDecMs": "-092.31258"
    },
    {
      "facilityId": 1000109651,
      "epaFacId": "100000037051",
      "facName": "Hot Springs Village POA Water Plant",
      "city": "Hot Springs Village",
      "facStreet1Tx": "295 Jarandilla Drive",
      "facStreet2Tx": "",
      "state": "AR",
      "zipCode": "71909",
      "zip4Code": "",
      "county": "SALINE",
      "facLatDecMs": "34.679555",
      "facLongDecMs": "-092.956430"
    },
    {
      "facilityId": 1000113924,
      "epaFacId": "100000037783",
      "facName": "Evergreen Packaging  - Pine Bluff Mill",
      "city": "Pine Bluff",
      "facStreet1Tx": "5201 Fairfield Road",
      "facStreet2Tx": "",
      "state": "AR",
      "zipCode": "71601",
      "zip4Code": "",
      "county": "JEFFERSON",
      "facLatDecMs": "34.220000",
      "facLongDecMs": "-091.905000"
    },
    {
      "facilityId": 23558,
      "epaFacId": "100000038684",
      "facName": "Wabash Alloys, L.L.C.",
      "city": "Benton",
      "facStreet1Tx": "1118 Vulcan Rd.",
      "facStreet2Tx": null,
      "state": "AR",
      "zipCode": "72018",
      "zip4Code": "0909",
      "county": "SALINE",
      "facLatDecMs": "34.515556",
      "facLongDecMs": "-92.635833"
    },
    {
      "facilityId": 1000102128,
      "epaFacId": "100000038997",
      "facName": "The Pictsweet Company - Clarksville, AR Plant",
      "city": "Clarksville",
      "facStreet1Tx": "509 Taylor Road",
      "facStreet2Tx": "",
      "state": "AR",
      "zipCode": "72830",
      "zip4Code": "",
      "county": "JOHNSON",
      "facLatDecMs": "35.451420",
      "facLongDecMs": "-093.452900"
    },
    {
      "facilityId": 1000020396,
      "epaFacId": "100000039781",
      "facName": "Odom's Tennessee Pride - Little Rock, AR",
      "city": "Little Rock",
      "facStreet1Tx": "4701 Asher Avenue",
      "facStreet2Tx": null,
      "state": "AR",
      "zipCode": "72204",
      "zip4Code": null,
      "county": "PULASKI",
      "facLatDecMs": "34.720857",
      "facLongDecMs": "-092.323823"
    },
    {
      "facilityId": 3233,
      "epaFacId": "100000040001",
      "facName": "Affiliated Foods",
      "city": "Little Rock",
      "facStreet1Tx": "12103 I-30",
      "facStreet2Tx": null,
      "state": "AR",
      "zipCode": "72203",
      "zip4Code": null,
      "county": "PULASKI",
      "facLatDecMs": "34.651472",
      "facLongDecMs": "-92.413083"
    },
    {
      "facilityId": 1000101476,
      "epaFacId": "100000041368",
      "facName": "Carroll-Boone Water District",
      "city": "Eureka Springs",
      "facStreet1Tx": "11510 HWY 187",
      "facStreet2Tx": null,
      "state": "AR",
      "zipCode": "72631",
      "zip4Code": "8995",
      "county": "CARROLL",
      "facLatDecMs": "36.411389",
      "facLongDecMs": "-093.837500"
    },
    {
      "facilityId": 1000107304,
      "epaFacId": "100000043482",
      "facName": "US Vanadium, LLC",
      "city": "Hot Springs",
      "facStreet1Tx": "4285 Malvern Road",
      "facStreet2Tx": "",
      "state": "AR",
      "zipCode": "71901",
      "zip4Code": "",
      "county": "GARLAND",
      "facLatDecMs": "34.463889",
      "facLongDecMs": "-092.947500"
    },
    {
      "facilityId": 1000103070,
      "epaFacId": "100000047558",
      "facName": "FutureFuel Chemical Company",
      "city": "Batesville",
      "facStreet1Tx": "2800 Gap Road",
      "facStreet2Tx": "PO Box 2357",
      "state": "AR",
      "zipCode": "72503",
      "zip4Code": "2357",
      "county": "INDEPENDENCE",
      "facLatDecMs": "35.722342",
      "facLongDecMs": "-091.524983"
    },
    {
      "facilityId": 1000086982,
      "epaFacId": "100000049057",
      "facName": "Hiland Dairy - Fayetteville, AR",
      "city": "Fayetteville",
      "facStreet1Tx": "301 East 15th Street",
      "facStreet2Tx": null,
      "state": "AR",
      "zipCode": "72701",
      "zip4Code": null,
      "county": "WASHINGTON",
      "facLatDecMs": "36.047360",
      "facLongDecMs": "-094.156092"
    },
    {
      "facilityId": 27769,
      "epaFacId": "100000049182",
      "facName": "Univar USA Inc--Little Rock, AR",
      "city": "Jacksonville",
      "facStreet1Tx": "1925 Redmond Road",
      "facStreet2Tx": null,
      "state": "AR",
      "zipCode": "72076",
      "zip4Code": "0000",
      "county": "PULASKI",
      "facLatDecMs": "34.883639",
      "facLongDecMs": "92.137944"
    },
    {
      "facilityId": 1000092102,
      "epaFacId": "100000049468",
      "facName": "Elite Comfort Solutions - Fort Smith, AR",
      "city": "Fort Smith",
      "facStreet1Tx": "4925 State Line Road",
      "facStreet2Tx": null,
      "state": "AR",
      "zipCode": "72902",
      "zip4Code": null,
      "county": "SEBASTIAN",
      "facLatDecMs": "35.335556",
      "facLongDecMs": "-094.430556"
    },
    {
      "facilityId": 1000110291,
      "epaFacId": "100000050936",
      "facName": "TYSON Poultry, INC. DARDANELLE, AR.",
      "city": "DARDANELLE",
      "facStreet1Tx": "1291 N. HWY. 7",
      "facStreet2Tx": "PO BOX 638",
      "state": "AR",
      "zipCode": "72834",
      "zip4Code": "0000",
      "county": "YELL",
      "facLatDecMs": "35.217220",
      "facLongDecMs": "-93.160100"
    },
    {
      "facilityId": 33983,
      "epaFacId": "100000050963",
      "facName": "Petit Jean Poultry, Danville Plant",
      "city": "Danville",
      "facStreet1Tx": "First Street and Highway 10",
      "facStreet2Tx": null,
      "state": "AR",
      "zipCode": "72833",
      "zip4Code": null,
      "county": "YELL",
      "facLatDecMs": "35.064722",
      "facLongDecMs": "-093.399722"
    },
    {
      "facilityId": 1000076382,
      "epaFacId": "100000051418",
      "facName": "TYSON FOODS, INC. VAN BUREN, AR.",
      "city": "VAN BUREN",
      "facStreet1Tx": "802 SOUTH 28TH. ST.",
      "facStreet2Tx": "",
      "state": "AR",
      "zipCode": "72956",
      "zip4Code": "",
      "county": "CRAWFORD",
      "facLatDecMs": "35.424859",
      "facLongDecMs": "-094.329573"
    },
    {
      "facilityId": 1000105922,
      "epaFacId": "100000051524",
      "facName": "TYSON POULTRY, INC. BERRYVILLE, AR.",
      "city": "BERRYVILLE",
      "facStreet1Tx": "110 WEST FREEMAN AVE.",
      "facStreet2Tx": "",
      "state": "AR",
      "zipCode": "72616",
      "zip4Code": "3399",
      "county": "CARROLL",
      "facLatDecMs": "36.370833",
      "facLongDecMs": "-093.570556"
    },
    {
      "facilityId": 1000111897,
      "epaFacId": "100000051597",
      "facName": "TYSON FOODS, INC. RUSSELLVILLE, AR. (TVDC)",
      "city": "RUSSELLVILLE",
      "facStreet1Tx": "4820 EAST MAIN STREET",
      "facStreet2Tx": "",
      "state": "AR",
      "zipCode": "72802",
      "zip4Code": "",
      "county": "POPE",
      "facLatDecMs": "35.260443",
      "facLongDecMs": "-93.067572"
    },
    {
      "facilityId": 1000109151,
      "epaFacId": "100000051695",
      "facName": "TYSON POULTRY, INC. NASHVILLE, AR.",
      "city": "NASHVILLE",
      "facStreet1Tx": "100 EAST CASSADY",
      "facStreet2Tx": "",
      "state": "AR",
      "zipCode": "71852",
      "zip4Code": "",
      "county": "HOWARD",
      "facLatDecMs": "33.926996",
      "facLongDecMs": "-093.846634"
    },
    {
      "facilityId": 1000112315,
      "epaFacId": "100000051917",
      "facName": "RANDALL ROAD CORNISH PLANT",
      "city": "SPRINGDALE",
      "facStreet1Tx": "671 RANDALL WOBBE LANE",
      "facStreet2Tx": "PO BOX 2020",
      "state": "AR",
      "zipCode": "72764",
      "zip4Code": "",
      "county": "WASHINGTON",
      "facLatDecMs": "36.202867",
      "facLongDecMs": "-94.134971"
    },
    {
      "facilityId": 1000113512,
      "epaFacId": "100000052079",
      "facName": "TYSON DISTRIBUTION CENTER",
      "city": "ROGERS",
      "facStreet1Tx": "402 WEST OLRICH ST.",
      "facStreet2Tx": "PO BOX 900",
      "state": "AR",
      "zipCode": "72756",
      "zip4Code": "5906",
      "county": "BENTON",
      "facLatDecMs": "36.316914",
      "facLongDecMs": "-94.121943"
    },
    {
      "facilityId": 1000113812,
      "epaFacId": "100000052202",
      "facName": "TYSON POULTRY, INC. WALDRON, AR.",
      "city": "WALDRON",
      "facStreet1Tx": "442 Plant Street",
      "facStreet2Tx": "",
      "state": "AR",
      "zipCode": "72958",
      "zip4Code": "",
      "county": "SCOTT",
      "facLatDecMs": "34.904039",
      "facLongDecMs": "-94.102994"
    },
    {
      "facilityId": 4223,
      "epaFacId": "100000052284",
      "facName": "Petit Jean Poultry",
      "city": "Rogers",
      "facStreet1Tx": "2200 Townwest Drive",
      "facStreet2Tx": null,
      "state": "AR",
      "zipCode": "72756",
      "zip4Code": null,
      "county": "BENTON",
      "facLatDecMs": "36.352778",
      "facLongDecMs": "-94.149722"
    },
    {
      "facilityId": 1000112301,
      "epaFacId": "100000052444",
      "facName": "TYSON POULTRY, INC. - Tyson of Rogers",
      "city": "ROGERS",
      "facStreet1Tx": "212 EAST ELM",
      "facStreet2Tx": "",
      "state": "AR",
      "zipCode": "72756",
      "zip4Code": "",
      "county": "BENTON",
      "facLatDecMs": "36.332164",
      "facLongDecMs": "-94.114842"
    },
    {
      "facilityId": 1000102847,
      "epaFacId": "100000052499",
      "facName": "TYSON POULTRY, INC. GREEN FOREST, AR.",
      "city": "GREEN FOREST",
      "facStreet1Tx": "601 TYSON DR.",
      "facStreet2Tx": "",
      "state": "AR",
      "zipCode": "72638",
      "zip4Code": "",
      "county": "CARROLL",
      "facLatDecMs": "36.330556",
      "facLongDecMs": "-093.429167"
    },
    {
      "facilityId": 1000078948,
      "epaFacId": "100000052845",
      "facName": "TYSON FOODS, INC. (N. LITTLE ROCK, AR.)",
      "city": "NORTH LITTLE ROCK",
      "facStreet1Tx": "3800 PROGRESS ST.",
      "facStreet2Tx": null,
      "state": "AR",
      "zipCode": "72114",
      "zip4Code": null,
      "county": "PULASKI",
      "facLatDecMs": "34.758056",
      "facLongDecMs": "-092.223889"
    },
    {
      "facilityId": 1000112278,
      "epaFacId": "100000052952",
      "facName": "SPRINGDALE, AR. (BERRY ST.)",
      "city": "SPRINGDALE",
      "facStreet1Tx": "600 NORTH BERRY ST.",
      "facStreet2Tx": "PO BOX 2020",
      "state": "AR",
      "zipCode": "72764",
      "zip4Code": "3499",
      "county": "WASHINGTON",
      "facLatDecMs": "36.190840",
      "facLongDecMs": "-94.125962"
    },
    {
      "facilityId": 1000108362,
      "epaFacId": "100000052998",
      "facName": "Tyson Chicken Inc., HOPE, AR.",
      "city": "HOPE",
      "facStreet1Tx": "275 COUNTY RD. 278",
      "facStreet2Tx": "PO BOX 230",
      "state": "AR",
      "zipCode": "71802",
      "zip4Code": "",
      "county": "HEMPSTEAD",
      "facLatDecMs": "33.740227",
      "facLongDecMs": "-093.613098"
    },
    {
      "facilityId": 34709,
      "epaFacId": "100000054308",
      "facName": "TYSON FOODS, INC. (M/O EAST) FAYETTEVILLE, AR.",
      "city": "FAYETTEVILLE",
      "facStreet1Tx": "1851 EAST HUNTSVILLE RD.",
      "facStreet2Tx": null,
      "state": "AR",
      "zipCode": "72701",
      "zip4Code": null,
      "county": "WASHINGTON",
      "facLatDecMs": "36.052889",
      "facLongDecMs": "-094.134778"
    },
    {
      "facilityId": 1000116131,
      "epaFacId": "100000054415",
      "facName": "TYSON POULTRY INC. PINE BLUFF, AR. (FP-JP)",
      "city": "PINE BLUFF",
      "facStreet1Tx": "5505 JEFFERSON PKWY.",
      "facStreet2Tx": "PO BOX 7467",
      "state": "AR",
      "zipCode": "71602",
      "zip4Code": "3439",
      "county": "JEFFERSON",
      "facLatDecMs": "34.264209",
      "facLongDecMs": "-092.075733"
    },
    {
      "facilityId": 1000056539,
      "epaFacId": "100000054424",
      "facName": "Georgia-Pacific Consumer Operations LLC",
      "city": "Crossett",
      "facStreet1Tx": "100 Mill Supply Road",
      "facStreet2Tx": null,
      "state": "AR",
      "zipCode": "71635",
      "zip4Code": null,
      "county": "ASHLEY",
      "facLatDecMs": "33.141976",
      "facLongDecMs": "-091.969269"
    },
    {
      "facilityId": 1000103325,
      "epaFacId": "100000054585",
      "facName": "TYSON POULTRY, INC. RUSSELLVILLE, AR. (TYLER RD.)",
      "city": "RUSSELLVILLE",
      "facStreet1Tx": "620 TYLER RD.",
      "facStreet2Tx": "",
      "state": "AR",
      "zipCode": "72802",
      "zip4Code": "",
      "county": "POPE",
      "facLatDecMs": "35.269407",
      "facLongDecMs": "-093.087038"
    },
    {
      "facilityId": 1000106443,
      "epaFacId": "100000054772",
      "facName": "TYSON POULTRY, INC.- CLARKSVILLE PROCESSING PLANT",
      "city": "CLARKSVILLE",
      "facStreet1Tx": "301 EAST CHERRY ST.",
      "facStreet2Tx": "",
      "state": "AR",
      "zipCode": "72830",
      "zip4Code": "3100",
      "county": "JOHNSON",
      "facLatDecMs": "35.473340",
      "facLongDecMs": "-093.456927"
    },
    {
      "facilityId": 44022,
      "epaFacId": "100000055664",
      "facName": "Pilgrim's Pride - El Dorado Processing Plant",
      "city": "El Dorado",
      "facStreet1Tx": "1810 South West Avenue",
      "facStreet2Tx": null,
      "state": "AR",
      "zipCode": "71730",
      "zip4Code": null,
      "county": "UNION",
      "facLatDecMs": "33.193806",
      "facLongDecMs": "-092.669542"
    },
    {
      "facilityId": 47359,
      "epaFacId": "100000056299",
      "facName": "Cargill Meat Solutions Corporation",
      "city": "Booneville",
      "facStreet1Tx": "212 Mario Del Pero Street",
      "facStreet2Tx": null,
      "state": "AR",
      "zipCode": "72927",
      "zip4Code": "5212",
      "county": "LOGAN",
      "facLatDecMs": "35.138800",
      "facLongDecMs": "-093.900000"
    },
    {
      "facilityId": 4665,
      "epaFacId": "100000057305",
      "facName": "Tokusen USA, Inc.",
      "city": "Conway",
      "facStreet1Tx": "1500 Amity Road",
      "facStreet2Tx": "P.O. Box 1150",
      "state": "AR",
      "zipCode": "72033",
      "zip4Code": null,
      "county": "FAULKNER",
      "facLatDecMs": "35.058333",
      "facLongDecMs": "-92.415833"
    },
    {
      "facilityId": 1000115765,
      "epaFacId": "100000057341",
      "facName": "Pactiv - Malvern",
      "city": "Malvern",
      "facStreet1Tx": "1105 Industrial Lane",
      "facStreet2Tx": "PO Box 668",
      "state": "AR",
      "zipCode": "72104",
      "zip4Code": "0668",
      "county": "HOT SPRING",
      "facLatDecMs": "34.377393",
      "facLongDecMs": "-092.820268"
    },
    {
      "facilityId": 33974,
      "epaFacId": "100000058947",
      "facName": "Petit Jean Poultry Arkadelphia plant",
      "city": "Arkadelphia",
      "facStreet1Tx": "125 Technology Drive",
      "facStreet2Tx": null,
      "state": "AR",
      "zipCode": "71923",
      "zip4Code": null,
      "county": "CLARK",
      "facLatDecMs": "34.049722",
      "facLongDecMs": "-093.096667"
    },
    {
      "facilityId": 1000101129,
      "epaFacId": "100000059018",
      "facName": "LANXESS Corporation - West Plant",
      "city": "Magnolia",
      "facStreet1Tx": "5821 Shuler Road",
      "facStreet2Tx": "",
      "state": "AR",
      "zipCode": "71753",
      "zip4Code": "",
      "county": "UNION",
      "facLatDecMs": "33.183889",
      "facLongDecMs": "-092.937778"
    },
    {
      "facilityId": 1000112087,
      "epaFacId": "100000059296",
      "facName": "Domtar A.W. LLC Ashdown Mill",
      "city": "Ashdown",
      "facStreet1Tx": "285 Highway 71 South",
      "facStreet2Tx": "",
      "state": "AR",
      "zipCode": "71822",
      "zip4Code": "",
      "county": "LITTLE RIVER",
      "facLatDecMs": "33.640278",
      "facLongDecMs": "-094.113056"
    },
    {
      "facilityId": 1000116073,
      "epaFacId": "100000059508",
      "facName": "TETRA Technologies - West Memphis Plant",
      "city": "West Memphis",
      "facStreet1Tx": "2201 Port Road",
      "facStreet2Tx": "",
      "state": "AR",
      "zipCode": "72301",
      "zip4Code": "",
      "county": "CRITTENDEN",
      "facLatDecMs": "35.107778",
      "facLongDecMs": "-090.190278"
    },
    {
      "facilityId": 1000098347,
      "epaFacId": "100000060006",
      "facName": "Peco Foods, Inc.",
      "city": "Batesville",
      "facStreet1Tx": "625 South Allen Street",
      "facStreet2Tx": "",
      "state": "AR",
      "zipCode": "72501",
      "zip4Code": "",
      "county": "INDEPENDENCE",
      "facLatDecMs": "35.764444",
      "facLongDecMs": "-091.648611"
    },
    {
      "facilityId": 1000106043,
      "epaFacId": "100000060088",
      "facName": "Hexion Inc.",
      "city": "Hope",
      "facStreet1Tx": "185 North Industrial Dr",
      "facStreet2Tx": "",
      "state": "AR",
      "zipCode": "71801",
      "zip4Code": "8453",
      "county": "HEMPSTEAD",
      "facLatDecMs": "33.732222",
      "facLongDecMs": "-093.632500"
    },
    {
      "facilityId": 1000031118,
      "epaFacId": "100000060104",
      "facName": "Anitox  Russellville Plant",
      "city": "Russellville",
      "facStreet1Tx": "6464 State Road 7",
      "facStreet2Tx": null,
      "state": "AR",
      "zipCode": "72802",
      "zip4Code": null,
      "county": "POPE",
      "facLatDecMs": "35.336389",
      "facLongDecMs": "-093.132500"
    },
    {
      "facilityId": 1000105571,
      "epaFacId": "100000061283",
      "facName": "OK Foods - Ft. Smith",
      "city": "Fort Smith",
      "facStreet1Tx": "North Sixth Street & Reed Lane",
      "facStreet2Tx": "",
      "state": "AR",
      "zipCode": "72904",
      "zip4Code": "",
      "county": "SEBASTIAN",
      "facLatDecMs": "35.423333",
      "facLongDecMs": "-094.3844"
    },
    {
      "facilityId": 5091,
      "epaFacId": "100000062326",
      "facName": "RINECO",
      "city": "Benton",
      "facStreet1Tx": "1007 Vulcan Rd - Haskell",
      "facStreet2Tx": null,
      "state": "AR",
      "zipCode": "72015",
      "zip4Code": null,
      "county": "SALINE",
      "facLatDecMs": "34.513889",
      "facLongDecMs": "-92.630556"
    },
    {
      "facilityId": 1000114403,
      "epaFacId": "100000063138",
      "facName": "Wayne-Sanderson Farms - Danville Fresh Plant",
      "city": "Danville",
      "facStreet1Tx": "2301 East 8th Street",
      "facStreet2Tx": "",
      "state": "AR",
      "zipCode": "72833",
      "zip4Code": "",
      "county": "YELL",
      "facLatDecMs": "35.056667",
      "facLongDecMs": "-093.370000"
    },
    {
      "facilityId": 53073,
      "epaFacId": "100000063441",
      "facName": "J.M. Products, Inc.",
      "city": "Little Rock",
      "facStreet1Tx": "3117 Joshua Street",
      "facStreet2Tx": null,
      "state": "AR",
      "zipCode": "72204",
      "zip4Code": null,
      "county": "PULASKI",
      "facLatDecMs": "34.723136",
      "facLongDecMs": "-092.321924"
    },
    {
      "facilityId": 12996,
      "epaFacId": "100000064119",
      "facName": "Smoky Hollow Foods",
      "city": "LITTLE ROCK",
      "facStreet1Tx": "3200 S. WOODROW ST.",
      "facStreet2Tx": null,
      "state": "AR",
      "zipCode": "72203",
      "zip4Code": "6548",
      "county": "PULASKI",
      "facLatDecMs": "34.721944",
      "facLongDecMs": "-92.306111"
    },
    {
      "facilityId": 20131,
      "epaFacId": "100000064501",
      "facName": "Texarkana Plant",
      "city": "Texarkana",
      "facStreet1Tx": "Rt. 1 Box 2430",
      "facStreet2Tx": null,
      "state": "AR",
      "zipCode": "71854",
      "zip4Code": null,
      "county": "MILLER",
      "facLatDecMs": "33.326389",
      "facLongDecMs": "-94.005556"
    },
    {
      "facilityId": 1000111664,
      "epaFacId": "100000064529",
      "facName": "Water Treatment Plant",
      "city": "Paragould",
      "facStreet1Tx": "320 North 5th Avenue",
      "facStreet2Tx": "",
      "state": "AR",
      "zipCode": "72450",
      "zip4Code": "",
      "county": "GREENE",
      "facLatDecMs": "36.059416",
      "facLongDecMs": "-90.480685"
    },
    {
      "facilityId": 1000110765,
      "epaFacId": "100000064798",
      "facName": "Texarkana Water Utility Millwood Water Plant",
      "city": "Ashdown",
      "facStreet1Tx": "136 Little River 741",
      "facStreet2Tx": "",
      "state": "AR",
      "zipCode": "71822",
      "zip4Code": "",
      "county": "LITTLE RIVER",
      "facLatDecMs": "33.642148",
      "facLongDecMs": "-094.094023"
    },
    {
      "facilityId": 1000099364,
      "epaFacId": "100000071496",
      "facName": "CWL - Medallion Pumping Station",
      "city": "Jonesboro",
      "facStreet1Tx": "1220 Medallion Circle",
      "facStreet2Tx": null,
      "state": "AR",
      "zipCode": "72404",
      "zip4Code": "0691",
      "county": "CRAIGHEAD",
      "facLatDecMs": "35.802626",
      "facLongDecMs": "-090.691121"
    },
    {
      "facilityId": 1000099485,
      "epaFacId": "100000071637",
      "facName": "CWL-Race Street Pumping Station",
      "city": "Jonesboro",
      "facStreet1Tx": "2700 Middlefield Drive",
      "facStreet2Tx": null,
      "state": "AR",
      "zipCode": "72401",
      "zip4Code": "7439",
      "county": "CRAIGHEAD",
      "facLatDecMs": "35.812586",
      "facLongDecMs": "-090.664106"
    },
    {
      "facilityId": 1000043939,
      "epaFacId": "100000072681",
      "facName": "Grayson Field Gas Plant",
      "city": "Magnolia",
      "facStreet1Tx": "411 Hwy 371 North",
      "facStreet2Tx": null,
      "state": "AR",
      "zipCode": "71753",
      "zip4Code": null,
      "county": "COLUMBIA",
      "facLatDecMs": "33.3069445",
      "facLongDecMs": "-093.258889"
    },
    {
      "facilityId": 1000061964,
      "epaFacId": "100000072903",
      "facName": "CWL-East Side Wastewater Treatment Facility",
      "city": "Jonesboro",
      "facStreet1Tx": "5205 Ingels Road",
      "facStreet2Tx": null,
      "state": "AR",
      "zipCode": "72404",
      "zip4Code": "8133",
      "county": "CRAIGHEAD",
      "facLatDecMs": "35.790355",
      "facLongDecMs": "-090.632061"
    },
    {
      "facilityId": 1000061965,
      "epaFacId": "100000072967",
      "facName": "CWL-West Side Wastewater Treatment Plant",
      "city": "Jonesboro",
      "facStreet1Tx": "1605 Willett Road",
      "facStreet2Tx": null,
      "state": "AR",
      "zipCode": "72401",
      "zip4Code": "8938",
      "county": "CRAIGHEAD",
      "facLatDecMs": "35.859444",
      "facLongDecMs": "-090.732584"
    },
    {
      "facilityId": 1000111909,
      "epaFacId": "100000073136",
      "facName": "Pilgrim's Pride - DeQueen Poultry Processing Plant",
      "city": "DeQueen",
      "facStreet1Tx": "401 South 3rd Street",
      "facStreet2Tx": "P.O. Box 389",
      "state": "AR",
      "zipCode": "71832",
      "zip4Code": "",
      "county": "SEVIER",
      "facLatDecMs": "34.033147",
      "facLongDecMs": "-094.339253"
    },
    {
      "facilityId": 5871,
      "epaFacId": "100000075367",
      "facName": "Planters Service & Sales, Inc.",
      "city": "Helena",
      "facStreet1Tx": "1463 Highway 20 South",
      "facStreet2Tx": null,
      "state": "AR",
      "zipCode": "72342",
      "zip4Code": null,
      "county": "PHILLIPS",
      "facLatDecMs": "34.476667",
      "facLongDecMs": "-90.606667"
    },
    {
      "facilityId": 1000089407,
      "epaFacId": "100000075492",
      "facName": "Searcy Wastewater Treatment Plant",
      "city": "Searcy",
      "facStreet1Tx": "8700 HW13",
      "facStreet2Tx": null,
      "state": "AR",
      "zipCode": "72143",
      "zip4Code": null,
      "county": "WHITE",
      "facLatDecMs": "35.267886",
      "facLongDecMs": "-91.716056"
    },
    {
      "facilityId": 1000111544,
      "epaFacId": "100000075544",
      "facName": "Water Treatment Plant",
      "city": "Searcy",
      "facStreet1Tx": "184 Riverside Park Road",
      "facStreet2Tx": "",
      "state": "AR",
      "zipCode": "72143",
      "zip4Code": "",
      "county": "WHITE",
      "facLatDecMs": "35.280451",
      "facLongDecMs": "-091.721936"
    },
    {
      "facilityId": 38591,
      "epaFacId": "100000075731",
      "facName": "Graves-Foster Water Treatment Plant",
      "city": "Fulton",
      "facStreet1Tx": "4108 Highway 355 South",
      "facStreet2Tx": null,
      "state": "AR",
      "zipCode": "71838",
      "zip4Code": null,
      "county": "HEMPSTEAD",
      "facLatDecMs": "33.624074",
      "facLongDecMs": "-093.824590"
    },
    {
      "facilityId": 1000107628,
      "epaFacId": "100000075795",
      "facName": "Robert E. Hurst Water Treatment Plant",
      "city": "Mountain Home",
      "facStreet1Tx": "994 Water Plant Road",
      "facStreet2Tx": "",
      "state": "AR",
      "zipCode": "72653",
      "zip4Code": "",
      "county": "BAXTER",
      "facLatDecMs": "36.395581",
      "facLongDecMs": "-092.330450"
    },
    {
      "facilityId": 1000115430,
      "epaFacId": "100000075875",
      "facName": "Atkins Water Treatment Plant",
      "city": "Pottsville",
      "facStreet1Tx": "293 Galla Park Road",
      "facStreet2Tx": "",
      "state": "AR",
      "zipCode": "72858",
      "zip4Code": "",
      "county": "POPE",
      "facLatDecMs": "35.260833",
      "facLongDecMs": "-093.051389"
    },
    {
      "facilityId": 1000107632,
      "epaFacId": "100000075946",
      "facName": "Mountain Home Wastewater Treatment Plant",
      "city": "Mountain Home",
      "facStreet1Tx": "537 Hicks Road",
      "facStreet2Tx": "",
      "state": "AR",
      "zipCode": "72653",
      "zip4Code": "",
      "county": "BAXTER",
      "facLatDecMs": "36.301428",
      "facLongDecMs": "-092.382221"
    },
    {
      "facilityId": 1000119386,
      "epaFacId": "100000076044",
      "facName": "Tucker Creek Wastewater Treatment Plant",
      "city": "Conway",
      "facStreet1Tx": "1001 Sherwood Lane",
      "facStreet2Tx": "",
      "state": "AR",
      "zipCode": "72034",
      "zip4Code": "",
      "county": "FAULKNER",
      "facLatDecMs": "35.066787",
      "facLongDecMs": "-092.498805"
    },
    {
      "facilityId": 1000119385,
      "epaFacId": "100000076124",
      "facName": "Roger Q. Mills Water Treatment Plant",
      "city": "Conway",
      "facStreet1Tx": "5108 Highway 319",
      "facStreet2Tx": "",
      "state": "AR",
      "zipCode": "72034",
      "zip4Code": "",
      "county": "FAULKNER",
      "facLatDecMs": "35.111389",
      "facLongDecMs": "-092.521111"
    },
    {
      "facilityId": 1000014007,
      "epaFacId": "100000076179",
      "facName": "Stone Dam Creek Wastewater Treatment Plant",
      "city": "Conway",
      "facStreet1Tx": "900 Stanley Russ Road",
      "facStreet2Tx": null,
      "state": "AR",
      "zipCode": "72034",
      "zip4Code": null,
      "county": "FAULKNER",
      "facLatDecMs": "35.052776",
      "facLongDecMs": "-092.436386"
    },
    {
      "facilityId": 1000006379,
      "epaFacId": "100000076954",
      "facName": "Kohler Company",
      "city": "Searcy",
      "facStreet1Tx": "920 E. Lincoln Ave",
      "facStreet2Tx": null,
      "state": "AR",
      "zipCode": "72143",
      "zip4Code": null,
      "county": "WHITE",
      "facLatDecMs": "35.241172",
      "facLongDecMs": "-091.725570"
    },
    {
      "facilityId": 1000042429,
      "epaFacId": "100000078364",
      "facName": "Wastewater Treatment Plant",
      "city": "Paragould",
      "facStreet1Tx": "401 Grant Lane",
      "facStreet2Tx": null,
      "state": "AR",
      "zipCode": "72450",
      "zip4Code": null,
      "county": "GREENE",
      "facLatDecMs": "36.033056",
      "facLongDecMs": "-090.492778"
    },
    {
      "facilityId": 1000101165,
      "epaFacId": "100000084099",
      "facName": "PVS DX, INC.",
      "city": "JACKSONVILLE",
      "facStreet1Tx": "197 SOUTH REDMOND ROAD",
      "facStreet2Tx": "",
      "state": "AR",
      "zipCode": "72076",
      "zip4Code": "4236",
      "county": "PULASKI",
      "facLatDecMs": "34.86305",
      "facLongDecMs": "-92.13333"
    },
    {
      "facilityId": 6315,
      "epaFacId": "100000084678",
      "facName": "Coleman Dairy",
      "city": "Little Rock",
      "facStreet1Tx": "5801 Asher",
      "facStreet2Tx": null,
      "state": "AR",
      "zipCode": "72204",
      "zip4Code": null,
      "county": "PULASKI",
      "facLatDecMs": "34.716694",
      "facLongDecMs": "-92.338556"
    },
    {
      "facilityId": 1000112443,
      "epaFacId": "100000086033",
      "facName": "Magnolia Wastewater Treatment Plant",
      "city": "Magnolia",
      "facStreet1Tx": "72 Columbia 300",
      "facStreet2Tx": "",
      "state": "AR",
      "zipCode": "71753",
      "zip4Code": "",
      "county": "COLUMBIA",
      "facLatDecMs": "33.266400",
      "facLongDecMs": "-093.267416"
    },
    {
      "facilityId": 1000054078,
      "epaFacId": "100000086195",
      "facName": "Hot Springs Wastewater Treatment Plant",
      "city": "Hot Springs",
      "facStreet1Tx": "320 Davidson",
      "facStreet2Tx": null,
      "state": "AR",
      "zipCode": "71901",
      "zip4Code": null,
      "county": "GARLAND",
      "facLatDecMs": "34.449485",
      "facLongDecMs": "-93.018622"
    },
    {
      "facilityId": 1000054079,
      "epaFacId": "100000086337",
      "facName": "Lakeside Water Treatment Plant",
      "city": "Hot Springs",
      "facStreet1Tx": "300 Pineland Dr.",
      "facStreet2Tx": null,
      "state": "AR",
      "zipCode": "71901",
      "zip4Code": null,
      "county": "GARLAND",
      "facLatDecMs": "34.538392",
      "facLongDecMs": "-93.060067"
    },
    {
      "facilityId": 49659,
      "epaFacId": "100000086532",
      "facName": "Jack H. Wilson Water Treatment Plant",
      "city": "Little Rock",
      "facStreet1Tx": "338 Pleasant Valley Drive",
      "facStreet2Tx": null,
      "state": "AR",
      "zipCode": "72212",
      "zip4Code": null,
      "county": "PULASKI",
      "facLatDecMs": "34.781111",
      "facLongDecMs": "-092.391667"
    },
    {
      "facilityId": 49647,
      "epaFacId": "100000086621",
      "facName": "Ozark Water Treatment Plant",
      "city": "Little Rock",
      "facStreet1Tx": "3000 Ozark Point",
      "facStreet2Tx": null,
      "state": "AR",
      "zipCode": "72205",
      "zip4Code": null,
      "county": "PULASKI",
      "facLatDecMs": "34.756667",
      "facLongDecMs": "-092.310278"
    },
    {
      "facilityId": 1000092222,
      "epaFacId": "100000086863",
      "facName": "Water Treatment Plant",
      "city": "Camden",
      "facStreet1Tx": "525 East Washington",
      "facStreet2Tx": null,
      "state": "AR",
      "zipCode": "71701",
      "zip4Code": null,
      "county": "OUACHITA",
      "facLatDecMs": "33.589775",
      "facLongDecMs": "-92.823219"
    },
    {
      "facilityId": 1000093724,
      "epaFacId": "100000087345",
      "facName": "Nashville Water Treatment Plant",
      "city": "Nashville",
      "facStreet1Tx": "300 Lake Nichols Street",
      "facStreet2Tx": null,
      "state": "AR",
      "zipCode": "71852",
      "zip4Code": null,
      "county": "HOWARD",
      "facLatDecMs": "33.958333",
      "facLongDecMs": "-93.844"
    },
    {
      "facilityId": 37933,
      "epaFacId": "100000087586",
      "facName": "Nashville Waste Water Treatment Plant",
      "city": "Nashville",
      "facStreet1Tx": "743 Hwy 27 Bypass",
      "facStreet2Tx": null,
      "state": "AR",
      "zipCode": "71852",
      "zip4Code": null,
      "county": "HOWARD",
      "facLatDecMs": "33.573200",
      "facLongDecMs": "-093.503800"
    },
    {
      "facilityId": 45524,
      "epaFacId": "100000087906",
      "facName": "Camden Waste Water Treatment Plant",
      "city": "Camden",
      "facStreet1Tx": "101 Ouachita Road 197",
      "facStreet2Tx": null,
      "state": "AR",
      "zipCode": "71701",
      "zip4Code": null,
      "county": "OUACHITA",
      "facLatDecMs": "33.563056",
      "facLongDecMs": "-092.820000"
    },
    {
      "facilityId": 7054,
      "epaFacId": "100000088745",
      "facName": "Borden Chemical, Inc., Malvern Plant",
      "city": "Malvern",
      "facStreet1Tx": "2088 Wine Dot Road",
      "facStreet2Tx": null,
      "state": "AR",
      "zipCode": "72104",
      "zip4Code": null,
      "county": "HOT SPRING",
      "facLatDecMs": "34.388306",
      "facLongDecMs": "-92.734361"
    },
    {
      "facilityId": 1000112758,
      "epaFacId": "100000090144",
      "facName": "Sterling Lacy Water Purification Plant",
      "city": "Magnolia",
      "facStreet1Tx": "1300 West Greene",
      "facStreet2Tx": "",
      "state": "AR",
      "zipCode": "71753",
      "zip4Code": "",
      "county": "COLUMBIA",
      "facLatDecMs": "33.283696",
      "facLongDecMs": "-093.257790"
    },
    {
      "facilityId": 1000108124,
      "epaFacId": "100000092384",
      "facName": "Lanxess South Plant",
      "city": "El Dorado",
      "facStreet1Tx": "324 Southfield Cutoff",
      "facStreet2Tx": "",
      "state": "AR",
      "zipCode": "71730",
      "zip4Code": "",
      "county": "UNION",
      "facLatDecMs": "33.111389",
      "facLongDecMs": "-092.675556"
    },
    {
      "facilityId": 1000114123,
      "epaFacId": "100000093392",
      "facName": "Russellville, Arkansas - Frozen Foods",
      "city": "Russellville",
      "facStreet1Tx": "3100 East Main Street",
      "facStreet2Tx": "",
      "state": "AR",
      "zipCode": "72802",
      "zip4Code": "9667",
      "county": "POPE",
      "facLatDecMs": "35.275063",
      "facLongDecMs": "-093.094992"
    },
    {
      "facilityId": 1000117503,
      "epaFacId": "100000095602",
      "facName": "Kagome Foods, Inc",
      "city": "Osceola",
      "facStreet1Tx": "710 North Pearl Street",
      "facStreet2Tx": "",
      "state": "AR",
      "zipCode": "72370",
      "zip4Code": "0368",
      "county": "MISSISSIPPI",
      "facLatDecMs": "35.710036",
      "facLongDecMs": "-089.964589"
    },
    {
      "facilityId": 1000106639,
      "epaFacId": "100000095782",
      "facName": "Ozark Mountain Poultry2 - Batesville, AR",
      "city": "Batesville",
      "facStreet1Tx": "1810 South St. Louis St.",
      "facStreet2Tx": "",
      "state": "AR",
      "zipCode": "72501",
      "zip4Code": "",
      "county": "INDEPENDENCE",
      "facLatDecMs": "35.762376",
      "facLongDecMs": "-091.643609"
    },
    {
      "facilityId": 1000099490,
      "epaFacId": "100000099608",
      "facName": "CWL-Airport Pumping Station",
      "city": "Jonesboro",
      "facStreet1Tx": "1612 Irby Street",
      "facStreet2Tx": null,
      "state": "AR",
      "zipCode": "72401",
      "zip4Code": "5551",
      "county": "CRAIGHEAD",
      "facLatDecMs": "35.824404",
      "facLongDecMs": "-090.654844"
    },
    {
      "facilityId": 52854,
      "epaFacId": "100000101034",
      "facName": "Kinder Morgan Operating LP \"C\"",
      "city": "Blytheville",
      "facStreet1Tx": "6162 E State Highway 18",
      "facStreet2Tx": null,
      "state": "AR",
      "zipCode": "72315",
      "zip4Code": null,
      "county": "MISSISSIPPI",
      "facLatDecMs": "35.909167",
      "facLongDecMs": "-089.766667"
    },
    {
      "facilityId": 50846,
      "epaFacId": "100000101123",
      "facName": "Pilgrim's Pride - Clinton Poultry Processing Plant",
      "city": "Clinton",
      "facStreet1Tx": "1899 Pilgrims Pride Road",
      "facStreet2Tx": "P.O. Box 240",
      "state": "AR",
      "zipCode": "72031",
      "zip4Code": null,
      "county": "VAN BUREN",
      "facLatDecMs": "35.582619",
      "facLongDecMs": "-092.458064"
    },
    {
      "facilityId": 1000104307,
      "epaFacId": "100000101347",
      "facName": "Albemarle Corporation West Plant",
      "city": "Magnolia",
      "facStreet1Tx": "1550 Highway 371 West",
      "facStreet2Tx": "",
      "state": "AR",
      "zipCode": "71753",
      "zip4Code": "",
      "county": "COLUMBIA",
      "facLatDecMs": "33.263056",
      "facLongDecMs": "-093.315500"
    },
    {
      "facilityId": 1000091723,
      "epaFacId": "100000101409",
      "facName": "Bakelite Chemicals LLC -  Crossett, AR",
      "city": "Crossett",
      "facStreet1Tx": "124 Paper Mill Road",
      "facStreet2Tx": "",
      "state": "AR",
      "zipCode": "71635",
      "zip4Code": "",
      "county": "ASHLEY",
      "facLatDecMs": "33.138368",
      "facLongDecMs": "-091.966885"
    },
    {
      "facilityId": 28993,
      "epaFacId": "100000102328",
      "facName": "Diaz Intermediates Corporation",
      "city": "West Memphis",
      "facStreet1Tx": "301 Wyanoke Road",
      "facStreet2Tx": null,
      "state": "AR",
      "zipCode": "72301",
      "zip4Code": null,
      "county": "CRITTENDEN",
      "facLatDecMs": "35.107222",
      "facLongDecMs": "-90.1925"
    },
    {
      "facilityId": 1000117490,
      "epaFacId": "100000102612",
      "facName": "Americold - Johnson",
      "city": "Johnson",
      "facStreet1Tx": "6403 South Ball Street",
      "facStreet2Tx": "P.O. Box 558",
      "state": "AR",
      "zipCode": "72741",
      "zip4Code": "",
      "county": "WASHINGTON",
      "facLatDecMs": "36.125556",
      "facLongDecMs": "-094.169444"
    },
    {
      "facilityId": 10633,
      "epaFacId": "100000103611",
      "facName": "Lake Erling Gas Processing Plant",
      "city": "Taylor",
      "facStreet1Tx": "734 Lafayette 8",
      "facStreet2Tx": null,
      "state": "AR",
      "zipCode": "71861",
      "zip4Code": null,
      "county": "LAFAYETTE",
      "facLatDecMs": "33.033333",
      "facLongDecMs": "-93.6125"
    },
    {
      "facilityId": 1000088569,
      "epaFacId": "100000104317",
      "facName": "Americold - Russellville 324",
      "city": "Russellville",
      "facStreet1Tx": "500 State Road 324 South",
      "facStreet2Tx": "P.O. Box 11300",
      "state": "AR",
      "zipCode": "72802",
      "zip4Code": "",
      "county": "POPE",
      "facLatDecMs": "35.271808",
      "facLongDecMs": "-93.093491"
    },
    {
      "facilityId": 47669,
      "epaFacId": "100000105511",
      "facName": "Adams Field Wastewater Treatment Plant",
      "city": "Little Rock",
      "facStreet1Tx": "1001 Temple Street",
      "facStreet2Tx": null,
      "state": "AR",
      "zipCode": "72202",
      "zip4Code": null,
      "county": "PULASKI",
      "facLatDecMs": "34.735278",
      "facLongDecMs": "-092.216111"
    },
    {
      "facilityId": 1000100669,
      "epaFacId": "100000107895",
      "facName": "Clearwater Paper Corporation - Cypress Bend Mill",
      "city": "Arkansas City",
      "facStreet1Tx": "5082 Highway 4 North",
      "facStreet2Tx": null,
      "state": "AR",
      "zipCode": "71630",
      "zip4Code": null,
      "county": "DESHA",
      "facLatDecMs": "33.706440",
      "facLongDecMs": "-091.237850"
    },
    {
      "facilityId": 28497,
      "epaFacId": "100000108135",
      "facName": "Great Lakes Chemical, Newell Plant",
      "city": "El Dorado",
      "facStreet1Tx": "3940 Haynesville Highway",
      "facStreet2Tx": null,
      "state": "AR",
      "zipCode": "71731",
      "zip4Code": "7020",
      "county": "UNION",
      "facLatDecMs": "33.167",
      "facLongDecMs": "-92.745556"
    },
    {
      "facilityId": 1000107692,
      "epaFacId": "100000108901",
      "facName": "Clean Harbors El Dorado LLC",
      "city": "El Dorado",
      "facStreet1Tx": "309 American Circle",
      "facStreet2Tx": "",
      "state": "AR",
      "zipCode": "71730",
      "zip4Code": "",
      "county": "UNION",
      "facLatDecMs": "33.204498",
      "facLongDecMs": "-092.631420"
    },
    {
      "facilityId": 49243,
      "epaFacId": "100000109278",
      "facName": "Quantum Resources Management, Walker Creek Gas Pl",
      "city": "Taylor",
      "facStreet1Tx": "12261 Hwy 371",
      "facStreet2Tx": null,
      "state": "AR",
      "zipCode": "71861",
      "zip4Code": null,
      "county": "COLUMBIA",
      "facLatDecMs": "33.077972",
      "facLongDecMs": "-093.460583"
    },
    {
      "facilityId": 1000101543,
      "epaFacId": "100000109839",
      "facName": "Fourche Creek Water Reclamation Facility",
      "city": "Little Rock",
      "facStreet1Tx": "9500 Birdwood Drive",
      "facStreet2Tx": "",
      "state": "AR",
      "zipCode": "72206",
      "zip4Code": "",
      "county": "PULASKI",
      "facLatDecMs": "34.697259",
      "facLongDecMs": "-092.164223"
    },
    {
      "facilityId": 8815,
      "epaFacId": "100000110532",
      "facName": "ITT Industries - Fluid Handling Systems - Searcy",
      "city": "Searcy",
      "facStreet1Tx": "100 Queensway",
      "facStreet2Tx": null,
      "state": "AR",
      "zipCode": "72143",
      "zip4Code": null,
      "county": "WHITE",
      "facLatDecMs": "35.238583",
      "facLongDecMs": "-91.723528"
    },
    {
      "facilityId": 1000104327,
      "epaFacId": "100000111425",
      "facName": "Albemarle Corporation South Plant",
      "city": "Magnolia",
      "facStreet1Tx": "2270 Highway 79 South",
      "facStreet2Tx": "",
      "state": "AR",
      "zipCode": "71753",
      "zip4Code": "",
      "county": "COLUMBIA",
      "facLatDecMs": "33.174778",
      "facLongDecMs": "-093.215750"
    },
    {
      "facilityId": 1000113871,
      "epaFacId": "100000111899",
      "facName": "Viskase Corporation",
      "city": "Osceola",
      "facStreet1Tx": "2221 East State Highway 198",
      "facStreet2Tx": "",
      "state": "AR",
      "zipCode": "72370",
      "zip4Code": "",
      "county": "MISSISSIPPI",
      "facLatDecMs": "35.652166",
      "facLongDecMs": "-089.939628"
    },
    {
      "facilityId": 9011,
      "epaFacId": "100000111915",
      "facName": "Thorn Apple Valley, Dixie Foods Division",
      "city": "Forrest City",
      "facStreet1Tx": "3133 Commerce Road",
      "facStreet2Tx": null,
      "state": "AR",
      "zipCode": "72335",
      "zip4Code": "1053",
      "county": "ST. FRANCIS",
      "facLatDecMs": "35.050556",
      "facLongDecMs": "-90.785"
    },
    {
      "facilityId": 1000099323,
      "epaFacId": "100000112282",
      "facName": "LANXESS Corporation - Central Plant",
      "city": "El Dorado",
      "facStreet1Tx": "2226 Haynesville Highway",
      "facStreet2Tx": "",
      "state": "AR",
      "zipCode": "71730",
      "zip4Code": "7020",
      "county": "UNION",
      "facLatDecMs": "33.183223",
      "facLongDecMs": "-092.707326"
    },
    {
      "facilityId": 1000054080,
      "epaFacId": "100000113352",
      "facName": "Ouachita Water Treatment Plant",
      "city": "Mountain Pine",
      "facStreet1Tx": "860 Cozy Acres",
      "facStreet2Tx": null,
      "state": "AR",
      "zipCode": "71956",
      "zip4Code": null,
      "county": "GARLAND",
      "facLatDecMs": "34.549073",
      "facLongDecMs": "-93.183235"
    },
    {
      "facilityId": 1000118287,
      "epaFacId": "100000113888",
      "facName": "Water Treatment Plant",
      "city": "Waldron",
      "facStreet1Tx": "P.O. Box 310",
      "facStreet2Tx": "106 East Water Street",
      "state": "AR",
      "zipCode": "72958",
      "zip4Code": "",
      "county": "SCOTT",
      "facLatDecMs": "34.922442",
      "facLongDecMs": "-94.094568"
    },
    {
      "facilityId": 1000097029,
      "epaFacId": "100000115207",
      "facName": "El Dorado Chemical Company",
      "city": "El Dorado",
      "facStreet1Tx": "4500 North West Avenue",
      "facStreet2Tx": null,
      "state": "AR",
      "zipCode": "71730",
      "zip4Code": null,
      "county": "UNION",
      "facLatDecMs": "33.158611",
      "facLongDecMs": "-092.411111"
    },
    {
      "facilityId": 1000110229,
      "epaFacId": "100000117189",
      "facName": "Lycus Ltd.",
      "city": "El Dorado",
      "facStreet1Tx": "181 Cooper Drive",
      "facStreet2Tx": "",
      "state": "AR",
      "zipCode": "71730",
      "zip4Code": "",
      "county": "UNION",
      "facLatDecMs": "33.200194",
      "facLongDecMs": "-92.610945"
    },
    {
      "facilityId": 1000093845,
      "epaFacId": "100000118963",
      "facName": "Land O'Frost, Inc.",
      "city": "Searcy",
      "facStreet1Tx": "911 Hastings Avenue",
      "facStreet2Tx": "",
      "state": "AR",
      "zipCode": "72143",
      "zip4Code": "",
      "county": "WHITE",
      "facLatDecMs": "35.238488",
      "facLongDecMs": "-091.727109"
    },
    {
      "facilityId": 1000105028,
      "epaFacId": "100000119212",
      "facName": "Butterball, LLC",
      "city": "Jonesboro",
      "facStreet1Tx": "9401 East Highland Drive",
      "facStreet2Tx": "",
      "state": "AR",
      "zipCode": "72401",
      "zip4Code": "",
      "county": "CRAIGHEAD",
      "facLatDecMs": "35.820530",
      "facLongDecMs": "-90.561917"
    },
    {
      "facilityId": 1000102567,
      "epaFacId": "100000120442",
      "facName": "Lee Creek Water Treatment Facility",
      "city": "Van Buren",
      "facStreet1Tx": "2425 Pine Hollow Road",
      "facStreet2Tx": "",
      "state": "AR",
      "zipCode": "72956",
      "zip4Code": "",
      "county": "CRAWFORD",
      "facLatDecMs": "35.486653",
      "facLongDecMs": "-094.388674"
    },
    {
      "facilityId": 11490,
      "epaFacId": "100000120479",
      "facName": "Massard Wastewater Treatment Facility",
      "city": "Barling",
      "facStreet1Tx": "1500 North 9th Street",
      "facStreet2Tx": null,
      "state": "AR",
      "zipCode": "72923",
      "zip4Code": null,
      "county": "SEBASTIAN",
      "facLatDecMs": "35.341667",
      "facLongDecMs": "-94.311944"
    },
    {
      "facilityId": 1000102523,
      "epaFacId": "100000120665",
      "facName": "Lake Fort Smith Water Treatment Plant",
      "city": "Mountainburg",
      "facStreet1Tx": "2100 Lake Fort Smith Road",
      "facStreet2Tx": "",
      "state": "AR",
      "zipCode": "72946",
      "zip4Code": "",
      "county": "CRAWFORD",
      "facLatDecMs": "35.649076",
      "facLongDecMs": "-094.153753"
    },
    {
      "facilityId": 1000105665,
      "epaFacId": "100000120987",
      "facName": "Butterball - Huntsville",
      "city": "Huntsville",
      "facStreet1Tx": "1294 N. College St.",
      "facStreet2Tx": "",
      "state": "AR",
      "zipCode": "72740",
      "zip4Code": "",
      "county": "MADISON",
      "facLatDecMs": "36.101760",
      "facLongDecMs": "-093.735439"
    },
    {
      "facilityId": 1000114530,
      "epaFacId": "100000121209",
      "facName": "North Little Rock - North Terminal",
      "city": "Little Rock",
      "facStreet1Tx": "3222 Central Airport Road",
      "facStreet2Tx": "",
      "state": "AR",
      "zipCode": "72117",
      "zip4Code": "",
      "county": "PULASKI",
      "facLatDecMs": "34.781927",
      "facLongDecMs": "-092.175394"
    },
    {
      "facilityId": 1000115767,
      "epaFacId": "100000122627",
      "facName": "Walmart Distribution Center #6082",
      "city": "Clarksville",
      "facStreet1Tx": "3300 Sterling Hurley Hwy.",
      "facStreet2Tx": "",
      "state": "AR",
      "zipCode": "72830",
      "zip4Code": "",
      "county": "JOHNSON",
      "facLatDecMs": "35.428831",
      "facLongDecMs": "-093.532908"
    },
    {
      "facilityId": 1000115372,
      "epaFacId": "100000122672",
      "facName": "Butterball, LLC",
      "city": "Ozark",
      "facStreet1Tx": "307 Dodgen Place",
      "facStreet2Tx": "",
      "state": "AR",
      "zipCode": "72949",
      "zip4Code": "",
      "county": "FRANKLIN",
      "facLatDecMs": "35.4846776",
      "facLongDecMs": "-093.817837"
    },
    {
      "facilityId": 1000109572,
      "epaFacId": "100000124046",
      "facName": "Batesville Water Treatment Plant",
      "city": "Batesville",
      "facStreet1Tx": "1755 Chaney Drive",
      "facStreet2Tx": "",
      "state": "AR",
      "zipCode": "72501",
      "zip4Code": "",
      "county": "INDEPENDENCE",
      "facLatDecMs": "35.760833",
      "facLongDecMs": "-091.636111"
    },
    {
      "facilityId": 1000102212,
      "epaFacId": "100000124386",
      "facName": "Beaver Water District Water Treatment Facility",
      "city": "Lowell",
      "facStreet1Tx": "101 N. Primrose Road",
      "facStreet2Tx": "P.O. Box 400",
      "state": "AR",
      "zipCode": "72745",
      "zip4Code": "0400",
      "county": "BENTON",
      "facLatDecMs": "36.253333",
      "facLongDecMs": "-094.105556"
    },
    {
      "facilityId": 1000104910,
      "epaFacId": "100000125134",
      "facName": "Frez-N-Stor Inc.",
      "city": "Springdale",
      "facStreet1Tx": "610 Porter Ave.",
      "facStreet2Tx": "P. O. Box 88",
      "state": "AR",
      "zipCode": "72764",
      "zip4Code": "",
      "county": "WASHINGTON",
      "facLatDecMs": "36.174167",
      "facLongDecMs": "-094.134167"
    },
    {
      "facilityId": 1000089364,
      "epaFacId": "100000126259",
      "facName": "Fabriclean Supply of Arkansas Limited",
      "city": "Little Rock",
      "facStreet1Tx": "6600 Allied Way",
      "facStreet2Tx": null,
      "state": "AR",
      "zipCode": "72209",
      "zip4Code": null,
      "county": "PULASKI",
      "facLatDecMs": "34.687778",
      "facLongDecMs": "-092.299722"
    },
    {
      "facilityId": 1000060762,
      "epaFacId": "100000127178",
      "facName": "BASF Corporation",
      "city": "West Memphis",
      "facStreet1Tx": "100 Bridgeport Rd",
      "facStreet2Tx": null,
      "state": "AR",
      "zipCode": "72301",
      "zip4Code": "6413",
      "county": "CRITTENDEN",
      "facLatDecMs": "35.130556",
      "facLongDecMs": "-090.106944"
    },
    {
      "facilityId": 1000000093,
      "epaFacId": "100000127944",
      "facName": "Harrison Waste Water Treatment Plant",
      "city": "Harrison",
      "facStreet1Tx": "1508 Silver Valley Road",
      "facStreet2Tx": null,
      "state": "AR",
      "zipCode": "72601",
      "zip4Code": "1715",
      "county": "BOONE",
      "facLatDecMs": "36.237500",
      "facLongDecMs": "-093.077222"
    },
    {
      "facilityId": 1000019358,
      "epaFacId": "100000128168",
      "facName": "TRG Hot Springs, LLC",
      "city": "Hot Springs",
      "facStreet1Tx": "4400 Malvern Avenue",
      "facStreet2Tx": null,
      "state": "AR",
      "zipCode": "71901",
      "zip4Code": null,
      "county": "GARLAND",
      "facLatDecMs": "34.461111",
      "facLongDecMs": "-092.939722"
    },
    {
      "facilityId": 1000097826,
      "epaFacId": "100000134204",
      "facName": "Lion Oil Company",
      "city": "El Dorado",
      "facStreet1Tx": "1000 McHenry",
      "facStreet2Tx": null,
      "state": "AR",
      "zipCode": "71730",
      "zip4Code": "1000",
      "county": "UNION",
      "facLatDecMs": "33.201139",
      "facLongDecMs": "-092.673278"
    },
    {
      "facilityId": 1000009092,
      "epaFacId": "100000134632",
      "facName": "Searcy Gas Plant",
      "city": "Searcy",
      "facStreet1Tx": "2227 Highway 267 South",
      "facStreet2Tx": null,
      "state": "AR",
      "zipCode": "72143",
      "zip4Code": null,
      "county": "WHITE",
      "facLatDecMs": "35.205472",
      "facLongDecMs": "-091.771111"
    },
    {
      "facilityId": 1000105623,
      "epaFacId": "100000139192",
      "facName": "CWS Water Treatment Plant",
      "city": "Greers Ferry",
      "facStreet1Tx": "299 Lakeshore Dr.",
      "facStreet2Tx": "",
      "state": "AR",
      "zipCode": "72067",
      "zip4Code": "",
      "county": "CLEBURNE",
      "facLatDecMs": "35.593930",
      "facLongDecMs": "-092.169142"
    },
    {
      "facilityId": 1000039317,
      "epaFacId": "100000139888",
      "facName": "Envirotech Chemical Services Inc.",
      "city": "Helena",
      "facStreet1Tx": "49 Phillip's Road 311",
      "facStreet2Tx": null,
      "state": "AR",
      "zipCode": "72342",
      "zip4Code": null,
      "county": "PHILLIPS",
      "facLatDecMs": "34.5200022",
      "facLongDecMs": "-90.653322"
    },
    {
      "facilityId": 13417,
      "epaFacId": "100000140803",
      "facName": "Swift Chemical Co., Inc.",
      "city": "Rogers",
      "facStreet1Tx": "2001 S. First Street",
      "facStreet2Tx": null,
      "state": "AR",
      "zipCode": "72758",
      "zip4Code": null,
      "county": "BENTON",
      "facLatDecMs": "36.308472",
      "facLongDecMs": "-94.114583"
    },
    {
      "facilityId": 1000010121,
      "epaFacId": "100000141143",
      "facName": "Greenville Tube Company",
      "city": "Clarksville",
      "facStreet1Tx": "501 South Montgomery Street",
      "facStreet2Tx": null,
      "state": "AR",
      "zipCode": "72830",
      "zip4Code": null,
      "county": "JOHNSON",
      "facLatDecMs": "35.462311",
      "facLongDecMs": "-93.472702"
    },
    {
      "facilityId": 1000112115,
      "epaFacId": "100000141571",
      "facName": "Mount Holly Water Treatment Plant",
      "city": "El Dorado",
      "facStreet1Tx": "117 Britt Lane",
      "facStreet2Tx": "",
      "state": "AR",
      "zipCode": "71730",
      "zip4Code": "",
      "county": "UNION",
      "facLatDecMs": "33.233055",
      "facLongDecMs": "-092.713058"
    },
    {
      "facilityId": 1000089344,
      "epaFacId": "100000141839",
      "facName": "Americold - Lowell",
      "city": "Lowell",
      "facStreet1Tx": "515 N Bloomington Street",
      "facStreet2Tx": null,
      "state": "AR",
      "zipCode": "72745",
      "zip4Code": null,
      "county": "BENTON",
      "facLatDecMs": "36.262778",
      "facLongDecMs": "-094.135000"
    },
    {
      "facilityId": 1000001695,
      "epaFacId": "100000142455",
      "facName": "Irons Fork Water Treatment Facility",
      "city": "Mena",
      "facStreet1Tx": "536 Polk 184",
      "facStreet2Tx": null,
      "state": "AR",
      "zipCode": "71953",
      "zip4Code": null,
      "county": "POLK",
      "facLatDecMs": "34.642500",
      "facLongDecMs": "-094.131667"
    },
    {
      "facilityId": 1000087406,
      "epaFacId": "100000142605",
      "facName": "Americold Fort Smith 45",
      "city": "Fort Smith",
      "facStreet1Tx": "8425 Highway 45 South",
      "facStreet2Tx": "P.O. Box 6209",
      "state": "AR",
      "zipCode": "72916",
      "zip4Code": "",
      "county": "SEBASTIAN",
      "facLatDecMs": "35.304195",
      "facLongDecMs": "-094.380998"
    },
    {
      "facilityId": 17512,
      "epaFacId": "100000142687",
      "facName": "Mena Wastewater Treatment Facility",
      "city": "Mena",
      "facStreet1Tx": "323 Polk County Road 53",
      "facStreet2Tx": null,
      "state": "AR",
      "zipCode": "71953",
      "zip4Code": null,
      "county": "POLK",
      "facLatDecMs": "34.562778",
      "facLongDecMs": "94.186667"
    },
    {
      "facilityId": 39651,
      "epaFacId": "100000143294",
      "facName": "Downtown Water Treatment Plant",
      "city": "El Dorado",
      "facStreet1Tx": "307 South Jackson Street",
      "facStreet2Tx": null,
      "state": "AR",
      "zipCode": "71730",
      "zip4Code": null,
      "county": "UNION",
      "facLatDecMs": "33.209444",
      "facLongDecMs": "-092.660556"
    },
    {
      "facilityId": 1000104849,
      "epaFacId": "100000145345",
      "facName": "White Oak Bayou Treatment Plant",
      "city": "North Little Rock",
      "facStreet1Tx": "6000 Heilman",
      "facStreet2Tx": "",
      "state": "AR",
      "zipCode": "72118",
      "zip4Code": "",
      "county": "PULASKI",
      "facLatDecMs": "34.799388",
      "facLongDecMs": "-092.334444"
    },
    {
      "facilityId": 1000104218,
      "epaFacId": "100000145817",
      "facName": "Faulkner Lake Treatment Plant",
      "city": "North Little Rock",
      "facStreet1Tx": "7400 Baucum Pike",
      "facStreet2Tx": "",
      "state": "AR",
      "zipCode": "72117",
      "zip4Code": "",
      "county": "PULASKI",
      "facLatDecMs": "34.737660",
      "facLongDecMs": "-092.180420"
    },
    {
      "facilityId": 1000104867,
      "epaFacId": "100000145835",
      "facName": "Five Mile Creek Treatment Plant",
      "city": "North Little Rock",
      "facStreet1Tx": "5601 East 54th",
      "facStreet2Tx": "",
      "state": "AR",
      "zipCode": "72231",
      "zip4Code": "",
      "county": "PULASKI",
      "facLatDecMs": "34.80368",
      "facLongDecMs": "-92.201380"
    },
    {
      "facilityId": 1000100819,
      "epaFacId": "100000145979",
      "facName": "Wastewater Treatment Plant",
      "city": "Springdale",
      "facStreet1Tx": "2910 Silent Grove Rd.",
      "facStreet2Tx": "",
      "state": "AR",
      "zipCode": "72762",
      "zip4Code": "",
      "county": "WASHINGTON",
      "facLatDecMs": "36.211498",
      "facLongDecMs": "-094.163378"
    },
    {
      "facilityId": 1000107986,
      "epaFacId": "100000147085",
      "facName": "Cargill Meat Solutions Springdale",
      "city": "Springdale",
      "facStreet1Tx": "730 East Randall Wobbe Lane",
      "facStreet2Tx": "",
      "state": "AR",
      "zipCode": "72764",
      "zip4Code": "",
      "county": "WASHINGTON",
      "facLatDecMs": "36.205244",
      "facLongDecMs": "-94.121870"
    },
    {
      "facilityId": 13981,
      "epaFacId": "100000147717",
      "facName": "Berryville, City of-WWTP",
      "city": "Berryville",
      "facStreet1Tx": "1000 West Cedarvale Road",
      "facStreet2Tx": null,
      "state": "AR",
      "zipCode": "72616",
      "zip4Code": null,
      "county": "CARROLL",
      "facLatDecMs": "36.354444",
      "facLongDecMs": "-93.573889"
    },
    {
      "facilityId": 42932,
      "epaFacId": "100000147888",
      "facName": "Russellville Water Treatment Plant",
      "city": "Russellville",
      "facStreet1Tx": "74 Water Works Loop",
      "facStreet2Tx": null,
      "state": "AR",
      "zipCode": "72801",
      "zip4Code": null,
      "county": "POPE",
      "facLatDecMs": "35.336111",
      "facLongDecMs": "-093.144722"
    },
    {
      "facilityId": 14110,
      "epaFacId": "100000148789",
      "facName": "Berry Petroleum Company",
      "city": "Stephens",
      "facStreet1Tx": "658 Ouachita 137",
      "facStreet2Tx": null,
      "state": "AR",
      "zipCode": "71764",
      "zip4Code": null,
      "county": "OUACHITA",
      "facLatDecMs": "33.417222",
      "facLongDecMs": "-93.0575"
    },
    {
      "facilityId": 1000084439,
      "epaFacId": "100000150873",
      "facName": "Russellville Pollution Control Works",
      "city": "Russellville",
      "facStreet1Tx": "404 Jimmy Lile Road",
      "facStreet2Tx": null,
      "state": "AR",
      "zipCode": "72802",
      "zip4Code": null,
      "county": "POPE",
      "facLatDecMs": "35.249167",
      "facLongDecMs": "-093.116111"
    },
    {
      "facilityId": 1000098147,
      "epaFacId": "100000157607",
      "facName": "George's, Processing Plant",
      "city": "Springdale",
      "facStreet1Tx": "1306 N. Kansas",
      "facStreet2Tx": "",
      "state": "AR",
      "zipCode": "72764",
      "zip4Code": "",
      "county": "WASHINGTON",
      "facLatDecMs": "36.198531",
      "facLongDecMs": "-094.139374"
    },
    {
      "facilityId": 1000066658,
      "epaFacId": "100000157723",
      "facName": "P Street Wastewater Treatment Facility",
      "city": "Fort Smith",
      "facStreet1Tx": "13 North P Street",
      "facStreet2Tx": null,
      "state": "AR",
      "zipCode": "72904",
      "zip4Code": null,
      "county": "SEBASTIAN",
      "facLatDecMs": "35.405076",
      "facLongDecMs": "-094.417441"
    },
    {
      "facilityId": 1000115096,
      "epaFacId": "100000159687",
      "facName": "Americold, Texarkana, Plant #78451",
      "city": "Texarkana",
      "facStreet1Tx": "3609 Genoa Rd.",
      "facStreet2Tx": "",
      "state": "AR",
      "zipCode": "71854",
      "zip4Code": "",
      "county": "MILLER",
      "facLatDecMs": "33.413908",
      "facLongDecMs": "-093.997713"
    },
    {
      "facilityId": 1000086163,
      "epaFacId": "100000159712",
      "facName": "Tyson Foods, Inc. TVDC West",
      "city": "Russellville",
      "facStreet1Tx": "203 Industrial Blvd",
      "facStreet2Tx": "",
      "state": "AR",
      "zipCode": "72802",
      "zip4Code": "",
      "county": "POPE",
      "facLatDecMs": "35.260550",
      "facLongDecMs": "-093.069140"
    },
    {
      "facilityId": 1000112608,
      "epaFacId": "100000159801",
      "facName": "Americold, Springdale - Plant # 78418",
      "city": "Springdale",
      "facStreet1Tx": "1200 North Old Missouri RD.",
      "facStreet2Tx": "",
      "state": "AR",
      "zipCode": "72765",
      "zip4Code": "",
      "county": "WASHINGTON",
      "facLatDecMs": "36.194181",
      "facLongDecMs": "-094.118731"
    },
    {
      "facilityId": 1000113697,
      "epaFacId": "100000159838",
      "facName": "Americold, Russellville Elmira -  Plant #78417",
      "city": "Russellville",
      "facStreet1Tx": "300 South Elmira",
      "facStreet2Tx": "",
      "state": "AR",
      "zipCode": "72801",
      "zip4Code": "",
      "county": "POPE",
      "facLatDecMs": "35.274594",
      "facLongDecMs": "-93.106047"
    },
    {
      "facilityId": 1000112606,
      "epaFacId": "100000159874",
      "facName": "Americold, West Memphis - Plant # 75139",
      "city": "West Memphis",
      "facStreet1Tx": "1651 South Air Port Rd.",
      "facStreet2Tx": "",
      "state": "AR",
      "zipCode": "72301",
      "zip4Code": "",
      "county": "CRITTENDEN",
      "facLatDecMs": "35.124431",
      "facLongDecMs": "-90.230819"
    },
    {
      "facilityId": 1000119717,
      "epaFacId": "100000159892",
      "facName": "Americold, Fort Smith    # 75119",
      "city": "Ft. Smith",
      "facStreet1Tx": "1634 Midland Blvd",
      "facStreet2Tx": "",
      "state": "AR",
      "zipCode": "72901",
      "zip4Code": "",
      "county": "SEBASTIAN",
      "facLatDecMs": "35.396121",
      "facLongDecMs": "-094.408814"
    },
    {
      "facilityId": 1000090351,
      "epaFacId": "100000163609",
      "facName": "TYSON FOODS, INC. RUSSELLVILLE DISTRIBUTION CENTER",
      "city": "RUSSELLVILLE",
      "facStreet1Tx": "702 EAST MAIN",
      "facStreet2Tx": null,
      "state": "AR",
      "zipCode": "72801",
      "zip4Code": null,
      "county": "POPE",
      "facLatDecMs": "35.277695",
      "facLongDecMs": "-93.123850"
    },
    {
      "facilityId": 1000113509,
      "epaFacId": "100000163627",
      "facName": "Tyson Mexican Original, Inc.  Fayetteville Complex",
      "city": "FAYETTEVILLE",
      "facStreet1Tx": "2615 South School Avenue",
      "facStreet2Tx": "",
      "state": "AR",
      "zipCode": "72701",
      "zip4Code": "",
      "county": "WASHINGTON",
      "facLatDecMs": "36.035833",
      "facLongDecMs": "-094.170278"
    },
    {
      "facilityId": 1000048659,
      "epaFacId": "100000163789",
      "facName": "McKamie Gas Plant",
      "city": "Stamps",
      "facStreet1Tx": "Lafayette County Road 36",
      "facStreet2Tx": "213 Lafayette 36",
      "state": "AR",
      "zipCode": "71860",
      "zip4Code": "0066",
      "county": "LAFAYETTE",
      "facLatDecMs": "33.252730",
      "facLongDecMs": "-93.494175"
    },
    {
      "facilityId": 1000103493,
      "epaFacId": "100000164065",
      "facName": "Fayetteville, Arkansas - Frozen Foods",
      "city": "Fayetteville",
      "facStreet1Tx": "1100 West 15th Street",
      "facStreet2Tx": "",
      "state": "AR",
      "zipCode": "72701",
      "zip4Code": "",
      "county": "WASHINGTON",
      "facLatDecMs": "36.050465",
      "facLongDecMs": "-094.177321"
    },
    {
      "facilityId": 46953,
      "epaFacId": "100000166278",
      "facName": "CoorsTek, Arkansas Operations",
      "city": "Benton",
      "facStreet1Tx": "1912 Dale Street",
      "facStreet2Tx": null,
      "state": "AR",
      "zipCode": "72015",
      "zip4Code": null,
      "county": "SALINE",
      "facLatDecMs": "34.548611",
      "facLongDecMs": "-092.609444"
    },
    {
      "facilityId": 1000001528,
      "epaFacId": "100000168365",
      "facName": "Albemarle Corporation East Plant",
      "city": "Magnolia",
      "facStreet1Tx": "5610 Shuler Road",
      "facStreet2Tx": null,
      "state": "AR",
      "zipCode": "71753",
      "zip4Code": null,
      "county": "UNION",
      "facLatDecMs": "33.186389",
      "facLongDecMs": "-092.930056"
    },
    {
      "facilityId": 1000082342,
      "epaFacId": "100000169337",
      "facName": "Gerber Products Company",
      "city": "Fort Smith",
      "facStreet1Tx": "4301 Harriet Lane",
      "facStreet2Tx": "",
      "state": "AR",
      "zipCode": "72904",
      "zip4Code": "",
      "county": "SEBASTIAN",
      "facLatDecMs": "35.429444",
      "facLongDecMs": "-094.381389"
    },
    {
      "facilityId": 1000104208,
      "epaFacId": "100000171164",
      "facName": "TYSON POULTRY, INC. CHICK-N-QUICK",
      "city": "ROGERS",
      "facStreet1Tx": "400 WEST OLRICH ST.",
      "facStreet2Tx": "PO BOX 900",
      "state": "AR",
      "zipCode": "72756",
      "zip4Code": "0988",
      "county": "BENTON",
      "facLatDecMs": "36.318333",
      "facLongDecMs": "-094.121111"
    },
    {
      "facilityId": 1000118149,
      "epaFacId": "100000171306",
      "facName": "Sysco Arkansas, a Division of Sysco USA II, LLC",
      "city": "Little Rock",
      "facStreet1Tx": "5800 Frozen Road",
      "facStreet2Tx": "",
      "state": "AR",
      "zipCode": "72209",
      "zip4Code": "",
      "county": "PULASKI",
      "facLatDecMs": "34.693422",
      "facLongDecMs": "-092.340391"
    },
    {
      "facilityId": 20454,
      "epaFacId": "100000172555",
      "facName": "WYNNE WATER UTILITIES",
      "city": "Wynne",
      "facStreet1Tx": "545 Bowden Road",
      "facStreet2Tx": null,
      "state": "AR",
      "zipCode": "72396",
      "zip4Code": null,
      "county": "CROSS",
      "facLatDecMs": "35.143361",
      "facLongDecMs": "-91.042667"
    },
    {
      "facilityId": 44197,
      "epaFacId": "100000172813",
      "facName": "Ash Grove Cement Company - Foreman, Arkansas",
      "city": "Foreman",
      "facStreet1Tx": "4457 Highway 108",
      "facStreet2Tx": null,
      "state": "AR",
      "zipCode": "71836",
      "zip4Code": null,
      "county": "LITTLE RIVER",
      "facLatDecMs": "33.693600",
      "facLongDecMs": "-094.425100"
    },
    {
      "facilityId": 1000074850,
      "epaFacId": "100000173411",
      "facName": "Batesville Cold Storage",
      "city": "Batesville",
      "facStreet1Tx": "3054 East Main Street",
      "facStreet2Tx": null,
      "state": "AR",
      "zipCode": "72501",
      "zip4Code": null,
      "county": "INDEPENDENCE",
      "facLatDecMs": "35.806667",
      "facLongDecMs": "-091.608889"
    },
    {
      "facilityId": 50160,
      "epaFacId": "100000174385",
      "facName": "Kaylor Ammonia",
      "city": "Van Buren",
      "facStreet1Tx": "2508 Oak Grove Road",
      "facStreet2Tx": null,
      "state": "AR",
      "zipCode": "72956",
      "zip4Code": null,
      "county": "CRAWFORD",
      "facLatDecMs": "35.235204",
      "facLongDecMs": "-094.297300"
    },
    {
      "facilityId": 23479,
      "epaFacId": "100000175491",
      "facName": "Cedar Piney Water Treatment Plant",
      "city": "Havana",
      "facStreet1Tx": "Hwy 10 West & CR574",
      "facStreet2Tx": null,
      "state": "AR",
      "zipCode": "72842",
      "zip4Code": null,
      "county": "YELL",
      "facLatDecMs": "35.108611",
      "facLongDecMs": "93.491111"
    },
    {
      "facilityId": 23480,
      "epaFacId": "100000175507",
      "facName": "Petit Jean Water Treatment Plant",
      "city": "Danville",
      "facStreet1Tx": "5th and Boulder",
      "facStreet2Tx": null,
      "state": "AR",
      "zipCode": "72833",
      "zip4Code": null,
      "county": "YELL",
      "facLatDecMs": "35.056944",
      "facLongDecMs": "93.396111"
    },
    {
      "facilityId": 1000104536,
      "epaFacId": "100000175758",
      "facName": "George's Further Processing Plant",
      "city": "Springdale",
      "facStreet1Tx": "701 Porter Ave.",
      "facStreet2Tx": "",
      "state": "AR",
      "zipCode": "72764",
      "zip4Code": "",
      "county": "WASHINGTON",
      "facLatDecMs": "36.170206",
      "facLongDecMs": "-94.136348"
    },
    {
      "facilityId": 1000106791,
      "epaFacId": "100000176196",
      "facName": "West Memphis LPG Terminal",
      "city": "West Memphis",
      "facStreet1Tx": "1241 South 8th Street",
      "facStreet2Tx": "",
      "state": "AR",
      "zipCode": "72301",
      "zip4Code": "",
      "county": "CRITTENDEN",
      "facLatDecMs": "35.1311615",
      "facLongDecMs": "-90.175084"
    },
    {
      "facilityId": 24640,
      "epaFacId": "100000177266",
      "facName": "Dow Chemical",
      "city": "Texarkana",
      "facStreet1Tx": "1 Jim Walter Drive",
      "facStreet2Tx": null,
      "state": "AR",
      "zipCode": "71854",
      "zip4Code": null,
      "county": "MILLER",
      "facLatDecMs": "33.45",
      "facLongDecMs": "-94.008333"
    },
    {
      "facilityId": 25635,
      "epaFacId": "100000178568",
      "facName": "McRae Terminal",
      "city": "McRae",
      "facStreet1Tx": "194 Tank Farm Road",
      "facStreet2Tx": null,
      "state": "AR",
      "zipCode": "72052",
      "zip4Code": null,
      "county": "WHITE",
      "facLatDecMs": "35.128361",
      "facLongDecMs": "-91.753667"
    },
    {
      "facilityId": 49071,
      "epaFacId": "100000179497",
      "facName": "Union County Water Treatment Facility",
      "city": "ElDorado",
      "facStreet1Tx": "8730 Calion Highway",
      "facStreet2Tx": null,
      "state": "AR",
      "zipCode": "71730",
      "zip4Code": "6434",
      "county": "UNION",
      "facLatDecMs": "33.338333",
      "facLongDecMs": "-092.538056"
    },
    {
      "facilityId": 1000089783,
      "epaFacId": "100000179727",
      "facName": "Water Treatment Plant",
      "city": "Rogers",
      "facStreet1Tx": "15531 Woods Lodge Road",
      "facStreet2Tx": "",
      "state": "AR",
      "zipCode": "72756",
      "zip4Code": "9088",
      "county": "BENTON",
      "facLatDecMs": "36.398135",
      "facLongDecMs": "-94.0345087"
    },
    {
      "facilityId": 26589,
      "epaFacId": "100000180001",
      "facName": "Benton/Washington Regional Public Water Authority",
      "city": "Lincoln",
      "facStreet1Tx": "15005 N. Jackson Hwy",
      "facStreet2Tx": null,
      "state": "AR",
      "zipCode": "72744",
      "zip4Code": null,
      "county": "WASHINGTON",
      "facLatDecMs": "36.075833",
      "facLongDecMs": "-94.426944"
    },
    {
      "facilityId": 1000080174,
      "epaFacId": "100000181082",
      "facName": "Nestle Prepared Foods Company - Jonesboro, AR",
      "city": "Jonesboro",
      "facStreet1Tx": "One Nestle Way",
      "facStreet2Tx": null,
      "state": "AR",
      "zipCode": "72401",
      "zip4Code": null,
      "county": "CRAIGHEAD",
      "facLatDecMs": "35.821389",
      "facLongDecMs": "-090.583889"
    },
    {
      "facilityId": 1000094742,
      "epaFacId": "100000181536",
      "facName": "Nestle Prepared Foods Company",
      "city": "Jonesboro",
      "facStreet1Tx": "2407 Great Dane Drive",
      "facStreet2Tx": null,
      "state": "AR",
      "zipCode": "72401",
      "zip4Code": null,
      "county": "CRAIGHEAD",
      "facLatDecMs": "35.819569",
      "facLongDecMs": "-090.576883"
    },
    {
      "facilityId": 1000107803,
      "epaFacId": "100000183393",
      "facName": "Magnet Cove Generating Station",
      "city": "Malvern",
      "facStreet1Tx": "410 Henderson Road",
      "facStreet2Tx": "",
      "state": "AR",
      "zipCode": "72104",
      "zip4Code": "",
      "county": "HOT SPRING",
      "facLatDecMs": "34.430000",
      "facLongDecMs": "-092.831944"
    },
    {
      "facilityId": 31753,
      "epaFacId": "100000186372",
      "facName": "Camden, Arkansas Water Treatment Plant",
      "city": "Camden",
      "facStreet1Tx": "101 Ouachita Road 197",
      "facStreet2Tx": null,
      "state": "AR",
      "zipCode": "71707",
      "zip4Code": "5000",
      "county": "OUACHITA",
      "facLatDecMs": "33.591111",
      "facLongDecMs": "-092.830000"
    },
    {
      "facilityId": 1000115142,
      "epaFacId": "100000188584",
      "facName": "Light LPG Terminal",
      "city": "Bono (Light)",
      "facStreet1Tx": "507 Highway 228",
      "facStreet2Tx": "",
      "state": "AR",
      "zipCode": "72416",
      "zip4Code": "9366",
      "county": "GREENE",
      "facLatDecMs": "36.063117",
      "facLongDecMs": "-090.752610"
    },
    {
      "facilityId": 1000080421,
      "epaFacId": "100000188619",
      "facName": "Rixie LPG Terminal",
      "city": "North Little Rock",
      "facStreet1Tx": "8021 Highway 161",
      "facStreet2Tx": null,
      "state": "AR",
      "zipCode": "72117",
      "zip4Code": "1805",
      "county": "PULASKI",
      "facLatDecMs": "34.823895",
      "facLongDecMs": "-092.160740"
    },
    {
      "facilityId": 1000112116,
      "epaFacId": "100000188726",
      "facName": "Champagnolle Water Treatment Plant",
      "city": "El Dorado",
      "facStreet1Tx": "2500 Champagnolle Rd.",
      "facStreet2Tx": "",
      "state": "AR",
      "zipCode": "71730",
      "zip4Code": "",
      "county": "UNION",
      "facLatDecMs": "33.236796",
      "facLongDecMs": "-092.626790"
    },
    {
      "facilityId": 1000046420,
      "epaFacId": "100000189119",
      "facName": "Morrilton Packing Company, Inc.",
      "city": "Morrilton",
      "facStreet1Tx": "51 Blue Diamond Drive",
      "facStreet2Tx": null,
      "state": "AR",
      "zipCode": "72110",
      "zip4Code": null,
      "county": "CONWAY",
      "facLatDecMs": "35.170278",
      "facLongDecMs": "-092.712222"
    },
    {
      "facilityId": 42413,
      "epaFacId": "100000191133",
      "facName": "Spectra Technologies, LLC",
      "city": "East Camden",
      "facStreet1Tx": "Highland Industrial Park, 11AT Area",
      "facStreet2Tx": "Highway 274",
      "state": "AR",
      "zipCode": "71711",
      "zip4Code": null,
      "county": "CALHOUN",
      "facLatDecMs": "33.617700",
      "facLongDecMs": "-092.611483"
    },
    {
      "facilityId": 1000087227,
      "epaFacId": "100000192016",
      "facName": "Arkansas Refrigerated Services",
      "city": "Fort Smith",
      "facStreet1Tx": "11 North B and 24/25 North D Street",
      "facStreet2Tx": null,
      "state": "AR",
      "zipCode": "72901",
      "zip4Code": null,
      "county": "SEBASTIAN",
      "facLatDecMs": "35.3931607",
      "facLongDecMs": "-94.4276511"
    },
    {
      "facilityId": 43879,
      "epaFacId": "100000193168",
      "facName": "Malvern Wastewater Treatment Plant",
      "city": "Malvern",
      "facStreet1Tx": "3672 Grigsby Ford Road",
      "facStreet2Tx": null,
      "state": "AR",
      "zipCode": "72104",
      "zip4Code": null,
      "county": "HOT SPRING",
      "facLatDecMs": "34.355556",
      "facLongDecMs": "-092.846667"
    },
    {
      "facilityId": 1000103647,
      "epaFacId": "100000194149",
      "facName": "DeWafelbakkers",
      "city": "North Little Rock",
      "facStreet1Tx": "10000 Crystal Hill Road",
      "facStreet2Tx": "",
      "state": "AR",
      "zipCode": "72113",
      "zip4Code": "",
      "county": "PULASKI",
      "facLatDecMs": "34.819167",
      "facLongDecMs": "-092.372500"
    },
    {
      "facilityId": 1000096043,
      "epaFacId": "100000196977",
      "facName": "HWRT Terminal - N  Little Rock, LLC",
      "city": "North Little Rock",
      "facStreet1Tx": "2626 Central Airport Road",
      "facStreet2Tx": null,
      "state": "AR",
      "zipCode": "72117",
      "zip4Code": "9504",
      "county": "PULASKI",
      "facLatDecMs": "34.776419",
      "facLongDecMs": "-092.176278"
    },
    {
      "facilityId": 1000085964,
      "epaFacId": "100000199616",
      "facName": "Don's Cold Storage Facility",
      "city": "Rogers",
      "facStreet1Tx": "801 West Easy Street",
      "facStreet2Tx": null,
      "state": "AR",
      "zipCode": "72756",
      "zip4Code": null,
      "county": "BENTON",
      "facLatDecMs": "36.349998",
      "facLongDecMs": "-094.126976"
    },
    {
      "facilityId": 1000030901,
      "epaFacId": "100000200301",
      "facName": "ozark Mountain Poultry",
      "city": "Batesville",
      "facStreet1Tx": "PO Box 2196",
      "facStreet2Tx": "1420 S St. Louis Street",
      "state": "AR",
      "zipCode": "72501",
      "zip4Code": null,
      "county": "INDEPENDENCE",
      "facLatDecMs": "35.764922",
      "facLongDecMs": "-091.642917"
    },
    {
      "facilityId": 49981,
      "epaFacId": "100000200445",
      "facName": "Norphlet Chemical, Inc.",
      "city": "Norphlet",
      "facStreet1Tx": "600 Macmillan Drive",
      "facStreet2Tx": null,
      "state": "AR",
      "zipCode": "71759",
      "zip4Code": null,
      "county": "UNION",
      "facLatDecMs": "33.183400",
      "facLongDecMs": "-092.392200"
    },
    {
      "facilityId": 1000106634,
      "epaFacId": "100000201462",
      "facName": "Chemours El Dorado Plant",
      "city": "El Dorado",
      "facStreet1Tx": "322 Southfield Cutoff",
      "facStreet2Tx": "",
      "state": "AR",
      "zipCode": "71730",
      "zip4Code": "",
      "county": "UNION",
      "facLatDecMs": "33.110000",
      "facLongDecMs": "-092.675000"
    },
    {
      "facilityId": 51200,
      "epaFacId": "100000202014",
      "facName": "Chlorine Repair Services",
      "city": "Marble",
      "facStreet1Tx": "24138 Hwy. 412",
      "facStreet2Tx": null,
      "state": "AR",
      "zipCode": "72740",
      "zip4Code": null,
      "county": "MADISON",
      "facLatDecMs": "36.139250",
      "facLongDecMs": "-093.584380"
    },
    {
      "facilityId": 1000012319,
      "epaFacId": "100000207812",
      "facName": "Twin Rivers Foods Inc.",
      "city": "Fort Smith",
      "facStreet1Tx": "609 Navy rd.",
      "facStreet2Tx": null,
      "state": "AR",
      "zipCode": "72901",
      "zip4Code": null,
      "county": "SEBASTIAN",
      "facLatDecMs": "35.367973",
      "facLongDecMs": "-094.428360"
    },
    {
      "facilityId": 1000118250,
      "epaFacId": "100000209874",
      "facName": "Plum Point Energy Station",
      "city": "Osceola",
      "facStreet1Tx": "2732 South County Road 623",
      "facStreet2Tx": "",
      "state": "AR",
      "zipCode": "72370",
      "zip4Code": "",
      "county": "MISSISSIPPI",
      "facLatDecMs": "35.663731",
      "facLongDecMs": "-89.946567"
    },
    {
      "facilityId": 1000104278,
      "epaFacId": "100000210835",
      "facName": "HWTG - Fort Smith",
      "city": "Fort Smith",
      "facStreet1Tx": "6614 Old Harrison Lane",
      "facStreet2Tx": "",
      "state": "AR",
      "zipCode": "72916",
      "zip4Code": "",
      "county": "SEBASTIAN",
      "facLatDecMs": "35.265797",
      "facLongDecMs": "-94.364747"
    },
    {
      "facilityId": 1000098402,
      "epaFacId": "100000212236",
      "facName": "CCS Maumelle",
      "city": "Maumelle",
      "facStreet1Tx": "11100 Louis Nelson Drive",
      "facStreet2Tx": null,
      "state": "AR",
      "zipCode": "72113",
      "zip4Code": null,
      "county": "PULASKI",
      "facLatDecMs": "34.861472",
      "facLongDecMs": "-092.389639"
    },
    {
      "facilityId": 1000099492,
      "epaFacId": "100000215073",
      "facName": "CWL - Commerce Pumping Station",
      "city": "Jonesboro",
      "facStreet1Tx": "1900 Commerce Drive",
      "facStreet2Tx": null,
      "state": "AR",
      "zipCode": "72401",
      "zip4Code": null,
      "county": "CRAIGHEAD",
      "facLatDecMs": "35.8220586",
      "facLongDecMs": "-90.624418"
    },
    {
      "facilityId": 1000104182,
      "epaFacId": "100000215956",
      "facName": "Dorcheat Gas Plant",
      "city": "Magnolia",
      "facStreet1Tx": "488 County Road 204",
      "facStreet2Tx": "",
      "state": "AR",
      "zipCode": "71753",
      "zip4Code": "",
      "county": "COLUMBIA",
      "facLatDecMs": "33.188113",
      "facLongDecMs": "-93.332437"
    },
    {
      "facilityId": 1000092278,
      "epaFacId": "100000218542",
      "facName": "Turk Power Plant",
      "city": "Fulton",
      "facStreet1Tx": "3711 Highway 355 S",
      "facStreet2Tx": "",
      "state": "AR",
      "zipCode": "71838",
      "zip4Code": "",
      "county": "HEMPSTEAD",
      "facLatDecMs": "33.652587",
      "facLongDecMs": "-93.810368"
    },
    {
      "facilityId": 1000073227,
      "epaFacId": "100000220389",
      "facName": "Blytheville Waterworks",
      "city": "Blytheville",
      "facStreet1Tx": "200 West Rose St",
      "facStreet2Tx": null,
      "state": "AR",
      "zipCode": "72315",
      "zip4Code": null,
      "county": "MISSISSIPPI",
      "facLatDecMs": "35.922824",
      "facLongDecMs": "-089.904357"
    },
    {
      "facilityId": 1000103299,
      "epaFacId": "100000220619",
      "facName": "Sage V Foods, LLC",
      "city": "Little Rock",
      "facStreet1Tx": "5901 Sloane Drive",
      "facStreet2Tx": "",
      "state": "AR",
      "zipCode": "72206",
      "zip4Code": "",
      "county": "PULASKI",
      "facLatDecMs": "34.70588",
      "facLongDecMs": "-092.20677"
    },
    {
      "facilityId": 1000092529,
      "epaFacId": "100000224223",
      "facName": "Actagro LLC",
      "city": "Osceola",
      "facStreet1Tx": "1300 Richard Prewitt Dr",
      "facStreet2Tx": null,
      "state": "AR",
      "zipCode": "72370",
      "zip4Code": null,
      "county": "MISSISSIPPI",
      "facLatDecMs": "35.6900277",
      "facLongDecMs": "-89.9891944"
    },
    {
      "facilityId": 1000110619,
      "epaFacId": "100000225687",
      "facName": "Tyson Foods, Inc. Grannis, AR",
      "city": "Grannis",
      "facStreet1Tx": "8564 Hwy. 71 Sth",
      "facStreet2Tx": "",
      "state": "AR",
      "zipCode": "71944",
      "zip4Code": "0038",
      "county": "POLK",
      "facLatDecMs": "34.240198",
      "facLongDecMs": "-94.335945"
    },
    {
      "facilityId": 1000066707,
      "epaFacId": "100000225767",
      "facName": "L'Oreal USA",
      "city": "North Little Rock",
      "facStreet1Tx": "11500 Maybelline Road",
      "facStreet2Tx": null,
      "state": "AR",
      "zipCode": "72117",
      "zip4Code": null,
      "county": "PULASKI",
      "facLatDecMs": "34.781533",
      "facLongDecMs": "-92.138295"
    },
    {
      "facilityId": 1000119324,
      "epaFacId": "100000228121",
      "facName": "Turner Holdings LLC",
      "city": "Little Rock",
      "facStreet1Tx": "6901 Interstate 30",
      "facStreet2Tx": "",
      "state": "AR",
      "zipCode": "72209",
      "zip4Code": "",
      "county": "PULASKI",
      "facLatDecMs": "34.682910",
      "facLongDecMs": "-92.309780"
    },
    {
      "facilityId": 1000085902,
      "epaFacId": "100000228808",
      "facName": "North Little Rock Terminal",
      "city": "North Little Rock",
      "facStreet1Tx": "2207 Central Airport Road",
      "facStreet2Tx": null,
      "state": "AR",
      "zipCode": "72117",
      "zip4Code": null,
      "county": "PULASKI",
      "facLatDecMs": "34.770924",
      "facLongDecMs": "-92.177797"
    },
    {
      "facilityId": 1000107593,
      "epaFacId": "100000229317",
      "facName": "Envirotech Chemical Services Inc.",
      "city": "Helena",
      "facStreet1Tx": "724 Phillips Road 411",
      "facStreet2Tx": "",
      "state": "AR",
      "zipCode": "72342",
      "zip4Code": "",
      "county": "PHILLIPS",
      "facLatDecMs": "34.41527",
      "facLongDecMs": "-90.6236"
    },
    {
      "facilityId": 1000050639,
      "epaFacId": "100000230038",
      "facName": "Cross Oil Refining and Marketing",
      "city": "Smackover",
      "facStreet1Tx": "484 E. 6th Street",
      "facStreet2Tx": null,
      "state": "AR",
      "zipCode": "71762",
      "zip4Code": null,
      "county": "UNION",
      "facLatDecMs": "33.363611",
      "facLongDecMs": "-92.714167"
    },
    {
      "facilityId": 1000114102,
      "epaFacId": "100000232072",
      "facName": "Peco Foods Inc - Pocahontas Processing Facility",
      "city": "Pocahontas",
      "facStreet1Tx": "4114 Hwy 67 South",
      "facStreet2Tx": "",
      "state": "AR",
      "zipCode": "72455",
      "zip4Code": "",
      "county": "RANDOLPH",
      "facLatDecMs": "36.214444",
      "facLongDecMs": "-90.956112"
    },
    {
      "facilityId": 1000095664,
      "epaFacId": "100000232385",
      "facName": "Port of Little Rock LPG Terminal",
      "city": "Little Rock",
      "facStreet1Tx": "9700 Industrial Harbor Dr",
      "facStreet2Tx": "",
      "state": "AR",
      "zipCode": "72206",
      "zip4Code": "",
      "county": "PULASKI",
      "facLatDecMs": "34.716133",
      "facLongDecMs": "-92.172500"
    },
    {
      "facilityId": 1000097956,
      "epaFacId": "100000234258",
      "facName": "Performance Foodservice Little Rock",
      "city": "Little Rock",
      "facStreet1Tx": "4901 Asher Avenue",
      "facStreet2Tx": null,
      "state": "AR",
      "zipCode": "72204",
      "zip4Code": null,
      "county": "PULASKI",
      "facLatDecMs": "34.717878",
      "facLongDecMs": "-92.327153"
    },
    {
      "facilityId": 1000100050,
      "epaFacId": "100000234285",
      "facName": "Vantive US Healthcare LLC",
      "city": "Mountain Home",
      "facStreet1Tx": "1900 Hwy 201 N",
      "facStreet2Tx": "",
      "state": "AR",
      "zipCode": "72653",
      "zip4Code": "",
      "county": "BAXTER",
      "facLatDecMs": "36.3586166",
      "facLongDecMs": "-92.3883777"
    },
    {
      "facilityId": 1000101460,
      "epaFacId": "100000235051",
      "facName": "Rogers Pollution Control Facility",
      "city": "Rogers",
      "facStreet1Tx": "4300 Rainbow Rd",
      "facStreet2Tx": null,
      "state": "AR",
      "zipCode": "72758",
      "zip4Code": null,
      "county": "BENTON",
      "facLatDecMs": "36.299739",
      "facLongDecMs": "-94.214216"
    },
    {
      "facilityId": 1000105220,
      "epaFacId": "100000235088",
      "facName": "Simmons Feed Ingredients Inc. - Siloam Springs",
      "city": "Siloam Springs",
      "facStreet1Tx": "1113 E Ashley Rd",
      "facStreet2Tx": "",
      "state": "AR",
      "zipCode": "72761",
      "zip4Code": "",
      "county": "BENTON",
      "facLatDecMs": "36.187775",
      "facLongDecMs": "-94.530005"
    },
    {
      "facilityId": 1000101202,
      "epaFacId": "100000235168",
      "facName": "Turkey Hill Dairy - Searcy",
      "city": "Searcy",
      "facStreet1Tx": "205 South Spring St.",
      "facStreet2Tx": "",
      "state": "AR",
      "zipCode": "72143",
      "zip4Code": "",
      "county": "WHITE",
      "facLatDecMs": "35.247195",
      "facLongDecMs": "-91.738239"
    },
    {
      "facilityId": 1000101598,
      "epaFacId": "100000236363",
      "facName": "Ben E. Keith - Mid-South",
      "city": "North Little Rock",
      "facStreet1Tx": "1 Ben E Keith Way",
      "facStreet2Tx": null,
      "state": "AR",
      "zipCode": "72117",
      "zip4Code": null,
      "county": "PULASKI",
      "facLatDecMs": "34.7725",
      "facLongDecMs": "-092.16473"
    },
    {
      "facilityId": 1000105900,
      "epaFacId": "100000238548",
      "facName": "Darling Ingredients Springdale",
      "city": "Springdale",
      "facStreet1Tx": "1013 N Jefferson St",
      "facStreet2Tx": "",
      "state": "AR",
      "zipCode": "72764",
      "zip4Code": "",
      "county": "WASHINGTON",
      "facLatDecMs": "36.195106",
      "facLongDecMs": "-94.121632"
    },
    {
      "facilityId": 1000108373,
      "epaFacId": "100000240483",
      "facName": "United Industries Inc",
      "city": "Bentonville",
      "facStreet1Tx": "1900 E Central Ave",
      "facStreet2Tx": "",
      "state": "AR",
      "zipCode": "72712",
      "zip4Code": "",
      "county": "BENTON",
      "facLatDecMs": "36.368269",
      "facLongDecMs": "-94.188813"
    },
    {
      "facilityId": 1000117452,
      "epaFacId": "100000242588",
      "facName": "Benton County Processing",
      "city": "Gentry",
      "facStreet1Tx": "9806 Hwy 59",
      "facStreet2Tx": "",
      "state": "AR",
      "zipCode": "72734",
      "zip4Code": "",
      "county": "BENTON",
      "facLatDecMs": "36.296964",
      "facLongDecMs": "-94.441344"
    },
    {
      "facilityId": 1000119731,
      "epaFacId": "100000243364",
      "facName": "Americold North Little Rock",
      "city": "North Little Rock",
      "facStreet1Tx": "1400 Gregory Street",
      "facStreet2Tx": "",
      "state": "AR",
      "zipCode": "72114",
      "zip4Code": "",
      "county": "PULASKI",
      "facLatDecMs": "34.768765",
      "facLongDecMs": "-92.245579"
    },
    {
      "facilityId": 1000094766,
      "epaFacId": "100000247128",
      "facName": "US Foods, Inc. - Little Rock",
      "city": "North Little Rock",
      "facStreet1Tx": "800 Fiber Optic Drive",
      "facStreet2Tx": null,
      "state": "AR",
      "zipCode": "72117",
      "zip4Code": null,
      "county": "PULASKI",
      "facLatDecMs": "34.735204",
      "facLongDecMs": "-92.146462"
    },
    {
      "facilityId": 1000096489,
      "epaFacId": "100000247592",
      "facName": "Continental Carbonic-El Dorado",
      "city": "El Dorado",
      "facStreet1Tx": "4500 N. West Avenue",
      "facStreet2Tx": "",
      "state": "AR",
      "zipCode": "71730",
      "zip4Code": "",
      "county": "UNION",
      "facLatDecMs": "33.263722",
      "facLongDecMs": "-92.682521"
    },
    {
      "facilityId": 1000099802,
      "epaFacId": "100000248305",
      "facName": "Coastal Energy Corporation-Yellville Transload",
      "city": "Yellville",
      "facStreet1Tx": "176 Development Drive",
      "facStreet2Tx": null,
      "state": "AR",
      "zipCode": "72687",
      "zip4Code": null,
      "county": "MARION",
      "facLatDecMs": "36.244789",
      "facLongDecMs": "-92.703010"
    },
    {
      "facilityId": 1000103166,
      "epaFacId": "100000249689",
      "facName": "Murphy Jonesboro Terminal",
      "city": "Bono",
      "facStreet1Tx": "15211 US Highway 63 North",
      "facStreet2Tx": "",
      "state": "AR",
      "zipCode": "72416",
      "zip4Code": "",
      "county": "CRAIGHEAD",
      "facLatDecMs": "35.961035",
      "facLongDecMs": "-90.838731"
    },
    {
      "facilityId": 1000107662,
      "epaFacId": "100000252219",
      "facName": "Entergy  Arkansas Hot Spring Energy Facility",
      "city": "Malvern",
      "facStreet1Tx": "696 Black Branch Road",
      "facStreet2Tx": "",
      "state": "AR",
      "zipCode": "72104",
      "zip4Code": "",
      "county": "HOT SPRING",
      "facLatDecMs": "34.296936",
      "facLongDecMs": "-92.867893"
    },
    {
      "facilityId": 1000107983,
      "epaFacId": "100000252335",
      "facName": "Nucor Insulated Panel Group Sheridan, AR",
      "city": "Sheridan",
      "facStreet1Tx": "1811 N Rock St",
      "facStreet2Tx": "",
      "state": "AR",
      "zipCode": "72150",
      "zip4Code": "",
      "county": "GRANT",
      "facLatDecMs": "34.326201 ",
      "facLongDecMs": "-92.396510 "
    },
    {
      "facilityId": 1000117723,
      "epaFacId": "100000255243",
      "facName": "Welsco, Inc",
      "city": "North Little Rock",
      "facStreet1Tx": "9006 Crystal Hill Rd.",
      "facStreet2Tx": "",
      "state": "AR",
      "zipCode": "72113",
      "zip4Code": "",
      "county": "PULASKI",
      "facLatDecMs": "34.812600",
      "facLongDecMs": "-92.364610"
    }
  ]
}